{
    "1": {
        "formatted_address": "Steve Biko Rd, Harare, Cape Town, 7784, South Africa",
        "geometry": {
            "location": {
                "lat": -34.0512513,
                "lng": 18.6708217
            },
            "viewport": {
                "northeast": {
                    "lat": -34.04973652010728,
                    "lng": 18.67208882989272
                },
                "southwest": {
                    "lat": -34.05243617989272,
                    "lng": 18.66938917010728
                }
            }
        },
        "icon": "https://maps.gstatic.com/mapfiles/place_api/icons/generic_business-71.png",
        "id": "324480da94c46229e13f360724da250ed14ec193",
        "name": "Michael Mapongwana Community Health Centre",
        "opening_hours": {
            "open_now": false
        },
        "photos": [
            {
                "height": 311,
                "html_attributions": [
                    "<a href=\"https://maps.google.com/maps/contrib/111832357248947627207/photos\">lutho tokwe</a>"
                ],
                "photo_reference": "CmRaAAAA91wzQaUzfxvbmN9aHo6x7xteQeeQ83vu0Cra9DsNnX2NFJhMmxDDhmVEAMTm_Xytptln95GlMXudIiloDgBiDdvj8Eenxpk5jg_rCokafA3CRjOCYgbL0yk3FgbppZzTEhB5YpTdWK1YfNdkNNr2949FGhTrOe6iY7r3GJtOwY75o8nvzwg7bw",
                "width": 422
            }
        ],
        "place_id": "ChIJUySkLh9JzB0RBSMTlJHJ5XQ",
        "plus_code": {
            "compound_code": "WMXC+F8 Khayelitsha, Cape Town, South Africa",
            "global_code": "4FQWWMXC+F8"
        },
        "rating": 2,
        "reference": "ChIJUySkLh9JzB0RBSMTlJHJ5XQ",
        "types": [
            "health",
            "point_of_interest",
            "establishment"
        ]
    },
    "2": {
        "formatted_address": "Ntlazana Street, Khayelitsha, Cape Town, 7784, South Africa",
        "geometry": {
            "location": {
                "lat": -34.0562078,
                "lng": 18.6892787
            },
            "viewport": {
                "northeast": {
                    "lat": -34.05485797010727,
                    "lng": 18.69062852989273
                },
                "southwest": {
                    "lat": -34.05755762989271,
                    "lng": 18.68792887010728
                }
            }
        },
        "icon": "https://maps.gstatic.com/mapfiles/place_api/icons/generic_business-71.png",
        "id": "9f01a2e8d1cd61fd57631ac4665cbb72233c4b77",
        "name": "Kuyasa Clinic",
        "opening_hours": {
            "open_now": true
        },
        "photos": [
            {
                "height": 3456,
                "html_attributions": [
                    "<a href=\"https://maps.google.com/maps/contrib/118228490712705240284/photos\">Dillon Wademan</a>"
                ],
                "photo_reference": "CmRaAAAAtz8lLKenHSyQwr5ZJsoB7ng3pzeNxcp8p9xXMkeX1HanPR1y2kvn6CKOUWgEQdXM88rj1DXQqVaS6gk7dGW4j577pGRPdGWy-kOgHNl-b4DDfgEc8DaJ16BlcT-E2PLvEhCQpF-Wh1KrROpob4hw7z3oGhQMCeVWVlt08brjIQoRdZodwfdM3A",
                "width": 4608
            }
        ],
        "place_id": "ChIJ8UgTJjtJzB0RH8Jy9jTNI0Q",
        "plus_code": {
            "compound_code": "WMVQ+GP Khayelitsha, Cape Town, South Africa",
            "global_code": "4FQWWMVQ+GP"
        },
        "rating": 2.5,
        "reference": "ChIJ8UgTJjtJzB0RH8Jy9jTNI0Q",
        "types": [
            "health",
            "point_of_interest",
            "establishment"
        ]
    },
    "3": {
        "formatted_address": "Lwandle Rd, Khayelitsha, Cape Town, 7784, South Africa",
        "geometry": {
            "location": {
                "lat": -34.0277925,
                "lng": 18.6640471
            },
            "viewport": {
                "northeast": {
                    "lat": -34.02645387010728,
                    "lng": 18.66562197989272
                },
                "southwest": {
                    "lat": -34.02915352989272,
                    "lng": 18.66292232010728
                }
            }
        },
        "icon": "https://maps.gstatic.com/mapfiles/place_api/icons/generic_business-71.png",
        "id": "eb621ce7aa7dec477400f6b6c1a2f0726c654d8b",
        "name": "Khayelitsha Community Health Centre",
        "photos": [
            {
                "height": 1536,
                "html_attributions": [
                    "<a href=\"https://maps.google.com/maps/contrib/116817127031274474526/photos\">Rien Stor</a>"
                ],
                "photo_reference": "CmRaAAAA3QwGGqQ4lEa--2QFZPcI6-Jb4OA1fUN-VakJWbkzbVFKN2u1A4N9kI2XBT1OfimjYvl4MLYx3Pznrmgkq2TA3svTkgdi6kTMSFAPwP1R23yTaSJfG8LEP3s2cLSSF8U0EhAcsP5PoduHAgQi7I53Jg8ZGhSOPKRT8D2Dcyaq12YxrGN7iNejSg",
                "width": 2048
            }
        ],
        "place_id": "ChIJsTdiuilJzB0RHLD7sXy-7xU",
        "plus_code": {
            "compound_code": "XMC7+VJ Khayelitsha, Cape Town, South Africa",
            "global_code": "4FQWXMC7+VJ"
        },
        "rating": 4.2,
        "reference": "ChIJsTdiuilJzB0RHLD7sXy-7xU",
        "types": [
            "health",
            "point_of_interest",
            "establishment"
        ]
    },
    "4": {
        "formatted_address": "Solomon Tshuku Ave, Khayelitsha, Cape Town, 7784, South Africa",
        "geometry": {
            "location": {
                "lat": -34.0134739,
                "lng": 18.6504249
            },
            "viewport": {
                "northeast": {
                    "lat": -34.01279027010727,
                    "lng": 18.65134307989272
                },
                "southwest": {
                    "lat": -34.01548992989272,
                    "lng": 18.64864342010728
                }
            }
        },
        "icon": "https://maps.gstatic.com/mapfiles/place_api/icons/generic_business-71.png",
        "id": "d80a4d6e03767596d46e9b27cd5b1eac3e3f7aa4",
        "name": "Nolungile Youth Clinic",
        "photos": [
            {
                "height": 4032,
                "html_attributions": [
                    "<a href=\"https://maps.google.com/maps/contrib/109909452346812043732/photos\">Mahomed Esmail Paruk</a>"
                ],
                "photo_reference": "CmRaAAAAzZGf7JvEwCd4Ymsr5MqWfsfGuBbHqDZ9ACH2YekVKYReti8yxnnhfUnuaqlcGJzfHVogBWJGKqI2KGNlVFWaoOh_idXYlBGVvJshT95aj5kmWMqAXRLDZBmgxIBj-bK5EhBsBShLDer2Ey8ERmSuDr7fGhSX3AijL-tUfpi9xXupYbIGYKnWlQ",
                "width": 3024
            }
        ],
        "place_id": "ChIJ0d8eizxPzB0Rx2IJlQxMwyw",
        "plus_code": {
            "compound_code": "XMP2+J5 Khayelitsha, Cape Town, South Africa",
            "global_code": "4FQWXMP2+J5"
        },
        "rating": 2.5,
        "reference": "ChIJ0d8eizxPzB0Rx2IJlQxMwyw",
        "types": [
            "health",
            "point_of_interest",
            "establishment"
        ]
    },
    "5": {
        "formatted_address": "6, Thembani Shopping Centre, Govan Mbeki Rd, Khayelitsha, Cape Town, 7784, South Africa",
        "geometry": {
            "location": {
                "lat": -34.013258,
                "lng": 18.6371389
            },
            "viewport": {
                "northeast": {
                    "lat": -34.01187662010728,
                    "lng": 18.63887487989272
                },
                "southwest": {
                    "lat": -34.01457627989272,
                    "lng": 18.63617522010728
                }
            }
        },
        "icon": "https://maps.gstatic.com/mapfiles/place_api/icons/generic_business-71.png",
        "id": "478ee0e653fba617e4819a13c87ec8589a0319a9",
        "name": "Dr Shiraz Patel",
        "opening_hours": {
            "open_now": true
        },
        "place_id": "ChIJZyBevEFPzB0Ru1HqMYy7UFw",
        "plus_code": {
            "compound_code": "XJPP+MV Khayelitsha, Cape Town, South Africa",
            "global_code": "4FQWXJPP+MV"
        },
        "rating": 4.8,
        "reference": "ChIJZyBevEFPzB0Ru1HqMYy7UFw",
        "types": [
            "health",
            "point_of_interest",
            "establishment"
        ]
    },
    "6": {
        "formatted_address": "Cnr Main & Voorbrug Roads, Delft South, Cape Town, 7100, South Africa",
        "geometry": {
            "location": {
                "lat": -33.9917329,
                "lng": 18.633277
            },
            "viewport": {
                "northeast": {
                    "lat": -33.99038307010726,
                    "lng": 18.63462682989272
                },
                "southwest": {
                    "lat": -33.99308272989271,
                    "lng": 18.63192717010728
                }
            }
        },
        "icon": "https://maps.gstatic.com/mapfiles/place_api/icons/generic_business-71.png",
        "id": "b16a63a7bc86c939afdfba2e9d456e5f594ef71f",
        "name": "Delft South Clinic",
        "place_id": "ChIJFYcpSHZPzB0RFUHkuF5S8vc",
        "plus_code": {
            "compound_code": "2J5M+88 Delft, Cape Town, South Africa",
            "global_code": "4FRW2J5M+88"
        },
        "rating": 4,
        "reference": "ChIJFYcpSHZPzB0RFUHkuF5S8vc",
        "types": [
            "health",
            "point_of_interest",
            "establishment"
        ]
    },
    "7": {
        "formatted_address": "Andrew Street, Russels Rest, Cape Town, 7100, South Africa",
        "geometry": {
            "location": {
                "lat": -34.0036925,
                "lng": 18.7270372
            },
            "viewport": {
                "northeast": {
                    "lat": -34.00234267010728,
                    "lng": 18.72838702989272
                },
                "southwest": {
                    "lat": -34.00504232989272,
                    "lng": 18.72568737010728
                }
            }
        },
        "icon": "https://maps.gstatic.com/mapfiles/place_api/icons/generic_business-71.png",
        "id": "b8fb242229e9881dc26073f1b45bf1ea55ef300d",
        "name": "Russels Rest Clinic",
        "opening_hours": {
            "open_now": false
        },
        "place_id": "ChIJNT3cXBpMzB0RFRjw7MVRrn8",
        "plus_code": {
            "compound_code": "XPWG+GR Khayelitsha, Cape Town, South Africa",
            "global_code": "4FQWXPWG+GR"
        },
        "rating": 0,
        "reference": "ChIJNT3cXBpMzB0RFRjw7MVRrn8",
        "types": [
            "health",
            "point_of_interest",
            "establishment"
        ]
    },
    "8": {
        "formatted_address": "2 Okalis Cres, Devon Park Village, Cape Town, 7100, South Africa",
        "geometry": {
            "location": {
                "lat": -34.0091623,
                "lng": 18.7244428
            },
            "viewport": {
                "northeast": {
                    "lat": -34.00791957010728,
                    "lng": 18.72585052989272
                },
                "southwest": {
                    "lat": -34.01061922989273,
                    "lng": 18.72315087010728
                }
            }
        },
        "icon": "https://maps.gstatic.com/mapfiles/place_api/icons/generic_business-71.png",
        "id": "c3e164a0b6b5dc23091262d47eae75a3e4e482cc",
        "name": "Eerste River Clinic",
        "place_id": "ChIJQ9gBWAVMzB0RkwpqwpVG-Hw",
        "plus_code": {
            "compound_code": "XPRF+8Q Khayelitsha, Cape Town, South Africa",
            "global_code": "4FQWXPRF+8Q"
        },
        "rating": 5,
        "reference": "ChIJQ9gBWAVMzB0RkwpqwpVG-Hw",
        "types": [
            "health",
            "point_of_interest",
            "establishment"
        ]
    },
    "9": {
        "formatted_address": "Shop 13, Khayelitsha Mall, Walter Sisulu Rd, Khayelitsha, Cape Town, 7784, South Africa",
        "geometry": {
            "location": {
                "lat": -34.0478589,
                "lng": 18.672864
            },
            "viewport": {
                "northeast": {
                    "lat": -34.04650907010728,
                    "lng": 18.67421382989272
                },
                "southwest": {
                    "lat": -34.04920872989273,
                    "lng": 18.67151417010728
                }
            }
        },
        "icon": "https://maps.gstatic.com/mapfiles/place_api/icons/generic_business-71.png",
        "id": "f620bc339ec7d57ef57fb82c274b13faef95371a",
        "name": "ClinicMed",
        "place_id": "ChIJNySobiJJzB0RHJnvTiOZz2E",
        "plus_code": {
            "compound_code": "XM2F+V4 Khayelitsha, Cape Town, South Africa",
            "global_code": "4FQWXM2F+V4"
        },
        "rating": 0,
        "reference": "ChIJNySobiJJzB0RHJnvTiOZz2E",
        "types": [
            "health",
            "point_of_interest",
            "establishment"
        ]
    },
    "10": {
        "formatted_address": "Solomon Tshuku Street, Khayelitsha Site C, Cape Town, 7784, South Africa",
        "geometry": {
            "location": {
                "lat": -34.013539,
                "lng": 18.6502358
            },
            "viewport": {
                "northeast": {
                    "lat": -34.01218917010728,
                    "lng": 18.65158562989273
                },
                "southwest": {
                    "lat": -34.01488882989273,
                    "lng": 18.64888597010728
                }
            }
        },
        "icon": "https://maps.gstatic.com/mapfiles/place_api/icons/generic_business-71.png",
        "id": "1c35511cd35f7c6fe93fdbb56b6e1629cf511502",
        "name": "Nolungile Community Health Centre Pharmacy",
        "place_id": "ChIJq4Mjmz5PzB0RxdR-Bv73xYU",
        "plus_code": {
            "compound_code": "XMP2+H3 Khayelitsha, Cape Town, South Africa",
            "global_code": "4FQWXMP2+H3"
        },
        "rating": 5,
        "reference": "ChIJq4Mjmz5PzB0RxdR-Bv73xYU",
        "types": [
            "health",
            "point_of_interest",
            "establishment"
        ]
    },
    "11": {
        "formatted_address": "Delft Main Rd, The Hague, Cape Town, 7100, South Africa",
        "geometry": {
            "location": {
                "lat": -33.9739717,
                "lng": 18.6415013
            },
            "viewport": {
                "northeast": {
                    "lat": -33.97286517010728,
                    "lng": 18.64289972989272
                },
                "southwest": {
                    "lat": -33.97556482989272,
                    "lng": 18.64020007010728
                }
            }
        },
        "icon": "https://maps.gstatic.com/mapfiles/place_api/icons/generic_business-71.png",
        "id": "40c9904b9446440e4815fac05d99a484026b28eb",
        "name": "Delft Community Health Centre",
        "opening_hours": {
            "open_now": false
        },
        "photos": [
            {
                "height": 1836,
                "html_attributions": [
                    "<a href=\"https://maps.google.com/maps/contrib/115694407007505259240/photos\">Michael Edward Manning</a>"
                ],
                "photo_reference": "CmRaAAAAR20fwSkxpPF2LCK9n5uxi7uPJUWM0hDUHy-o-X0KPyOfzh5RSn0yq8doV-8scYKMUvNkrzQMo1FUrLtR2TqGzs4-epiSHrF3Mm2DEz3p5_qYIqeOYCMB7UZkLqSWd_qtEhBpjaKlkQkxSSX2wfn4StSRGhSQiO-hzCxEcKU9GcZ6jwS1HebMwg",
                "width": 3264
            }
        ],
        "place_id": "ChIJVyXf8r1PzB0R7lklFoFhA7A",
        "plus_code": {
            "compound_code": "2JGR+CJ Delft, Cape Town, South Africa",
            "global_code": "4FRW2JGR+CJ"
        },
        "rating": 2.8,
        "reference": "ChIJVyXf8r1PzB0R7lklFoFhA7A",
        "types": [
            "health",
            "point_of_interest",
            "establishment"
        ]
    },
    "12": {
        "formatted_address": "178, 134 O Nqubelani St, Unclear, Cape Town, 7100, South Africa",
        "geometry": {
            "location": {
                "lat": -33.991422,
                "lng": 18.6718973
            },
            "viewport": {
                "northeast": {
                    "lat": -33.99005207010728,
                    "lng": 18.67329727989272
                },
                "southwest": {
                    "lat": -33.99275172989272,
                    "lng": 18.67059762010728
                }
            }
        },
        "icon": "https://maps.gstatic.com/mapfiles/place_api/icons/generic_business-71.png",
        "id": "d05a6fd83511cb90ed85b754b0b8e8ab279bc38d",
        "name": "Ivan Toms Clinic",
        "place_id": "ChIJIQVPkvtOzB0RF5X7POSPp-U",
        "plus_code": {
            "compound_code": "2M5C+CQ Khayelitsha, Cape Town, South Africa",
            "global_code": "4FRW2M5C+CQ"
        },
        "rating": 0,
        "reference": "ChIJIQVPkvtOzB0RF5X7POSPp-U",
        "types": [
            "health",
            "point_of_interest",
            "establishment"
        ]
    },
    "13": {
        "formatted_address": "89 Sulani Dr, Village 3 North, Cape Town, 7784, South Africa",
        "geometry": {
            "location": {
                "lat": -34.0244114,
                "lng": 18.665628
            },
            "viewport": {
                "northeast": {
                    "lat": -34.02295222010727,
                    "lng": 18.66684937989272
                },
                "southwest": {
                    "lat": -34.02565187989272,
                    "lng": 18.66414972010728
                }
            }
        },
        "icon": "https://maps.gstatic.com/mapfiles/place_api/icons/generic_business-71.png",
        "id": "1e10f4cf37817721ed5db312e913046c3869756d",
        "name": "Simelela Centre",
        "opening_hours": {
            "open_now": false
        },
        "place_id": "ChIJ6d0m8NVOzB0R5Rc8CWHIQXU",
        "plus_code": {
            "compound_code": "XMG8+67 Khayelitsha, Cape Town, South Africa",
            "global_code": "4FQWXMG8+67"
        },
        "rating": 5,
        "reference": "ChIJ6d0m8NVOzB0R5Rc8CWHIQXU",
        "types": [
            "health",
            "point_of_interest",
            "establishment"
        ]
    },
    "14": {
        "formatted_address": "Washington Square, Cape Town, 7784, South Africa",
        "geometry": {
            "location": {
                "lat": -34.0108818,
                "lng": 18.6320799
            },
            "viewport": {
                "northeast": {
                    "lat": -34.00953197010728,
                    "lng": 18.63342972989272
                },
                "southwest": {
                    "lat": -34.01223162989272,
                    "lng": 18.63073007010728
                }
            }
        },
        "icon": "https://maps.gstatic.com/mapfiles/place_api/icons/generic_business-71.png",
        "id": "1279434e0c099451ba36c4f35dd885c3ae4913f8",
        "name": "CliniMed Medical & Aesthetics Solutions",
        "opening_hours": {
            "open_now": true
        },
        "photos": [
            {
                "height": 3984,
                "html_attributions": [
                    "<a href=\"https://maps.google.com/maps/contrib/102262348812351143662/photos\">Yolani Noah</a>"
                ],
                "photo_reference": "CmRaAAAA1HIxGmUhsMcQuHa6SkKE9MCeCnfUjjDhKrW0KDWwvjXRo-5I28w9la9ZhAAwTkCxWh45Jrud9ggxHhnU1dJ4cdlFT46DeNrTbm7nQKo8H19Y8c961UFzm68NEZZ1QSzAEhCjMKd5lupn9G3Y9ORHWDKYGhSK1ogHiYoSNQYWNK-Rc7iSHOAHSQ",
                "width": 2988
            }
        ],
        "place_id": "ChIJdy34NWhPzB0RPPUoRAFzvts",
        "plus_code": {
            "compound_code": "XJQJ+JR Khayelitsha, Cape Town, South Africa",
            "global_code": "4FQWXJQJ+JR"
        },
        "rating": 0,
        "reference": "ChIJdy34NWhPzB0RPPUoRAFzvts",
        "types": [
            "health",
            "point_of_interest",
            "establishment"
        ]
    },
    "15": {
        "formatted_address": "Clairwood, Cape Town, 7100, South Africa",
        "geometry": {
            "location": {
                "lat": -34.0042576,
                "lng": 18.7264112
            },
            "viewport": {
                "northeast": {
                    "lat": -34.00290777010728,
                    "lng": 18.72776102989272
                },
                "southwest": {
                    "lat": -34.00560742989272,
                    "lng": 18.72506137010727
                }
            }
        },
        "icon": "https://maps.gstatic.com/mapfiles/place_api/icons/generic_business-71.png",
        "id": "9b3b9731ba1058281a0d0d43342fb6209f31906c",
        "name": "Heldercare clinic",
        "place_id": "ChIJR-I2a8JNzB0RsKxjJHYfHhk",
        "plus_code": {
            "compound_code": "XPWG+7H Khayelitsha, Cape Town, South Africa",
            "global_code": "4FQWXPWG+7H"
        },
        "rating": 0,
        "reference": "ChIJR-I2a8JNzB0RsKxjJHYfHhk",
        "types": [
            "health",
            "point_of_interest",
            "establishment"
        ]
    },
    "16": {
        "formatted_address": "98 Sulani Dr, Village 2 North, Cape Town, 7784, South Africa",
        "geometry": {
            "location": {
                "lat": -34.0276466,
                "lng": 18.665745
            },
            "viewport": {
                "northeast": {
                    "lat": -34.02621022010727,
                    "lng": 18.66711367989272
                },
                "southwest": {
                    "lat": -34.02890987989272,
                    "lng": 18.66441402010727
                }
            }
        },
        "icon": "https://maps.gstatic.com/mapfiles/place_api/icons/doctor-71.png",
        "id": "cc0470e9ec9546f32e5bcc74c3b0ee643e211c73",
        "name": "Site B Khayelitsha Community Health Centre - A R V Clinic",
        "opening_hours": {
            "open_now": false
        },
        "photos": [
            {
                "height": 1944,
                "html_attributions": [
                    "<a href=\"https://maps.google.com/maps/contrib/104900432411564614546/photos\">Maxhoba magwashu</a>"
                ],
                "photo_reference": "CmRaAAAAKoDSc-EmE8x7YLN99FK0KYGKnU0cle-S-8CeC1R2guKM81lfWndkvaF4Kas4fjzFLfh4v9ugxNmbdI4Owb-UkeHWZqUm0EnJsoQJQuLuGKHsPWKgtIlj0g4NdvJBhW8vEhBuVTWEwz9ntNOu0TtxgxbFGhRfYso1onHoVReZpsCH4JH4DIw56w",
                "width": 2592
            }
        ],
        "place_id": "ChIJy9AQtypJzB0RNWVuT0gdyB0",
        "plus_code": {
            "compound_code": "XMC8+W7 Khayelitsha, Cape Town, South Africa",
            "global_code": "4FQWXMC8+W7"
        },
        "rating": 3.9,
        "reference": "ChIJy9AQtypJzB0RNWVuT0gdyB0",
        "types": [
            "hospital",
            "point_of_interest",
            "establishment"
        ]
    },
    "17": {
        "formatted_address": "37747 Mbotyi St, Harare, Cape Town, 7784, South Africa",
        "geometry": {
            "location": {
                "lat": -34.054654,
                "lng": 18.667071
            },
            "viewport": {
                "northeast": {
                    "lat": -34.05327402010727,
                    "lng": 18.66843182989272
                },
                "southwest": {
                    "lat": -34.05597367989272,
                    "lng": 18.66573217010727
                }
            }
        },
        "icon": "https://maps.gstatic.com/mapfiles/place_api/icons/generic_business-71.png",
        "id": "17da879cb5d1f5dbe9d22d624a3633ed08d8ce60",
        "name": "St Luke's Combined Hospices-Lizo Nobanda(Multi Drug Resistant TB patients)",
        "place_id": "ChIJd0qW8jdJzB0RfvN8N5gM5t0",
        "plus_code": {
            "compound_code": "WMW8+4R Khayelitsha, Cape Town, South Africa",
            "global_code": "4FQWWMW8+4R"
        },
        "rating": 0,
        "reference": "ChIJd0qW8jdJzB0RfvN8N5gM5t0",
        "types": [
            "health",
            "point_of_interest",
            "establishment"
        ]
    },
    "18": {
        "formatted_address": "Ryan Way, Mandalay, Cape Town, 7785, South Africa",
        "geometry": {
            "location": {
                "lat": -34.0154232,
                "lng": 18.6219551
            },
            "viewport": {
                "northeast": {
                    "lat": -34.01405162010728,
                    "lng": 18.62327097989272
                },
                "southwest": {
                    "lat": -34.01675127989272,
                    "lng": 18.62057132010728
                }
            }
        },
        "icon": "https://maps.gstatic.com/mapfiles/place_api/icons/generic_business-71.png",
        "id": "30fd1e56e3c62d708066979a5a4bc678fa6ba578",
        "name": "Mandalay Public Clinic",
        "opening_hours": {
            "open_now": false
        },
        "place_id": "ChIJRXD_aV5PzB0Rx_hHTKxT-Wc",
        "plus_code": {
            "compound_code": "XJMC+RQ Mitchells Plain, Cape Town, South Africa",
            "global_code": "4FQWXJMC+RQ"
        },
        "rating": 4,
        "reference": "ChIJRXD_aV5PzB0Rx_hHTKxT-Wc",
        "types": [
            "health",
            "point_of_interest",
            "establishment"
        ]
    },
    "19": {
        "formatted_address": "Mitchells Plain, Cape Town, 7785, South Africa",
        "geometry": {
            "location": {
                "lat": -34.050875,
                "lng": 18.6237569
            },
            "viewport": {
                "northeast": {
                    "lat": -34.04952517010728,
                    "lng": 18.62510672989272
                },
                "southwest": {
                    "lat": -34.05222482989272,
                    "lng": 18.62240707010728
                }
            }
        },
        "icon": "https://maps.gstatic.com/mapfiles/place_api/icons/generic_business-71.png",
        "id": "66631fbe0d11a448e3a6bc602175c56ce03869c7",
        "name": "Leathel Clinic",
        "place_id": "ChIJj_lrAaRIzB0RX9uO0DAwcQ4",
        "plus_code": {
            "compound_code": "WJXF+MG Mitchells Plain, Cape Town, South Africa",
            "global_code": "4FQWWJXF+MG"
        },
        "rating": 0,
        "reference": "ChIJj_lrAaRIzB0RX9uO0DAwcQ4",
        "types": [
            "health",
            "point_of_interest",
            "establishment"
        ]
    },
    "20": {
        "formatted_address": "A Z Berman Dr, Mitchells Plain, Cape Town, 7785, South Africa",
        "geometry": {
            "location": {
                "lat": -34.047789,
                "lng": 18.6220599
            },
            "viewport": {
                "northeast": {
                    "lat": -34.04643917010728,
                    "lng": 18.62340972989272
                },
                "southwest": {
                    "lat": -34.04913882989273,
                    "lng": 18.62071007010728
                }
            }
        },
        "icon": "https://maps.gstatic.com/mapfiles/place_api/icons/generic_business-71.png",
        "id": "7e0daed9f3b1c707b6c5571ed3a7da5f1843f0c2",
        "name": "Prime Care Surgery",
        "place_id": "ChIJDS3maaZIzB0R3TudKdLCd00",
        "plus_code": {
            "compound_code": "XJ2C+VR Mitchells Plain, Cape Town, South Africa",
            "global_code": "4FQWXJ2C+VR"
        },
        "rating": 0,
        "reference": "ChIJDS3maaZIzB0R3TudKdLCd00",
        "types": [
            "health",
            "point_of_interest",
            "establishment"
        ]
    },
    "21": {
        "formatted_address": "Gordon St, Eersterriver, Cape Town, 7100, South Africa",
        "geometry": {
            "location": {
                "lat": -34.0012668,
                "lng": 18.7242968
            },
            "viewport": {
                "northeast": {
                    "lat": -33.99988677010728,
                    "lng": 18.72571247989272
                },
                "southwest": {
                    "lat": -34.00258642989273,
                    "lng": 18.72301282010728
                }
            }
        },
        "icon": "https://maps.gstatic.com/mapfiles/place_api/icons/generic_business-71.png",
        "id": "3011b5e8d8e3ce06704a5156c7cc5708637cd863",
        "name": "Dr. Muhammed-Ismail Saith",
        "photos": [
            {
                "height": 2160,
                "html_attributions": [
                    "<a href=\"https://maps.google.com/maps/contrib/106934689593751809839/photos\">Charl Lekay</a>"
                ],
                "photo_reference": "CmRaAAAAym1icxKndLUwPjTzT2RxvUAb0ojEIadfjqcVsjouKygviJrPl31_IW5vXlFz-wS6M-DUdHRyQJ5bjC2Po3h1AjXAD2xRvz4l-G_QYdhr161mGTu43xEtnkrpZM5pPDWIEhCNrIFo5vvlbzUauTUkp8i9GhTy9fbWfkacR7yBhhaJ7fq0Yd4iNQ",
                "width": 3840
            }
        ],
        "place_id": "ChIJg6N6XBdMzB0RKd3nofWaWQM",
        "plus_code": {
            "compound_code": "XPXF+FP Khayelitsha, Cape Town, South Africa",
            "global_code": "4FQWXPXF+FP"
        },
        "rating": 3.3,
        "reference": "ChIJg6N6XBdMzB0RKd3nofWaWQM",
        "types": [
            "dentist",
            "health",
            "point_of_interest",
            "establishment"
        ]
    },
    "22": {
        "formatted_address": "Site B, Lwandle Road, Khayelitsha, Cape Town, 7784, South Africa",
        "geometry": {
            "location": {
                "lat": -34.0278854,
                "lng": 18.6650818
            },
            "viewport": {
                "northeast": {
                    "lat": -34.02653557010727,
                    "lng": 18.66643162989273
                },
                "southwest": {
                    "lat": -34.02923522989272,
                    "lng": 18.66373197010728
                }
            }
        },
        "icon": "https://maps.gstatic.com/mapfiles/place_api/icons/doctor-71.png",
        "id": "86eb68d142a93827918227357bf082cfe6408d9b",
        "name": "Ubuntu Clinic",
        "opening_hours": {
            "open_now": false
        },
        "place_id": "ChIJi1IWkSlJzB0RHwnHdcJo9Lo",
        "plus_code": {
            "compound_code": "XMC8+R2 Khayelitsha, Cape Town, South Africa",
            "global_code": "4FQWXMC8+R2"
        },
        "rating": 0,
        "reference": "ChIJi1IWkSlJzB0RHwnHdcJo9Lo",
        "types": [
            "hospital",
            "point_of_interest",
            "establishment"
        ]
    },
    "23": {
        "formatted_address": "O Nqubelani St, Mfuleni, Cape Town, 7100, South Africa",
        "geometry": {
            "location": {
                "lat": -33.9911316,
                "lng": 18.671271
            },
            "viewport": {
                "northeast": {
                    "lat": -33.98968742010727,
                    "lng": 18.67285602989272
                },
                "southwest": {
                    "lat": -33.99238707989271,
                    "lng": 18.67015637010728
                }
            }
        },
        "icon": "https://maps.gstatic.com/mapfiles/place_api/icons/doctor-71.png",
        "id": "54e18700ad810d02bc7fd1f8e6644f852050626e",
        "name": "Dr Ivan Toms Clinic",
        "place_id": "ChIJ_____8BOzB0RusQTnOWJLtw",
        "plus_code": {
            "compound_code": "2M5C+GG Khayelitsha, Cape Town, South Africa",
            "global_code": "4FRW2M5C+GG"
        },
        "rating": 1,
        "reference": "ChIJ_____8BOzB0RusQTnOWJLtw",
        "types": [
            "hospital",
            "point_of_interest",
            "establishment"
        ]
    },
    "24": {
        "formatted_address": "Lwandle, Village 2 North, Cape Town, 7784, South Africa",
        "geometry": {
            "location": {
                "lat": -34.0276034,
                "lng": 18.6657476
            },
            "viewport": {
                "northeast": {
                    "lat": -34.02625357010728,
                    "lng": 18.66709742989272
                },
                "southwest": {
                    "lat": -34.02895322989272,
                    "lng": 18.66439777010727
                }
            }
        },
        "icon": "https://maps.gstatic.com/mapfiles/place_api/icons/doctor-71.png",
        "id": "85c5d609e625dab449132e9b6f7bbe4c293d313b",
        "name": "Site B Clinic",
        "place_id": "ChIJ25Q0rilJzB0RHorVHs04o7Q",
        "plus_code": {
            "compound_code": "XMC8+X7 Khayelitsha, Cape Town, South Africa",
            "global_code": "4FQWXMC8+X7"
        },
        "rating": 2,
        "reference": "ChIJ25Q0rilJzB0RHorVHs04o7Q",
        "types": [
            "hospital",
            "point_of_interest",
            "establishment"
        ]
    },
    "25": {
        "formatted_address": "First Ave, Mitchells Plain Town Centre, Cape Town, 7789, South Africa",
        "geometry": {
            "location": {
                "lat": -34.0467749,
                "lng": 18.6221303
            },
            "viewport": {
                "northeast": {
                    "lat": -34.04551692010727,
                    "lng": 18.62337467989272
                },
                "southwest": {
                    "lat": -34.04821657989272,
                    "lng": 18.62067502010727
                }
            }
        },
        "icon": "https://maps.gstatic.com/mapfiles/place_api/icons/doctor-71.png",
        "id": "e456266c743f0b46416c9d44419b73560e46fa14",
        "name": "Mitchells Plain Day Hospital",
        "photos": [
            {
                "height": 1836,
                "html_attributions": [
                    "<a href=\"https://maps.google.com/maps/contrib/113667619959989680991/photos\">Fahmy Basardien</a>"
                ],
                "photo_reference": "CmRaAAAAT71tNGS8v6aYkRe2y-NhPKSmO1ZLsEcnB-xHRntXntr65dehTf345n-j831tJNCxxKnzdexev3UYWXJoGq3pmr-mFLgdCk6y0-NivIuHqGunl2RTAuGAn0U7B0TDLZejEhDVuZq53h4R_Bh434sNf8nKGhTI2pMYlZtFz8jT_GSU6HSKJ5jz1g",
                "width": 3264
            }
        ],
        "place_id": "ChIJP0v3IqRIzB0Rh_ALniSZMB0",
        "plus_code": {
            "compound_code": "XJ3C+7V Mitchells Plain, Cape Town, South Africa",
            "global_code": "4FQWXJ3C+7V"
        },
        "rating": 1.4,
        "reference": "ChIJP0v3IqRIzB0Rh_ALniSZMB0",
        "types": [
            "hospital",
            "health",
            "point_of_interest",
            "establishment"
        ]
    },
    "26": {
        "formatted_address": "Walter Sisulu Drive & Steve Biko Drive, Mandela Park, Khayelitsha, 7784, South Africa",
        "geometry": {
            "location": {
                "lat": -34.0505559,
                "lng": 18.6747181
            },
            "viewport": {
                "northeast": {
                    "lat": -34.04893919999999,
                    "lng": 18.67728715
                },
                "southwest": {
                    "lat": -34.0522088,
                    "lng": 18.67280095
                }
            }
        },
        "icon": "https://maps.gstatic.com/mapfiles/place_api/icons/doctor-71.png",
        "id": "955b72024aba6b24229ebe2dc1cff3ae1f0244d4",
        "name": "Khayelitsha Hospital",
        "opening_hours": {
            "open_now": true
        },
        "place_id": "ChIJIcuYVhhJzB0RpvNrYch-Tfs",
        "plus_code": {
            "compound_code": "WMXF+QV Khayelitsha, Cape Town, South Africa",
            "global_code": "4FQWWMXF+QV"
        },
        "rating": 2.9,
        "reference": "ChIJIcuYVhhJzB0RpvNrYch-Tfs",
        "types": [
            "hospital",
            "point_of_interest",
            "establishment"
        ]
    },
    "27": {
        "formatted_address": "Cnr Forest Drive & Oasis Road, Eerste River, Cape Town, 7100, South Africa",
        "geometry": {
            "location": {
                "lat": -34.006388,
                "lng": 18.7133431
            },
            "viewport": {
                "northeast": {
                    "lat": -34.00503817010728,
                    "lng": 18.71469292989273
                },
                "southwest": {
                    "lat": -34.00773782989273,
                    "lng": 18.71199327010728
                }
            }
        },
        "icon": "https://maps.gstatic.com/mapfiles/place_api/icons/generic_business-71.png",
        "id": "d83da19931407f77e765f43ba8e3bbd6a9a346db",
        "name": "Coetze J P",
        "opening_hours": {
            "open_now": true
        },
        "photos": [
            {
                "height": 3024,
                "html_attributions": [
                    "<a href=\"https://maps.google.com/maps/contrib/111815237034296813546/photos\">mike fox</a>"
                ],
                "photo_reference": "CmRaAAAAj8V7jL7U0ccscwdnaun7kjIppCV0rN762MFvIjQI0_3v0U-Rw8YmsWLtQ6oFPj1cEndfd5AlIig-z2vfb7LrDmj7c7g6fNAaunAMUZ3QOP4cB1r3Q4dc3bpgNxVZ5SHWEhCEBGmXZNHOrFoQYPayiJFmGhSJHOCy_pbY2H_2WKBkJOBTv1v3JA",
                "width": 4032
            }
        ],
        "place_id": "ChIJ--N7kh1MzB0RT4DhnhgaZPA",
        "plus_code": {
            "compound_code": "XPV7+C8 Khayelitsha, Cape Town, South Africa",
            "global_code": "4FQWXPV7+C8"
        },
        "rating": 3,
        "reference": "ChIJ--N7kh1MzB0RT4DhnhgaZPA",
        "types": [
            "doctor",
            "health",
            "point_of_interest",
            "establishment"
        ]
    },
    "28": {
        "formatted_address": "Shop No.13, Khayelitsha Mall, Walter Sisulu Rd, Khayelitsha, Cape Town, 7784, South Africa",
        "geometry": {
            "location": {
                "lat": -34.047804,
                "lng": 18.6729339
            },
            "viewport": {
                "northeast": {
                    "lat": -34.04645417010728,
                    "lng": 18.67428372989272
                },
                "southwest": {
                    "lat": -34.04915382989272,
                    "lng": 18.67158407010728
                }
            }
        },
        "icon": "https://maps.gstatic.com/mapfiles/place_api/icons/generic_business-71.png",
        "id": "91291b7b371e496befddb609fec4f6bbec7ad5a9",
        "name": "Khayelitsha Medical Centre",
        "place_id": "ChIJzXtLaSJJzB0R-sswTmfFoz4",
        "plus_code": {
            "compound_code": "XM2F+V5 Khayelitsha, Cape Town, South Africa",
            "global_code": "4FQWXM2F+V5"
        },
        "rating": 3.5,
        "reference": "ChIJzXtLaSJJzB0R-sswTmfFoz4",
        "types": [
            "doctor",
            "health",
            "point_of_interest",
            "establishment"
        ]
    },
    "29": {
        "formatted_address": "Bentley St, Sunset Glen, Cape Town, 7100, South Africa",
        "geometry": {
            "location": {
                "lat": -33.9775775,
                "lng": 18.6863554
            },
            "viewport": {
                "northeast": {
                    "lat": -33.97625142010727,
                    "lng": 18.68744377989272
                },
                "southwest": {
                    "lat": -33.97895107989272,
                    "lng": 18.68474412010728
                }
            }
        },
        "icon": "https://maps.gstatic.com/mapfiles/place_api/icons/generic_business-71.png",
        "id": "268cfa8a91c2903fcacc154dcda52376a9e862e9",
        "name": "Bluedowns Clinic",
        "place_id": "ChIJxz78VF5OzB0R1pGMpU-OAI8",
        "plus_code": {
            "compound_code": "2MCP+XG Blue Downs, Cape Town, South Africa",
            "global_code": "4FRW2MCP+XG"
        },
        "rating": 0,
        "reference": "ChIJxz78VF5OzB0R1pGMpU-OAI8",
        "types": [
            "health",
            "point_of_interest",
            "establishment"
        ]
    },
    "30": {
        "formatted_address": "-34.036946, 18.676473, 16 Shwabane Cres, Village 2 North, Cape Town, 7784, South Africa",
        "geometry": {
            "location": {
                "lat": -34.0369461,
                "lng": 18.676473
            },
            "viewport": {
                "northeast": {
                    "lat": -34.03579187010728,
                    "lng": 18.67788802989272
                },
                "southwest": {
                    "lat": -34.03849152989272,
                    "lng": 18.67518837010727
                }
            }
        },
        "icon": "https://maps.gstatic.com/mapfiles/place_api/icons/generic_business-71.png",
        "id": "cc28c59ce7ba903905178f2e0ecac9efc51f9a31",
        "name": "Spec-Savers Khayelitsha",
        "opening_hours": {
            "open_now": true
        },
        "photos": [
            {
                "height": 250,
                "html_attributions": [
                    "<a href=\"https://maps.google.com/maps/contrib/104303460361376904886/photos\">Spec Savers Khayelitsha</a>"
                ],
                "photo_reference": "CmRZAAAA2WYvVaZT0zmln8bTQtry6qAY6hVgV6ayIiuV7xEF7lV_tbis-3cggoKuicJKObud7GsvPfF_cG6bhyDCisVi-2cLKtku45H86UiIPbhcjUT3xpsR3FgvTKqE_lz21i5WEhDNm3h9ntIgRAM9Qx4UFpuJGhQzZSTDSW-fhiYKs63yOZKLj80aeA",
                "width": 250
            }
        ],
        "place_id": "ChIJf6g78yFJzB0Rq719UDxFIkA",
        "plus_code": {
            "compound_code": "XM7G+6H Khayelitsha, Cape Town, South Africa",
            "global_code": "4FQWXM7G+6H"
        },
        "rating": 0,
        "reference": "ChIJf6g78yFJzB0Rq719UDxFIkA",
        "types": [
            "doctor",
            "store",
            "health",
            "point_of_interest",
            "establishment"
        ]
    },
    "31": {
        "formatted_address": "saawitqi, Philippi, Cape Town, 7785, South Africa",
        "geometry": {
            "location": {
                "lat": -34.015534,
                "lng": 18.6120247
            },
            "viewport": {
                "northeast": {
                    "lat": -34.01418417010727,
                    "lng": 18.61337452989272
                },
                "southwest": {
                    "lat": -34.01688382989272,
                    "lng": 18.61067487010727
                }
            }
        },
        "icon": "https://maps.gstatic.com/mapfiles/place_api/icons/generic_business-71.png",
        "id": "203ab891c5603be4db60a02f2c1b6834116ba41d",
        "name": "Mzamomhle Clinic",
        "opening_hours": {},
        "place_id": "ChIJIRV8rPRFzB0R7rP1EqAuom8",
        "plus_code": {
            "compound_code": "XJM6+QR Philippi, Cape Town, South Africa",
            "global_code": "4FQWXJM6+QR"
        },
        "rating": 3,
        "reference": "ChIJIRV8rPRFzB0R7rP1EqAuom8",
        "types": [
            "health",
            "point_of_interest",
            "establishment"
        ]
    },
    "32": {
        "formatted_address": "21297 Govan Mbeki Road, Khayelitsha, Mandela Park, 7740, South Africa",
        "geometry": {
            "location": {
                "lat": -34.047382,
                "lng": 18.682374
            },
            "viewport": {
                "northeast": {
                    "lat": -34.04603217010727,
                    "lng": 18.68372382989272
                },
                "southwest": {
                    "lat": -34.04873182989272,
                    "lng": 18.68102417010727
                }
            }
        },
        "icon": "https://maps.gstatic.com/mapfiles/place_api/icons/generic_business-71.png",
        "id": "08d0c63f2e3275c353e3a20fb581ae3a775ce3ef",
        "name": "Mdzananda Animal Clinic Khayelitsha",
        "opening_hours": {
            "open_now": false
        },
        "photos": [
            {
                "height": 1080,
                "html_attributions": [
                    "<a href=\"https://maps.google.com/maps/contrib/107085468160499348698/photos\">Lee Bergman</a>"
                ],
                "photo_reference": "CmRaAAAABBa5OzkpsQbYuXZknQSi1Kf0lVfg8tv28ML6gW35CRdHXYb0cQC6i-ioe7FBuBxrpdZiLkOLqkNtxnlFHtR-981jb4ioVLHZv9bE5sz75vL8C5yuNpcrg_p1n1hDQu7mEhA9HHfnh3_uhdsOlji958quGhSzr9N4YtVetdClYyZGrzVbcBTRkA",
                "width": 1080
            }
        ],
        "place_id": "ChIJy9EdzJ1IzB0Rc3AsxTU1TUY",
        "plus_code": {
            "compound_code": "XM3J+2W Khayelitsha, Cape Town, South Africa",
            "global_code": "4FQWXM3J+2W"
        },
        "rating": 4.3,
        "reference": "ChIJy9EdzJ1IzB0Rc3AsxTU1TUY",
        "types": [
            "veterinary_care",
            "point_of_interest",
            "establishment"
        ]
    },
    "33": {
        "formatted_address": "Merrydale Ave, Mitchells Plain, Cape Town, 7785, South Africa",
        "geometry": {
            "location": {
                "lat": -34.0499859,
                "lng": 18.615841
            },
            "viewport": {
                "northeast": {
                    "lat": -34.04867162010728,
                    "lng": 18.61708477989272
                },
                "southwest": {
                    "lat": -34.05137127989272,
                    "lng": 18.61438512010728
                }
            }
        },
        "icon": "https://maps.gstatic.com/mapfiles/place_api/icons/generic_business-71.png",
        "id": "cd3f659f80ee19e4e48b3935431a82c7bc882260",
        "name": "SAMWUMED MEDI CENTRE",
        "place_id": "ChIJ_____6tIzB0Ro0aa0hs_TgI",
        "plus_code": {
            "compound_code": "XJ28+28 Mitchells Plain, Cape Town, South Africa",
            "global_code": "4FQWXJ28+28"
        },
        "rating": 0,
        "reference": "ChIJ_____6tIzB0Ro0aa0hs_TgI",
        "types": [
            "health",
            "point_of_interest",
            "establishment"
        ]
    },
    "34": {
        "formatted_address": "Ngqabe Rd, Lower Crossroad, Cape Town, 7750, South Africa",
        "geometry": {
            "location": {
                "lat": -34.010989,
                "lng": 18.6101781
            },
            "viewport": {
                "northeast": {
                    "lat": -34.00941147010727,
                    "lng": 18.61095815
                },
                "southwest": {
                    "lat": -34.01211112989272,
                    "lng": 18.60783795
                }
            }
        },
        "icon": "https://maps.gstatic.com/mapfiles/place_api/icons/generic_business-71.png",
        "id": "33560f3ee692897f400634fce3068524faef4fbe",
        "name": "Phumlani Clinic",
        "place_id": "ChIJAdhJdI5FzB0RDLYX8Wo4iVA",
        "plus_code": {
            "compound_code": "XJQ6+J3 Philippi, Cape Town, South Africa",
            "global_code": "4FQWXJQ6+J3"
        },
        "rating": 2.7,
        "reference": "ChIJAdhJdI5FzB0RDLYX8Wo4iVA",
        "types": [
            "health",
            "point_of_interest",
            "establishment"
        ]
    },
    "35": {
        "formatted_address": "56 Dawn Crescent, Baden Powell Drive,, De Wijnlanden Estate, Stellenbosch, Cape Town, 7600, South Africa",
        "geometry": {
            "location": {
                "lat": -34.008202,
                "lng": 18.741906
            },
            "viewport": {
                "northeast": {
                    "lat": -34.00685217010728,
                    "lng": 18.74325582989272
                },
                "southwest": {
                    "lat": -34.00955182989272,
                    "lng": 18.74055617010728
                }
            }
        },
        "icon": "https://maps.gstatic.com/mapfiles/place_api/icons/generic_business-71.png",
        "id": "680b62fe9d792a9b286a3147517f88d4f2e146cd",
        "name": "Layers Skin Clinic",
        "opening_hours": {
            "open_now": true
        },
        "place_id": "ChIJbU5_LHJMzB0RtqfggY_Lkes",
        "plus_code": {
            "compound_code": "XPRR+PQ Kuils River, Cape Town, South Africa",
            "global_code": "4FQWXPRR+PQ"
        },
        "rating": 0,
        "reference": "ChIJbU5_LHJMzB0RtqfggY_Lkes",
        "types": [
            "health",
            "point_of_interest",
            "establishment"
        ]
    },
    "36": {
        "formatted_address": "Village 3 North, Cape Town, 7783, South Africa",
        "geometry": {
            "location": {
                "lat": -34.0255646,
                "lng": 18.6654421
            },
            "viewport": {
                "northeast": {
                    "lat": -34.02421477010728,
                    "lng": 18.66679192989272
                },
                "southwest": {
                    "lat": -34.02691442989272,
                    "lng": 18.66409227010728
                }
            }
        },
        "icon": "https://maps.gstatic.com/mapfiles/place_api/icons/doctor-71.png",
        "id": "c80d89f1a66310e2815a5417a17cffb2dfd744f1",
        "name": "CLINIC",
        "place_id": "ChIJE5Lfg9VOzB0RlmAXCKnjr1o",
        "plus_code": {
            "compound_code": "XMF8+Q5 Khayelitsha, Cape Town, South Africa",
            "global_code": "4FQWXMF8+Q5"
        },
        "rating": 0,
        "reference": "ChIJE5Lfg9VOzB0RlmAXCKnjr1o",
        "types": [
            "hospital",
            "point_of_interest",
            "establishment"
        ]
    },
    "37": {
        "formatted_address": "Eastridge Clinic, 1st Avenue, Eastridge, Cape Town, 7785, South Africa",
        "geometry": {
            "location": {
                "lat": -34.0466082,
                "lng": 18.6215965
            },
            "viewport": {
                "northeast": {
                    "lat": -34.04525837010728,
                    "lng": 18.62294632989272
                },
                "southwest": {
                    "lat": -34.04795802989272,
                    "lng": 18.62024667010728
                }
            }
        },
        "icon": "https://maps.gstatic.com/mapfiles/place_api/icons/doctor-71.png",
        "id": "f98320075e84a1664943eda703efb64d4204f9ce",
        "name": "Eastridge Clinic",
        "place_id": "ChIJg_ZXUaJIzB0RYERmcsbMkng",
        "plus_code": {
            "compound_code": "XJ3C+9J Mitchells Plain, Cape Town, South Africa",
            "global_code": "4FQWXJ3C+9J"
        },
        "rating": 3,
        "reference": "ChIJg_ZXUaJIzB0RYERmcsbMkng",
        "types": [
            "hospital",
            "point_of_interest",
            "establishment"
        ]
    },
    "38": {
        "formatted_address": "16 Church St, Mfuleni, Cape Town, 7100, South Africa",
        "geometry": {
            "location": {
                "lat": -34.0054021,
                "lng": 18.6808311
            },
            "viewport": {
                "northeast": {
                    "lat": -34.00430532010728,
                    "lng": 18.68238547989272
                },
                "southwest": {
                    "lat": -34.00700497989272,
                    "lng": 18.67968582010728
                }
            }
        },
        "icon": "https://maps.gstatic.com/mapfiles/place_api/icons/doctor-71.png",
        "id": "529c1d04e948f61d8e8f59f86364d9aa01cbc570",
        "name": "iven tomsen clinic",
        "photos": [
            {
                "height": 1944,
                "html_attributions": [
                    "<a href=\"https://maps.google.com/maps/contrib/109238652675043943704/photos\">A Google User</a>"
                ],
                "photo_reference": "CmRaAAAAs9lElVMbM7LK9qwgkhuh2sCuiAYsoYG9ZyHK5QHfHlVOHMUIUemSShYmvS36AEqyBnOFJA6dHfQ2gFezYjMcqK0dyB0ZAOour3v1LTVNkE4WPDeOe4k0306-aTiiyR66EhCyi5GRC32VbiEvAxgZTagsGhTsAOLMhpjEvVxu3mZJjahFTzVtYA",
                "width": 2592
            }
        ],
        "place_id": "ChIJtYCsb8JOzB0R01Ka3L-4_Nc",
        "plus_code": {
            "compound_code": "XMVJ+R8 Khayelitsha, Cape Town, South Africa",
            "global_code": "4FQWXMVJ+R8"
        },
        "rating": 0,
        "reference": "ChIJtYCsb8JOzB0R01Ka3L-4_Nc",
        "types": [
            "hospital",
            "point_of_interest",
            "establishment"
        ]
    },
    "39": {
        "formatted_address": "Suite 714, Mitchell's Plain Medical Centre, Town Centre, A Z Berman Dr, Mitchells Plain, Cape Town, 7785, South Africa",
        "geometry": {
            "location": {
                "lat": -34.0494969,
                "lng": 18.6232769
            },
            "viewport": {
                "northeast": {
                    "lat": -34.04809932010728,
                    "lng": 18.62477622989272
                },
                "southwest": {
                    "lat": -34.05079897989273,
                    "lng": 18.62207657010728
                }
            }
        },
        "icon": "https://maps.gstatic.com/mapfiles/place_api/icons/generic_business-71.png",
        "id": "ef40172b0807bb12e173cd9f732f60bfa024520f",
        "name": "Dr Grey Khobane",
        "place_id": "ChIJizu9naZIzB0R4gM3so5lw50",
        "plus_code": {
            "compound_code": "XJ2F+68 Mitchells Plain, Cape Town, South Africa",
            "global_code": "4FQWXJ2F+68"
        },
        "rating": 5,
        "reference": "ChIJizu9naZIzB0R4gM3so5lw50",
        "types": [
            "doctor",
            "health",
            "point_of_interest",
            "establishment"
        ]
    },
    "40": {
        "formatted_address": "1 Lubelwana St, Village 2 North, Cape Town, 7784, South Africa",
        "geometry": {
            "location": {
                "lat": -34.0324725,
                "lng": 18.6731926
            },
            "viewport": {
                "northeast": {
                    "lat": -34.03111062010728,
                    "lng": 18.67459017989272
                },
                "southwest": {
                    "lat": -34.03381027989272,
                    "lng": 18.67189052010728
                }
            }
        },
        "icon": "https://maps.gstatic.com/mapfiles/place_api/icons/generic_business-71.png",
        "id": "9676364fc18f2f113781a2653fb4f65395e10732",
        "name": "Ikamva Labantu Nursing Surgery & Medspaza",
        "opening_hours": {
            "open_now": false
        },
        "place_id": "ChIJFTvZzy1JzB0RkJOL0LP-LP8",
        "plus_code": {
            "compound_code": "XM9F+27 Khayelitsha, Cape Town, South Africa",
            "global_code": "4FQWXM9F+27"
        },
        "rating": 0,
        "reference": "ChIJFTvZzy1JzB0RkJOL0LP-LP8",
        "types": [
            "doctor",
            "health",
            "point_of_interest",
            "establishment"
        ]
    },
    "41": {
        "formatted_address": "Eersriv Way, Sunset Glen, Cape Town, 7100, South Africa",
        "geometry": {
            "location": {
                "lat": -33.9776152,
                "lng": 18.6865557
            },
            "viewport": {
                "northeast": {
                    "lat": -33.97622732010728,
                    "lng": 18.68800897989272
                },
                "southwest": {
                    "lat": -33.97892697989272,
                    "lng": 18.68530932010728
                }
            }
        },
        "icon": "https://maps.gstatic.com/mapfiles/place_api/icons/generic_business-71.png",
        "id": "c1cc20c768ee52952b095907c6b2b798aebf979f",
        "name": "Silversands Public Clinic",
        "place_id": "ChIJ30J6ZV5OzB0Rl-lKG5IQH-8",
        "plus_code": {
            "compound_code": "2MCP+XJ Blue Downs, Cape Town, South Africa",
            "global_code": "4FRW2MCP+XJ"
        },
        "rating": 0,
        "reference": "ChIJ30J6ZV5OzB0Rl-lKG5IQH-8",
        "types": [
            "health",
            "point_of_interest",
            "establishment"
        ]
    },
    "42": {
        "formatted_address": "Shoprite Centre, Kuwait Taxi Rank, Site C, Mfuleni Rd, Khayelitsha, Cape Town, 7100, South Africa",
        "geometry": {
            "location": {
                "lat": -34.0027929,
                "lng": 18.6814429
            },
            "viewport": {
                "northeast": {
                    "lat": -34.00144307010728,
                    "lng": 18.68279272989272
                },
                "southwest": {
                    "lat": -34.00414272989272,
                    "lng": 18.68009307010728
                }
            }
        },
        "icon": "https://maps.gstatic.com/mapfiles/place_api/icons/generic_business-71.png",
        "id": "d7fcc2b85655458730891ab509bc6f99b008b8ae",
        "name": "DR D Naidoo",
        "opening_hours": {
            "open_now": false
        },
        "photos": [
            {
                "height": 1080,
                "html_attributions": [
                    "<a href=\"https://maps.google.com/maps/contrib/110246975341813242198/photos\">Johan Loubser</a>"
                ],
                "photo_reference": "CmRaAAAACQlEAupyrNY16hkFLs-qAUVqfoykYDb6eoApXwjNo4w9tPb-Jsglsv-1DiEZjCImjCmH8ceFNhl4Lo6yvH3A3En6rHppREX1XwiaRmiQCqIn1k0R_O9CGcCc9tGd8CcHEhA0YlJbJwSQKTKQhapvAONuGhScPyuuj8wqFnluyIJvun6KGk2lDg",
                "width": 1920
            }
        ],
        "place_id": "ChIJ8wAehepOzB0RoTnaf1z6rkI",
        "plus_code": {
            "compound_code": "XMWJ+VH Khayelitsha, Cape Town, South Africa",
            "global_code": "4FQWXMWJ+VH"
        },
        "rating": 4,
        "reference": "ChIJ8wAehepOzB0RoTnaf1z6rkI",
        "types": [
            "doctor",
            "health",
            "point_of_interest",
            "establishment"
        ]
    },
    "43": {
        "formatted_address": "Highlands Dr, Lentegeur, Cape Town, 7786, South Africa",
        "geometry": {
            "location": {
                "lat": -34.024625,
                "lng": 18.6156893
            },
            "viewport": {
                "northeast": {
                    "lat": -34.02327517010728,
                    "lng": 18.61703912989272
                },
                "southwest": {
                    "lat": -34.02597482989273,
                    "lng": 18.61433947010728
                }
            }
        },
        "icon": "https://maps.gstatic.com/mapfiles/place_api/icons/doctor-71.png",
        "id": "b8a0ac4d0b18a11dd561858be121da90e0227d86",
        "name": "Lentegeur Psychiatric Hospital",
        "photos": [
            {
                "height": 2336,
                "html_attributions": [
                    "<a href=\"https://maps.google.com/maps/contrib/102336924574841106663/photos\">Brian Brown</a>"
                ],
                "photo_reference": "CmRaAAAAila5Kgd31iyGgasXwLq0pWuHNKTWAcFuc572SK0Hb6eVMYZbGnnOAZtVe9oSiuL1PIBwtpxwAEcqWHmg3TQOyTfCy1PicMeWEvJeqmtZmU4Z8C8pL1HdTJEFMsKu5wkEEhAFsejbs20_3aP9bF5zEXRfGhTRMVjTazfAk7MD_hGMHBPuyPuqzQ",
                "width": 4160
            }
        ],
        "place_id": "ChIJvYy1BVhPzB0R0WpT2PNHjAg",
        "plus_code": {
            "compound_code": "XJG8+47 Mitchells Plain, Cape Town, South Africa",
            "global_code": "4FQWXJG8+47"
        },
        "rating": 4,
        "reference": "ChIJvYy1BVhPzB0R0WpT2PNHjAg",
        "types": [
            "hospital",
            "health",
            "point_of_interest",
            "establishment"
        ]
    },
    "44": {
        "formatted_address": "1 Stock Rd, Phillipi, Cape Town, 7750, South Africa",
        "geometry": {
            "location": {
                "lat": -34.002337,
                "lng": 18.605421
            },
            "viewport": {
                "northeast": {
                    "lat": -34.00098392010727,
                    "lng": 18.60680822989271
                },
                "southwest": {
                    "lat": -34.00368357989272,
                    "lng": 18.60410857010727
                }
            }
        },
        "icon": "https://maps.gstatic.com/mapfiles/place_api/icons/generic_business-71.png",
        "id": "765f32975f2795c4fd8b6057905dbf05b9cbb5ea",
        "name": "Marie Stopes Phillipi",
        "opening_hours": {
            "open_now": false
        },
        "place_id": "ChIJO-9_03dFzB0R8x-TgPuWu_U",
        "plus_code": {
            "compound_code": "XJX4+35 Philippi, Cape Town, South Africa",
            "global_code": "4FQWXJX4+35"
        },
        "rating": 0,
        "reference": "ChIJO-9_03dFzB0R8x-TgPuWu_U",
        "types": [
            "health",
            "point_of_interest",
            "establishment"
        ]
    },
    "45": {
        "formatted_address": "Merrydale Ave, Mitchells Plain, Cape Town, 7785, South Africa",
        "geometry": {
            "location": {
                "lat": -34.0343,
                "lng": 18.609913
            },
            "viewport": {
                "northeast": {
                    "lat": -34.03308397010728,
                    "lng": 18.61087547989272
                },
                "southwest": {
                    "lat": -34.03578362989272,
                    "lng": 18.60817582010728
                }
            }
        },
        "icon": "https://maps.gstatic.com/mapfiles/place_api/icons/generic_business-71.png",
        "id": "5eee0417a63d76e1fc61f63c60d9e79ba5344520",
        "name": "Merrydale Day Clinic",
        "place_id": "ChIJ1W2vS_xFzB0R6_W34_yCYrk",
        "plus_code": {
            "compound_code": "XJ85+7X Mitchells Plain, Cape Town, South Africa",
            "global_code": "4FQWXJ85+7X"
        },
        "rating": 0,
        "reference": "ChIJ1W2vS_xFzB0R6_W34_yCYrk",
        "types": [
            "health",
            "point_of_interest",
            "establishment"
        ]
    },
    "46": {
        "formatted_address": "Suite 43A, Ground Floor, Melomed Private Hospital, Town Centre, Symphony Walk, AZ A Z Berman Dr, Mitchells Plain, Cape Town, 7785, South Africa",
        "geometry": {
            "location": {
                "lat": -34.0495424,
                "lng": 18.6232663
            },
            "viewport": {
                "northeast": {
                    "lat": -34.04814042010728,
                    "lng": 18.62477942989272
                },
                "southwest": {
                    "lat": -34.05084007989272,
                    "lng": 18.62207977010728
                }
            }
        },
        "icon": "https://maps.gstatic.com/mapfiles/place_api/icons/generic_business-71.png",
        "id": "56a1ec2caa957e858a351c4be919169aff0b2cb6",
        "name": "Dr. T Mudaly Inc.",
        "place_id": "ChIJV_gnnKZIzB0R0YqUb71JhgE",
        "plus_code": {
            "compound_code": "XJ2F+58 Mitchells Plain, Cape Town, South Africa",
            "global_code": "4FQWXJ2F+58"
        },
        "rating": 0,
        "reference": "ChIJV_gnnKZIzB0R0YqUb71JhgE",
        "types": [
            "doctor",
            "health",
            "point_of_interest",
            "establishment"
        ]
    },
    "47": {
        "formatted_address": "1 South E, Rocklands, Cape Town, 0001, South Africa",
        "geometry": {
            "location": {
                "lat": -34.0631752,
                "lng": 18.6208988
            },
            "viewport": {
                "northeast": {
                    "lat": -34.06184037010728,
                    "lng": 18.62225592989272
                },
                "southwest": {
                    "lat": -34.06454002989273,
                    "lng": 18.61955627010728
                }
            }
        },
        "icon": "https://maps.gstatic.com/mapfiles/place_api/icons/generic_business-71.png",
        "id": "c21969bc432232bbc854bdc243d694fcad1639b6",
        "name": "women clininc",
        "opening_hours": {
            "open_now": false
        },
        "place_id": "ChIJO5YqMpxIzB0RJQKA_Wh2eTk",
        "plus_code": {
            "compound_code": "WJPC+P9 Mitchells Plain, Cape Town, South Africa",
            "global_code": "4FQWWJPC+P9"
        },
        "rating": 0,
        "reference": "ChIJO5YqMpxIzB0RJQKA_Wh2eTk",
        "types": [
            "health",
            "point_of_interest",
            "establishment"
        ]
    },
    "48": {
        "formatted_address": "Klipfontein Rd, Cross Road, Cape Town, 7750, South Africa",
        "geometry": {
            "location": {
                "lat": -33.9920619,
                "lng": 18.6036386
            },
            "viewport": {
                "northeast": {
                    "lat": -33.99123437010727,
                    "lng": 18.60461787989272
                },
                "southwest": {
                    "lat": -33.99393402989271,
                    "lng": 18.60191822010728
                }
            }
        },
        "icon": "https://maps.gstatic.com/mapfiles/place_api/icons/generic_business-71.png",
        "id": "9750dff3dc4976b5e552400edbf1f27f081b892e",
        "name": "Crossroads 1 Clinic",
        "place_id": "ChIJ3zMnD3dFzB0RNJILUYFt03A",
        "plus_code": {
            "compound_code": "2J53+5F Crossroads, Cape Town, South Africa",
            "global_code": "4FRW2J53+5F"
        },
        "rating": 1,
        "reference": "ChIJ3zMnD3dFzB0RNJILUYFt03A",
        "types": [
            "health",
            "point_of_interest",
            "establishment"
        ]
    },
    "49": {
        "formatted_address": "Matroosfontein, Cape Town, 7490, South Africa",
        "geometry": {
            "location": {
                "lat": -33.9647725,
                "lng": 18.627438
            },
            "viewport": {
                "northeast": {
                    "lat": -33.96342267010728,
                    "lng": 18.62878782989272
                },
                "southwest": {
                    "lat": -33.96612232989273,
                    "lng": 18.62608817010727
                }
            }
        },
        "icon": "https://maps.gstatic.com/mapfiles/place_api/icons/generic_business-71.png",
        "id": "1faee70d626970bf411d65d6b2353ad11ffb462b",
        "name": "Symphony Way Clinic",
        "place_id": "ChIJvRjyJvJPzB0ReGQb8TbHW4k",
        "plus_code": {
            "compound_code": "2JPG+3X Matroosfontein, Cape Town, South Africa",
            "global_code": "4FRW2JPG+3X"
        },
        "rating": 5,
        "reference": "ChIJvRjyJvJPzB0ReGQb8TbHW4k",
        "types": [
            "dentist",
            "health",
            "point_of_interest",
            "establishment"
        ]
    },
    "50": {
        "formatted_address": "Room 709, Mitchells Plain Medical Centre, Symphony Walk, Mitchells Plain, Cape Town, 7798, South Africa",
        "geometry": {
            "location": {
                "lat": -34.049662,
                "lng": 18.623347
            },
            "viewport": {
                "northeast": {
                    "lat": -34.04840572010728,
                    "lng": 18.62458462989272
                },
                "southwest": {
                    "lat": -34.05110537989272,
                    "lng": 18.62188497010728
                }
            }
        },
        "icon": "https://maps.gstatic.com/mapfiles/place_api/icons/generic_business-71.png",
        "id": "6574354736bb7836815426e1775368592bde570b",
        "name": "Dr. Emmanuel Danso",
        "place_id": "ChIJkfJQnqZIzB0RgJPeEGBQNEQ",
        "plus_code": {
            "compound_code": "XJ2F+48 Mitchells Plain, Cape Town, South Africa",
            "global_code": "4FQWXJ2F+48"
        },
        "rating": 0,
        "reference": "ChIJkfJQnqZIzB0RgJPeEGBQNEQ",
        "types": [
            "doctor",
            "health",
            "point_of_interest",
            "establishment"
        ]
    },
    "51": {
        "formatted_address": "19 De Werf Gateway Street, Stellenbosch, Cape Town, 7160, South Africa",
        "geometry": {
            "location": {
                "lat": -34.019156,
                "lng": 18.742906
            },
            "viewport": {
                "northeast": {
                    "lat": -34.01780617010728,
                    "lng": 18.74425582989272
                },
                "southwest": {
                    "lat": -34.02050582989273,
                    "lng": 18.74155617010728
                }
            }
        },
        "icon": "https://maps.gstatic.com/mapfiles/place_api/icons/generic_business-71.png",
        "id": "0c67438caa7a5ac15719f3a4b53efef56916c664",
        "name": "Taryn McGowan Clinical Psychologist",
        "opening_hours": {
            "open_now": true
        },
        "photos": [
            {
                "height": 5312,
                "html_attributions": [
                    "<a href=\"https://maps.google.com/maps/contrib/118097150019590200412/photos\">Taryn McGowan Clinical Psychologist</a>"
                ],
                "photo_reference": "CmRaAAAAT6CCvBXXM6bHP8dsPINpkDtGPmN6XQyM1TRj-xXxs_IfpA2BABoL61VF9_cPu4T_7n2UO7FEpcBtjo4MHvVZ8gN-cYDZ49W2976CvO1TLZ7B-Mi7HyOHkoIomnGw3NAvEhA-D2NBAzi5CVz1xPiF_GVdGhQRGTbSYAPzhrnhLYSO9HVKcNVR7g",
                "width": 2988
            }
        ],
        "place_id": "ChIJpbSiCny1zR0RYMO3J-cy83w",
        "plus_code": {
            "compound_code": "XPJV+85 Kuils River, Cape Town, South Africa",
            "global_code": "4FQWXPJV+85"
        },
        "rating": 5,
        "reference": "ChIJpbSiCny1zR0RYMO3J-cy83w",
        "types": [
            "health",
            "point_of_interest",
            "establishment"
        ]
    },
    "52": {
        "formatted_address": "Shop 18, Daveyton Mall Eiselen St, Johannesburg, 1540, South Africa",
        "geometry": {
            "location": {
                "lat": -34.0348824,
                "lng": 18.7528734
            },
            "viewport": {
                "northeast": {
                    "lat": -34.03353257010728,
                    "lng": 18.75422322989272
                },
                "southwest": {
                    "lat": -34.03623222989273,
                    "lng": 18.75152357010727
                }
            }
        },
        "icon": "https://maps.gstatic.com/mapfiles/place_api/icons/generic_business-71.png",
        "id": "cae0fd0b42153af18edfcab7b3db24bfba00a068",
        "name": "Prime Cure Clinic",
        "place_id": "ChIJv_-viaY7lR4RtoGJbLZRUkk",
        "plus_code": {
            "compound_code": "XQ83+24 Macassar, Cape Town, South Africa",
            "global_code": "4FQWXQ83+24"
        },
        "rating": 0,
        "reference": "ChIJv_-viaY7lR4RtoGJbLZRUkk",
        "types": [
            "health",
            "point_of_interest",
            "establishment"
        ]
    },
    "53": {
        "formatted_address": "Merrydale Ave, Lentegeur, Cape Town, 7786, South Africa",
        "geometry": {
            "location": {
                "lat": -34.0348041,
                "lng": 18.6091514
            },
            "viewport": {
                "northeast": {
                    "lat": -34.03344432010728,
                    "lng": 18.61052952989272
                },
                "southwest": {
                    "lat": -34.03614397989272,
                    "lng": 18.60782987010728
                }
            }
        },
        "icon": "https://maps.gstatic.com/mapfiles/place_api/icons/generic_business-71.png",
        "id": "db12ee858ba3d4e9cf647714b8ff9f9a736ff172",
        "name": "Lentegeur Clinic",
        "place_id": "ChIJ17mGvIpFzB0Rxs1FZqTuN3g",
        "plus_code": {
            "compound_code": "XJ85+3M Mitchells Plain, Cape Town, South Africa",
            "global_code": "4FQWXJ85+3M"
        },
        "rating": 0,
        "reference": "ChIJ17mGvIpFzB0Rxs1FZqTuN3g",
        "types": [
            "health",
            "point_of_interest",
            "establishment"
        ]
    },
    "54": {
        "formatted_address": "Room 101, Mitchells Plain Medical Centre, A Z Berman Dr, Mitchells Plain, Cape Town, 7785, South Africa",
        "geometry": {
            "location": {
                "lat": -34.0494917,
                "lng": 18.6232894
            },
            "viewport": {
                "northeast": {
                    "lat": -34.04809622010728,
                    "lng": 18.62478222989272
                },
                "southwest": {
                    "lat": -34.05079587989272,
                    "lng": 18.62208257010728
                }
            }
        },
        "icon": "https://maps.gstatic.com/mapfiles/place_api/icons/generic_business-71.png",
        "id": "d56c88e3eed0179967092f0c76a1347d5d5a2307",
        "name": "Dr. Anne Nakyagaba",
        "place_id": "ChIJGY0xnKZIzB0RRSCm_09wK14",
        "plus_code": {
            "compound_code": "XJ2F+68 Mitchells Plain, Cape Town, South Africa",
            "global_code": "4FQWXJ2F+68"
        },
        "rating": 0,
        "reference": "ChIJGY0xnKZIzB0RRSCm_09wK14",
        "types": [
            "doctor",
            "health",
            "point_of_interest",
            "establishment"
        ]
    },
    "55": {
        "formatted_address": "60 Melkbos St, Kleinvlei, Cape Town, 7100, South Africa",
        "geometry": {
            "location": {
                "lat": -33.98722,
                "lng": 18.71764
            },
            "viewport": {
                "northeast": {
                    "lat": -33.98591012010728,
                    "lng": 18.71900122989272
                },
                "southwest": {
                    "lat": -33.98860977989273,
                    "lng": 18.71630157010728
                }
            }
        },
        "icon": "https://maps.gstatic.com/mapfiles/place_api/icons/generic_business-71.png",
        "id": "7c65e9d5ec365c235485d8ea42a1acb22ed03af2",
        "name": "Kleinvlei Community Health Centre",
        "place_id": "ChIJJ-aUuihMzB0RebSyO3BUrZs",
        "plus_code": {
            "compound_code": "2P79+43 Blue Downs, Cape Town, South Africa",
            "global_code": "4FRW2P79+43"
        },
        "rating": 1,
        "reference": "ChIJJ-aUuihMzB0RebSyO3BUrZs",
        "types": [
            "health",
            "point_of_interest",
            "establishment"
        ]
    },
    "56": {
        "formatted_address": "Mitchells Plain Medical Centre, 251 Main Road, Claremont, Cape Town, 7785, South Africa",
        "geometry": {
            "location": {
                "lat": -34.0495054,
                "lng": 18.6233085
            },
            "viewport": {
                "northeast": {
                    "lat": -34.04811167010728,
                    "lng": 18.62479577989273
                },
                "southwest": {
                    "lat": -34.05081132989272,
                    "lng": 18.62209612010728
                }
            }
        },
        "icon": "https://maps.gstatic.com/mapfiles/place_api/icons/generic_business-71.png",
        "id": "5792d26cbaa69ef71595f7ae7b703849e200f08e",
        "name": "Dr. Chris George",
        "place_id": "ChIJUeAsnKZIzB0Ry0RaR8B4I_s",
        "plus_code": {
            "compound_code": "XJ2F+58 Mitchells Plain, Cape Town, South Africa",
            "global_code": "4FQWXJ2F+58"
        },
        "rating": 0,
        "reference": "ChIJUeAsnKZIzB0Ry0RaR8B4I_s",
        "types": [
            "doctor",
            "health",
            "point_of_interest",
            "establishment"
        ]
    },
    "57": {
        "formatted_address": "43, Mitchells Plain Medical Centre, Mitchells Plain, Cape Town, 7789, South Africa",
        "geometry": {
            "location": {
                "lat": -34.0494,
                "lng": 18.6234
            },
            "viewport": {
                "northeast": {
                    "lat": -34.04802582010728,
                    "lng": 18.62482607989272
                },
                "southwest": {
                    "lat": -34.05072547989273,
                    "lng": 18.62212642010728
                }
            }
        },
        "icon": "https://maps.gstatic.com/mapfiles/place_api/icons/generic_business-71.png",
        "id": "323a52a3ae67002342c8b02d007741dce1f5e825",
        "name": "Mitchells Plain Dentists",
        "place_id": "ChIJizu9naZIzB0RrtmbJxI-8Xg",
        "plus_code": {
            "compound_code": "XJ2F+69 Mitchells Plain, Cape Town, South Africa",
            "global_code": "4FQWXJ2F+69"
        },
        "rating": 1,
        "reference": "ChIJizu9naZIzB0RrtmbJxI-8Xg",
        "types": [
            "dentist",
            "health",
            "point_of_interest",
            "establishment"
        ]
    },
    "58": {
        "formatted_address": "17 Cinderella Cres, Eastridge, Mitchell's Plain, 7785, South Africa",
        "geometry": {
            "location": {
                "lat": -34.04696,
                "lng": 18.62844
            },
            "viewport": {
                "northeast": {
                    "lat": -34.04569197010728,
                    "lng": 18.62968867989272
                },
                "southwest": {
                    "lat": -34.04839162989272,
                    "lng": 18.62698902010728
                }
            }
        },
        "icon": "https://maps.gstatic.com/mapfiles/place_api/icons/generic_business-71.png",
        "id": "f62a3f6d4e5719c8195966417cca26309a91c5ae",
        "name": "Dr eV Rapiti | Medical Doctor Cape Town",
        "opening_hours": {
            "open_now": true
        },
        "photos": [
            {
                "height": 1365,
                "html_attributions": [
                    "<a href=\"https://maps.google.com/maps/contrib/115502273230074701988/photos\">Dr eV Rapiti</a>"
                ],
                "photo_reference": "CmRaAAAAwEYC8A-j4oQVxRPdcVcR91ctrSvImUjx7I9QyIbhcI4HiTRkQTpm6wp5BOMyiBTLZh32SvmwXJMEeT3LjJ5O2LhjCY1sEdWgkKIsGxEps-8uLyHJ9YNaTRmx_PGFKc0YEhDLLyPqbjCzoLcpa4jOM_TGGhRLJZ3Rp13VMnksCpYmoZ145bQ4mA",
                "width": 2048
            }
        ],
        "place_id": "ChIJzdQVO6VIzB0RwrgX55fmhpQ",
        "plus_code": {
            "compound_code": "XJ3H+69 Mitchells Plain, Cape Town, South Africa",
            "global_code": "4FQWXJ3H+69"
        },
        "rating": 5,
        "reference": "ChIJzdQVO6VIzB0RwrgX55fmhpQ",
        "types": [
            "doctor",
            "health",
            "point_of_interest",
            "establishment"
        ]
    },
    "59": {
        "formatted_address": "Mitchells Plain Medical Centre, Town Centre, A Z Berman Dr, Mitchells Plain, Cape Town, 7785, South Africa",
        "geometry": {
            "location": {
                "lat": -34.0496739,
                "lng": 18.623375
            },
            "viewport": {
                "northeast": {
                    "lat": -34.04843957010728,
                    "lng": 18.62477782989272
                },
                "southwest": {
                    "lat": -34.05113922989273,
                    "lng": 18.62207817010728
                }
            }
        },
        "icon": "https://maps.gstatic.com/mapfiles/place_api/icons/generic_business-71.png",
        "id": "92731e62ee4929c12b957ce8ffc8081848cfabac",
        "name": "Karen November",
        "place_id": "ChIJISlMnqZIzB0RTZtkHt3rDQc",
        "plus_code": {
            "compound_code": "XJ2F+49 Mitchells Plain, Cape Town, South Africa",
            "global_code": "4FQWXJ2F+49"
        },
        "rating": 0,
        "reference": "ChIJISlMnqZIzB0RTZtkHt3rDQc",
        "types": [
            "health",
            "point_of_interest",
            "establishment"
        ]
    },
    "60": {
        "formatted_address": "Gwayi St, Crossroad, Cape Town, 7750, South Africa",
        "geometry": {
            "location": {
                "lat": -33.9979227,
                "lng": 18.5977088
            },
            "viewport": {
                "northeast": {
                    "lat": -33.99641382010728,
                    "lng": 18.59903557989272
                },
                "southwest": {
                    "lat": -33.99911347989272,
                    "lng": 18.59633592010728
                }
            }
        },
        "icon": "https://maps.gstatic.com/mapfiles/place_api/icons/generic_business-71.png",
        "id": "141e8a9fa05b3eb6d4c10df80349bbd9ac504289",
        "name": "Crossroad Community Health Centre",
        "opening_hours": {
            "open_now": false
        },
        "place_id": "ChIJm1ou12RPzB0R34qryAVTJpo",
        "plus_code": {
            "compound_code": "2H2X+R3 Crossroads, Cape Town, South Africa",
            "global_code": "4FRW2H2X+R3"
        },
        "rating": 2,
        "reference": "ChIJm1ou12RPzB0R34qryAVTJpo",
        "types": [
            "health",
            "point_of_interest",
            "establishment"
        ]
    },
    "61": {
        "formatted_address": "Lwandle Rd, Khayelitsha, Cape Town, 7784, South Africa",
        "geometry": {
            "location": {
                "lat": -34.0277925,
                "lng": 18.6640471
            },
            "viewport": {
                "northeast": {
                    "lat": -34.02645387010728,
                    "lng": 18.66562197989272
                },
                "southwest": {
                    "lat": -34.02915352989272,
                    "lng": 18.66292232010728
                }
            }
        },
        "icon": "https://maps.gstatic.com/mapfiles/place_api/icons/generic_business-71.png",
        "id": "eb621ce7aa7dec477400f6b6c1a2f0726c654d8b",
        "name": "Khayelitsha Community Health Centre",
        "photos": [
            {
                "height": 1536,
                "html_attributions": [
                    "<a href=\"https://maps.google.com/maps/contrib/116817127031274474526/photos\">Rien Stor</a>"
                ],
                "photo_reference": "CmRaAAAA2_G-XZlzh7L6ZnI2gVNms7aoe4lAAuKfYujaYun_v8DcFz9cblJNrgUSQuFq7o_8a-WGUFh7nSsCs1zA1Ib-9GB9Z3baOimRk87engrpHMJPmm8Gp6G-fI-t56oB_TMWEhDA4cphqW0ceh-2mruFS10YGhQHBqWinb87U8K6rSBT164ULnPwTg",
                "width": 2048
            }
        ],
        "place_id": "ChIJsTdiuilJzB0RHLD7sXy-7xU",
        "plus_code": {
            "compound_code": "XMC7+VJ Khayelitsha, Cape Town, South Africa",
            "global_code": "4FQWXMC7+VJ"
        },
        "rating": 4.2,
        "reference": "ChIJsTdiuilJzB0RHLD7sXy-7xU",
        "types": [
            "health",
            "point_of_interest",
            "establishment"
        ]
    },
    "62": {
        "formatted_address": "Shop No.13, Khayelitsha Mall, Walter Sisulu Rd, Khayelitsha, Cape Town, 7784, South Africa",
        "geometry": {
            "location": {
                "lat": -34.047804,
                "lng": 18.6729339
            },
            "viewport": {
                "northeast": {
                    "lat": -34.04645417010728,
                    "lng": 18.67428372989272
                },
                "southwest": {
                    "lat": -34.04915382989272,
                    "lng": 18.67158407010728
                }
            }
        },
        "icon": "https://maps.gstatic.com/mapfiles/place_api/icons/generic_business-71.png",
        "id": "91291b7b371e496befddb609fec4f6bbec7ad5a9",
        "name": "Khayelitsha Medical Centre",
        "place_id": "ChIJzXtLaSJJzB0R-sswTmfFoz4",
        "plus_code": {
            "compound_code": "XM2F+V5 Khayelitsha, Cape Town, South Africa",
            "global_code": "4FQWXM2F+V5"
        },
        "rating": 3.5,
        "reference": "ChIJzXtLaSJJzB0R-sswTmfFoz4",
        "types": [
            "doctor",
            "health",
            "point_of_interest",
            "establishment"
        ]
    },
    "63": {
        "formatted_address": "Steve Biko Rd, Harare, Cape Town, 7784, South Africa",
        "geometry": {
            "location": {
                "lat": -34.0512513,
                "lng": 18.6708217
            },
            "viewport": {
                "northeast": {
                    "lat": -34.04973652010728,
                    "lng": 18.67208882989272
                },
                "southwest": {
                    "lat": -34.05243617989272,
                    "lng": 18.66938917010728
                }
            }
        },
        "icon": "https://maps.gstatic.com/mapfiles/place_api/icons/generic_business-71.png",
        "id": "324480da94c46229e13f360724da250ed14ec193",
        "name": "Michael Mapongwana Community Health Centre",
        "opening_hours": {
            "open_now": false
        },
        "photos": [
            {
                "height": 311,
                "html_attributions": [
                    "<a href=\"https://maps.google.com/maps/contrib/111832357248947627207/photos\">lutho tokwe</a>"
                ],
                "photo_reference": "CmRaAAAAykMz5NzW-mCo4f6XnJ_RgQfEPwE854NXRiLP6WlB8UsBohIe9a8IZdjGMhIx29VHRDw6unppbYp44ZwdCf1f9kFrLvZqaVwKcdrAj673CtZ4_10_pc1iG5UaB9f41fvqEhD_pt2db9DYqIXe5dIWYPZWGhRwXmGEaqb7QrgN69i3Yg_OL2HBJg",
                "width": 422
            }
        ],
        "place_id": "ChIJUySkLh9JzB0RBSMTlJHJ5XQ",
        "plus_code": {
            "compound_code": "WMXC+F8 Khayelitsha, Cape Town, South Africa",
            "global_code": "4FQWWMXC+F8"
        },
        "rating": 2,
        "reference": "ChIJUySkLh9JzB0RBSMTlJHJ5XQ",
        "types": [
            "health",
            "point_of_interest",
            "establishment"
        ]
    },
    "64": {
        "formatted_address": "Solomon Tshuku Street, Khayelitsha Site C, Cape Town, 7784, South Africa",
        "geometry": {
            "location": {
                "lat": -34.013539,
                "lng": 18.6502358
            },
            "viewport": {
                "northeast": {
                    "lat": -34.01218917010728,
                    "lng": 18.65158562989273
                },
                "southwest": {
                    "lat": -34.01488882989273,
                    "lng": 18.64888597010728
                }
            }
        },
        "icon": "https://maps.gstatic.com/mapfiles/place_api/icons/generic_business-71.png",
        "id": "1c35511cd35f7c6fe93fdbb56b6e1629cf511502",
        "name": "Nolungile Community Health Centre Pharmacy",
        "place_id": "ChIJq4Mjmz5PzB0RxdR-Bv73xYU",
        "plus_code": {
            "compound_code": "XMP2+H3 Khayelitsha, Cape Town, South Africa",
            "global_code": "4FQWXMP2+H3"
        },
        "rating": 5,
        "reference": "ChIJq4Mjmz5PzB0RxdR-Bv73xYU",
        "types": [
            "health",
            "point_of_interest",
            "establishment"
        ]
    },
    "65": {
        "formatted_address": "Delft Main Rd, The Hague, Cape Town, 7100, South Africa",
        "geometry": {
            "location": {
                "lat": -33.9739717,
                "lng": 18.6415013
            },
            "viewport": {
                "northeast": {
                    "lat": -33.97286517010728,
                    "lng": 18.64289972989272
                },
                "southwest": {
                    "lat": -33.97556482989272,
                    "lng": 18.64020007010728
                }
            }
        },
        "icon": "https://maps.gstatic.com/mapfiles/place_api/icons/generic_business-71.png",
        "id": "40c9904b9446440e4815fac05d99a484026b28eb",
        "name": "Delft Community Health Centre",
        "opening_hours": {
            "open_now": false
        },
        "photos": [
            {
                "height": 1836,
                "html_attributions": [
                    "<a href=\"https://maps.google.com/maps/contrib/115694407007505259240/photos\">Michael Edward Manning</a>"
                ],
                "photo_reference": "CmRaAAAAV30zqKi0aiuImZ-VzzN1_HhUCjft5krTBuVisIML0jbJ9RHVorJINnCot6b0SX11_oNCjnfzCYZZulNJrwBRHbjlFfpD2y3EcRQodUIFco7Ycs1JUD5MRE1-WbpZ1BHQEhCT20bkU1U8Z-DYvqT9cnkMGhR9z22Y2XVX3NEKEulSA5e71helQA",
                "width": 3264
            }
        ],
        "place_id": "ChIJVyXf8r1PzB0R7lklFoFhA7A",
        "plus_code": {
            "compound_code": "2JGR+CJ Delft, Cape Town, South Africa",
            "global_code": "4FRW2JGR+CJ"
        },
        "rating": 2.8,
        "reference": "ChIJVyXf8r1PzB0R7lklFoFhA7A",
        "types": [
            "health",
            "point_of_interest",
            "establishment"
        ]
    },
    "66": {
        "formatted_address": "Ntlazana Street, Khayelitsha, Cape Town, 7784, South Africa",
        "geometry": {
            "location": {
                "lat": -34.0562078,
                "lng": 18.6892787
            },
            "viewport": {
                "northeast": {
                    "lat": -34.05485797010727,
                    "lng": 18.69062852989273
                },
                "southwest": {
                    "lat": -34.05755762989271,
                    "lng": 18.68792887010728
                }
            }
        },
        "icon": "https://maps.gstatic.com/mapfiles/place_api/icons/generic_business-71.png",
        "id": "9f01a2e8d1cd61fd57631ac4665cbb72233c4b77",
        "name": "Kuyasa Clinic",
        "opening_hours": {
            "open_now": true
        },
        "photos": [
            {
                "height": 3456,
                "html_attributions": [
                    "<a href=\"https://maps.google.com/maps/contrib/118228490712705240284/photos\">Dillon Wademan</a>"
                ],
                "photo_reference": "CmRaAAAAHn169WjlAu2tu5ibZ9uTtUk4c7XPgII9mks2zIBPcL3xgRAftHrI0NRJZnmn_nxiRk6l0JBxmSELLgVTub52Ozq5ZdyYP1XuXoinA5J4w9-yOeJ7LAI7dxLcP7N7zvyQEhBM8LoGGbjtQAto8jWEiV4AGhRXozb1G3wen8F8xI4pKXgiMf0fjA",
                "width": 4608
            }
        ],
        "place_id": "ChIJ8UgTJjtJzB0RH8Jy9jTNI0Q",
        "plus_code": {
            "compound_code": "WMVQ+GP Khayelitsha, Cape Town, South Africa",
            "global_code": "4FQWWMVQ+GP"
        },
        "rating": 2.5,
        "reference": "ChIJ8UgTJjtJzB0RH8Jy9jTNI0Q",
        "types": [
            "health",
            "point_of_interest",
            "establishment"
        ]
    },
    "67": {
        "formatted_address": "6, Thembani Shopping Centre, Govan Mbeki Rd, Khayelitsha, Cape Town, 7784, South Africa",
        "geometry": {
            "location": {
                "lat": -34.013258,
                "lng": 18.6371389
            },
            "viewport": {
                "northeast": {
                    "lat": -34.01187662010728,
                    "lng": 18.63887487989272
                },
                "southwest": {
                    "lat": -34.01457627989272,
                    "lng": 18.63617522010728
                }
            }
        },
        "icon": "https://maps.gstatic.com/mapfiles/place_api/icons/generic_business-71.png",
        "id": "478ee0e653fba617e4819a13c87ec8589a0319a9",
        "name": "Dr Shiraz Patel",
        "opening_hours": {
            "open_now": false
        },
        "place_id": "ChIJZyBevEFPzB0Ru1HqMYy7UFw",
        "plus_code": {
            "compound_code": "XJPP+MV Khayelitsha, Cape Town, South Africa",
            "global_code": "4FQWXJPP+MV"
        },
        "rating": 4.8,
        "reference": "ChIJZyBevEFPzB0Ru1HqMYy7UFw",
        "types": [
            "health",
            "point_of_interest",
            "establishment"
        ]
    },
    "68": {
        "formatted_address": "Cnr Main & Voorbrug Roads, Delft South, Cape Town, 7100, South Africa",
        "geometry": {
            "location": {
                "lat": -33.9917329,
                "lng": 18.633277
            },
            "viewport": {
                "northeast": {
                    "lat": -33.99038307010726,
                    "lng": 18.63462682989272
                },
                "southwest": {
                    "lat": -33.99308272989271,
                    "lng": 18.63192717010728
                }
            }
        },
        "icon": "https://maps.gstatic.com/mapfiles/place_api/icons/generic_business-71.png",
        "id": "b16a63a7bc86c939afdfba2e9d456e5f594ef71f",
        "name": "Delft South Clinic",
        "place_id": "ChIJFYcpSHZPzB0RFUHkuF5S8vc",
        "plus_code": {
            "compound_code": "2J5M+88 Delft, Cape Town, South Africa",
            "global_code": "4FRW2J5M+88"
        },
        "rating": 4,
        "reference": "ChIJFYcpSHZPzB0RFUHkuF5S8vc",
        "types": [
            "health",
            "point_of_interest",
            "establishment"
        ]
    },
    "69": {
        "formatted_address": "First Ave, Beacon Valley, Cape Town, 7785, South Africa",
        "geometry": {
            "location": {
                "lat": -34.046628,
                "lng": 18.6217729
            },
            "viewport": {
                "northeast": {
                    "lat": -34.04533462010728,
                    "lng": 18.62305792989272
                },
                "southwest": {
                    "lat": -34.04803427989273,
                    "lng": 18.62035827010728
                }
            }
        },
        "icon": "https://maps.gstatic.com/mapfiles/place_api/icons/doctor-71.png",
        "id": "30255a80cae96c992602e2d57ca900af3b5d9b01",
        "name": "Mitchell's Plain CHC Also Mitchell's Plain Day Hospital",
        "opening_hours": {
            "open_now": true
        },
        "place_id": "ChIJtWKv1aVIzB0RvGwQXo_nmsE",
        "plus_code": {
            "compound_code": "XJ3C+8P Mitchells Plain, Cape Town, South Africa",
            "global_code": "4FQWXJ3C+8P"
        },
        "rating": 4,
        "reference": "ChIJtWKv1aVIzB0RvGwQXo_nmsE",
        "types": [
            "hospital",
            "point_of_interest",
            "establishment"
        ]
    },
    "70": {
        "formatted_address": "4 Luyolo St, Mfuleni, Cape Town, 7100, South Africa",
        "geometry": {
            "location": {
                "lat": -34.005301,
                "lng": 18.68295
            },
            "viewport": {
                "northeast": {
                    "lat": -34.00390382010728,
                    "lng": 18.68439767989272
                },
                "southwest": {
                    "lat": -34.00660347989272,
                    "lng": 18.68169802010728
                }
            }
        },
        "icon": "https://maps.gstatic.com/mapfiles/place_api/icons/generic_business-71.png",
        "id": "99c67c885592410a79b6b6f3bd2ffc6d341fc864",
        "name": "Maloke Medical centre",
        "photos": [
            {
                "height": 852,
                "html_attributions": [
                    "<a href=\"https://maps.google.com/maps/contrib/114071466552779575433/photos\">A Google User</a>"
                ],
                "photo_reference": "CmRaAAAAu-sXwxZKLNqce10BqlB-2uODHZDVVNEgWqc6fgAwlghDmnmT4h-GNnwhO_9cVKVCxtoQ9FsmfasLX2E69WQ3gNlS-o5CDWvipqdS1AtmlRDingGZn_fGgOXpoxQVnDjREhAMVo77FZzmb9jTAobVTa6WGhSXTjb0oBB4Hjl8YwWSFEn1pwkOGA",
                "width": 1280
            }
        ],
        "place_id": "ChIJp9hJkTtPzB0RFnJHI5qbcvo",
        "plus_code": {
            "compound_code": "XMVM+V5 Khayelitsha, Cape Town, South Africa",
            "global_code": "4FQWXMVM+V5"
        },
        "rating": 4,
        "reference": "ChIJp9hJkTtPzB0RFnJHI5qbcvo",
        "types": [
            "health",
            "point_of_interest",
            "establishment"
        ]
    },
    "71": {
        "formatted_address": "Eastridge Medical Centre, Eastridge, Cape Town, 7785, South Africa",
        "geometry": {
            "location": {
                "lat": -34.050848,
                "lng": 18.623759
            },
            "viewport": {
                "northeast": {
                    "lat": -34.04949817010728,
                    "lng": 18.62510882989272
                },
                "southwest": {
                    "lat": -34.05219782989272,
                    "lng": 18.62240917010728
                }
            }
        },
        "icon": "https://maps.gstatic.com/mapfiles/place_api/icons/doctor-71.png",
        "id": "fc91754b5df160cdfaf068b37c5a4cb3ef3547c4",
        "name": "Simunye Primary Health Care Mitchells Plain",
        "opening_hours": {
            "open_now": true
        },
        "photos": [
            {
                "height": 2976,
                "html_attributions": [
                    "<a href=\"https://maps.google.com/maps/contrib/108487706801117876822/photos\">A Google User</a>"
                ],
                "photo_reference": "CmRaAAAAOlK2ptqSXou4-k5vmXL0mZ2XnkBUwLuJPkpKFqYBx1QYd7Ljk2XXbkvnTcGuU3GKqbHf_BdijZJ743702NKcTOxyMgGjKXOt6PsgS64hoQjMxBC-q7umbebblXt-Vd0HEhA-YhGdB9q5HxsQp8NkD86GGhQkiBZ0ZvAPYPaIbep8Bdu9Nuuuxw",
                "width": 3968
            }
        ],
        "place_id": "ChIJvRFmAaRIzB0RFYf7NIiI9Bs",
        "plus_code": {
            "compound_code": "WJXF+MG Mitchells Plain, Cape Town, South Africa",
            "global_code": "4FQWWJXF+MG"
        },
        "rating": 3.5,
        "reference": "ChIJvRFmAaRIzB0RFYf7NIiI9Bs",
        "types": [
            "hospital",
            "point_of_interest",
            "establishment"
        ]
    },
    "72": {
        "formatted_address": "Shop 13, Khayelitsha Mall, Walter Sisulu Rd, Khayelitsha, Cape Town, 7784, South Africa",
        "geometry": {
            "location": {
                "lat": -34.0478589,
                "lng": 18.672864
            },
            "viewport": {
                "northeast": {
                    "lat": -34.04650907010728,
                    "lng": 18.67421382989272
                },
                "southwest": {
                    "lat": -34.04920872989273,
                    "lng": 18.67151417010728
                }
            }
        },
        "icon": "https://maps.gstatic.com/mapfiles/place_api/icons/generic_business-71.png",
        "id": "f620bc339ec7d57ef57fb82c274b13faef95371a",
        "name": "ClinicMed",
        "place_id": "ChIJNySobiJJzB0RHJnvTiOZz2E",
        "plus_code": {
            "compound_code": "XM2F+V4 Khayelitsha, Cape Town, South Africa",
            "global_code": "4FQWXM2F+V4"
        },
        "rating": 0,
        "reference": "ChIJNySobiJJzB0RHJnvTiOZz2E",
        "types": [
            "health",
            "point_of_interest",
            "establishment"
        ]
    },
    "73": {
        "formatted_address": "2 Okalis Cres, Devon Park Village, Cape Town, 7100, South Africa",
        "geometry": {
            "location": {
                "lat": -34.0091623,
                "lng": 18.7244428
            },
            "viewport": {
                "northeast": {
                    "lat": -34.00791957010728,
                    "lng": 18.72585052989272
                },
                "southwest": {
                    "lat": -34.01061922989273,
                    "lng": 18.72315087010728
                }
            }
        },
        "icon": "https://maps.gstatic.com/mapfiles/place_api/icons/generic_business-71.png",
        "id": "c3e164a0b6b5dc23091262d47eae75a3e4e482cc",
        "name": "Eerste River Clinic",
        "place_id": "ChIJQ9gBWAVMzB0RkwpqwpVG-Hw",
        "plus_code": {
            "compound_code": "XPRF+8Q Khayelitsha, Cape Town, South Africa",
            "global_code": "4FQWXPRF+8Q"
        },
        "rating": 5,
        "reference": "ChIJQ9gBWAVMzB0RkwpqwpVG-Hw",
        "types": [
            "health",
            "point_of_interest",
            "establishment"
        ]
    },
    "74": {
        "formatted_address": "Mitchells Plain, Cape Town, 7785, South Africa",
        "geometry": {
            "location": {
                "lat": -34.050875,
                "lng": 18.6237569
            },