{
    "1": {
        "formatted_address": "Northam, Thabazimbi, 0360, South Africa",
        "geometry": {
            "location": {
                "lat": -24.95,
                "lng": 27.266667
            },
            "viewport": {
                "northeast": {
                    "lat": -24.9486510197085,
                    "lng": 27.2680159802915
                },
                "southwest": {
                    "lat": -24.9513489802915,
                    "lng": 27.2653180197085
                }
            }
        },
        "icon": "https://maps.gstatic.com/mapfiles/place_api/icons/generic_business-71.png",
        "id": "c6da71aeaf852d0e464942d705791a2eb6a6c891",
        "name": "Northam Platinum Mine Clinic",
        "opening_hours": {
            "open_now": true,
            "weekday_text": []
        },
        "place_id": "ChIJ95HRO7Oevh4RwpcS05DzzEI",
        "rating": 1,
        "reference": "CmRRAAAA7EYXQutwDJlZtDBq5TC5dEJBbbSFwf-QwLxuPSjLqlqWqVr9fRNVWzgxZKo4j_9FxtqRqGy9VF8VJ9l_9CgZ0eW-b_3ZPzK7op18bzK08fBkAXFGOTEZ6b6i-DAMXcifEhDNanP6QpDx1pkVxyJeTDkMGhS3RH49EFqLmdydFit9OR_g7jXQow",
        "types": [
            "health",
            "point_of_interest",
            "establishment"
        ]
    },
    "2": {
        "formatted_address": "South Africa",
        "geometry": {
            "location": {
                "lat": -25.1503584,
                "lng": 28.4954249
            },
            "viewport": {
                "northeast": {
                    "lat": -25.1490094197085,
                    "lng": 28.4967738802915
                },
                "southwest": {
                    "lat": -25.1517073802915,
                    "lng": 28.4940759197085
                }
            }
        },
        "icon": "https://maps.gstatic.com/mapfiles/place_api/icons/generic_business-71.png",
        "id": "c16d7180c0478d45818d71818f9df06b049174b5",
        "name": "Phake Clinic",
        "place_id": "ChIJWUSL1VeFvx4RcceydgcyOfg",
        "reference": "CmRSAAAAeUcLn9-5pmcOQ9xll6HBSZOheWNwN63EncF7ylAdRQEGZVwwWRpwY6BkKqDl9t0KjuN7t3ypUD6WdLD2Eh6HOyJWRrqyPuF9lUN9usWAMrkUrOYB2O9uKm5szg6OUiItEhCsAWvj2xL7_UGuoJYPfs7-GhTrhD4DE7747D0p3ZEBkhNCUbEubg",
        "types": [
            "health",
            "point_of_interest",
            "establishment"
        ]
    },
    "3": {
        "formatted_address": "Shop 26 Pick `n Pay Centre, Cnr Marx & Potgieter Road, Warmbad, Bela-Bela, 0480, South Africa",
        "geometry": {
            "location": {
                "lat": -24.8871714,
                "lng": 28.2940164
            },
            "viewport": {
                "northeast": {
                    "lat": -24.8858224197085,
                    "lng": 28.2953653802915
                },
                "southwest": {
                    "lat": -24.8885203802915,
                    "lng": 28.2926674197085
                }
            }
        },
        "icon": "https://maps.gstatic.com/mapfiles/place_api/icons/shopping-71.png",
        "id": "d0480c63d3e2a118cc8c1e52bba53bd183452a9d",
        "name": "Van Heerden Pharmacy Medlin",
        "opening_hours": {
            "open_now": true,
            "weekday_text": []
        },
        "photos": [
            {
                "height": 683,
                "html_attributions": [
                    "<a href=\"https://maps.google.com/maps/contrib/105296098413999991104/photos\">Van Heerden Pharmacy Medlin</a>"
                ],
                "photo_reference": "CmRaAAAAIBLn8u1EUZT3nxV20RqlDRuPwIPj6ET16zDLJxSBNdcxLn62HDNuytjdQzY5Ni1DTpQJyweW5XqyoWM81WoJ0jKjJeE7dAqN5y2sPnNNkHizgqAH_i-XPdpj16a4LVqpEhBc2hNgL_s8KeGhAABIrDLsGhTeFcGHjpdl8R_1HRvUthvDpzZPhQ",
                "width": 1024
            }
        ],
        "place_id": "ChIJDWm5GCoNvx4R2c_-fTGFm_4",
        "rating": 4.3,
        "reference": "CmRSAAAA-ZoiFpudfvsDDoVEsyi0Qa8PUfPxidVhzbxgfhiUEwQ5FNKNQMXYEns8c3vKhnZFHyHbKOidsYfrpl3AvFnI99PUnanQ9UEYmL1FExTxDKQCcLH6rO-tIMcKfxiMKQlHEhDjCm7DIOMKnq0XQQQDzaSCGhSKv5LTOYwC7lWCTEhB7X4cMBA7sQ",
        "types": [
            "pharmacy",
            "health",
            "clothing_store",
            "store",
            "point_of_interest",
            "establishment"
        ]
    },
    "4": {
        "formatted_address": "Douwater Rd & Joe Slovo st, Lephalale, 0555, South Africa",
        "geometry": {
            "location": {
                "lat": -23.6869086,
                "lng": 27.6976276
            },
            "viewport": {
                "northeast": {
                    "lat": -23.6855442697085,
                    "lng": 27.6987945802915
                },
                "southwest": {
                    "lat": -23.6882422302915,
                    "lng": 27.6960966197085
                }
            }
        },
        "icon": "https://maps.gstatic.com/mapfiles/place_api/icons/generic_business-71.png",
        "id": "3b6c33e23f8e82fec399c45cf85ec9c7ad319c1a",
        "name": "Mens Clinic International - Laphalale",
        "place_id": "ChIJtdFmU5-ouR4Rcr9bgEYHcok",
        "rating": 5,
        "reference": "CmRSAAAAsQD9ZKpGLZgqFrRZWYywz26J8u-lXobGPRUh1YjkZyPlkve1IrJkMFGKp8mhy7Xqm9kW2YD1f3W7SAZL2QthuESbE6R-Jqzwbm2yhf1iRTkERWArEjurRrs7fiISLsL4EhAsIHLa1x5jxj0LGLq7pFAwGhT--VZzM5G_w-XmpGZKkiZ85MtKpQ",
        "types": [
            "health",
            "point_of_interest",
            "establishment"
        ]
    },
    "5": {
        "formatted_address": "Hammanskraal, 0407, South Africa",
        "geometry": {
            "location": {
                "lat": -25.357573,
                "lng": 28.2950252
            },
            "viewport": {
                "northeast": {
                    "lat": -25.3562240197085,
                    "lng": 28.2963741802915
                },
                "southwest": {
                    "lat": -25.35892198029151,
                    "lng": 28.29367621970849
                }
            }
        },
        "icon": "https://maps.gstatic.com/mapfiles/place_api/icons/generic_business-71.png",
        "id": "eb68060f60e05b6a022eff2711c06208a00c3236",
        "name": "Ramotse Clinic",
        "photos": [
            {
                "height": 428,
                "html_attributions": [
                    "<a href=\"https://maps.google.com/maps/contrib/108574870438502075926/photos\">Rodney Shandukani</a>"
                ],
                "photo_reference": "CmRaAAAAd9O8rdybt39W10rxC55sbwcgbnNsTxERLHZEMRmoWhpL77tX-4h8x14cddi0XPV-OpnjHr3dCjef2dpsYvf8D-f5H4nY_do3sqQtCDnpDVpd9a5f1LXGcuTxXEnmGAqSEhCtHh7a2f_JxBk-Y6-mdJK3GhQUmQ9CYo8zhrib4XFnMaQcMJMM7g",
                "width": 720
            }
        ],
        "place_id": "ChIJ-Zl8bZ7qvx4RMYQbs-2bP38",
        "rating": 1,
        "reference": "CmRRAAAAMfr1oM8zkuc1WoEu_bCUEQnR4BETLfbu7zY6qY8pi_x0mF0EBee2OxgI4oiYjy_4GNk9JSXvaCDcOVOm0zUCViq1JzdXMP4V89uL2OSf62f_a9NJesF_5sulMSQd8gAiEhCCDQyc9KTaOlAGWa7Hx0szGhR_spfl9d6W-qmSGnB5zvSa7vZqaA",
        "types": [
            "health",
            "point_of_interest",
            "establishment"
        ]
    },
    "6": {
        "formatted_address": "Cullinan, South Africa",
        "geometry": {
            "location": {
                "lat": -25.3738143,
                "lng": 28.3103292
            },
            "viewport": {
                "northeast": {
                    "lat": -25.3724653197085,
                    "lng": 28.3116781802915
                },
                "southwest": {
                    "lat": -25.3751632802915,
                    "lng": 28.3089802197085
                }
            }
        },
        "icon": "https://maps.gstatic.com/mapfiles/place_api/icons/generic_business-71.png",
        "id": "a1efaf98690d6d7f0b685a8fb85de39afdbce2ff",
        "name": "Kekana Garden Clinic",
        "photos": [
            {
                "height": 1600,
                "html_attributions": [
                    "<a href=\"https://maps.google.com/maps/contrib/100207184996827885310/photos\">Kabelo Richard</a>"
                ],
                "photo_reference": "CmRaAAAA_FvKhKrBn4WfTRE_Dcti_51vHKav87GUCrSKZpeTwmCmlKdVKxeGrqbalmjLYztp7JmC97-dYQb7p-bBKnKjUFCurT_Iy6dxHayoeMEAlDs2NveYUL24vKvxogtT0OSvEhCmt7oICys0hBSenWLW0--3GhR20u6uBRURJsYfP-1xz-NvB4XFpA",
                "width": 1200
            }
        ],
        "place_id": "ChIJIa2WWqXqvx4RNyRBzOhOwbM",
        "rating": 3.5,
        "reference": "CmRSAAAASC03xAQv5sRtgLujliBVc3lBxHEuGC4fyO721GXAlhz2QcCotqX-2WeabcSrTiwY6yh11sJdXhh5r_SjgahnYpsFh81N25KKViq95dMjvPuHIKEVbzDGpBtWyjNLyS1aEhCfAL_JfBdld85Ve-vxLHJSGhTgZhWNByTtccz6ZLIqFa-UpSPL3g",
        "types": [
            "health",
            "point_of_interest",
            "establishment"
        ]
    },
    "7": {
        "formatted_address": "Cnr Nelson Mandela And Meiniger Road, Shop 24 Sparrow Shopping Centre, Modimolle, 0510, South Africa",
        "geometry": {
            "location": {
                "lat": -24.708543,
                "lng": 28.414254
            },
            "viewport": {
                "northeast": {
                    "lat": -24.7071940197085,
                    "lng": 28.41560298029151
                },
                "southwest": {
                    "lat": -24.7098919802915,
                    "lng": 28.4129050197085
                }
            }
        },
        "icon": "https://maps.gstatic.com/mapfiles/place_api/icons/generic_business-71.png",
        "id": "f2136d2b72fc83a28de341ed3a203be17a04cdd0",
        "name": "Spec-Savers Modimolle Nylstroom",
        "opening_hours": {
            "open_now": true,
            "weekday_text": []
        },
        "photos": [
            {
                "height": 250,
                "html_attributions": [
                    "<a href=\"https://maps.google.com/maps/contrib/101488557743196006921/photos\">Spec-Savers Modimolle Nylstroom</a>"
                ],
                "photo_reference": "CmRaAAAAgrjDNcaSSTzKjhYwWJkd3c96w-TIefHGELE-C9bOquko9Wl7ga8n0qOENjv9b0ndU8II5n48cjejZC_JvmPY-mlFmcRyOnDWbN4Ck4f5IVjD4WuWeOd6dt8bELPv-7zYEhDYr85C8aEXf1vwVk6TwdDkGhQRbV5mDOE_e0un42IZFRsO_WTGog",
                "width": 250
            }
        ],
        "place_id": "ChIJPy7uGmtpvx4RdslsVeQ7vz4",
        "rating": 3,
        "reference": "CmRRAAAAf3BFpRrf9on_eLrLRvCuwutXP5mzBg_yojU0UXHx96jwImSu33G7XaAnY3ju7jXbeJAypSgzPnwaxqsTVZ8XR05vf7xvOZDHL-9zcd8Z6zHi8eoxsDmj4yUWwwFIOPEtEhDWM5pvoxjgDFrqL91RthF1GhSHUowTJMYZBKR_fqXY972Mub97yw",
        "types": [
            "doctor",
            "health",
            "store",
            "point_of_interest",
            "establishment"
        ]
    },
    "8": {
        "formatted_address": "175 Mosethla St, Marapong, Lephalale, 0556, South Africa",
        "geometry": {
            "location": {
                "lat": -23.6567686,
                "lng": 27.6170945
            },
            "viewport": {
                "northeast": {
                    "lat": -23.65528716970849,
                    "lng": 27.6188212802915
                },
                "southwest": {
                    "lat": -23.6579851302915,
                    "lng": 27.6161233197085
                }
            }
        },
        "icon": "https://maps.gstatic.com/mapfiles/place_api/icons/doctor-71.png",
        "id": "ce766315a2c5dfca88b36ccb61854d7173b9f8ca",
        "name": "Lephalale Medical Center",
        "photos": [
            {
                "height": 1836,
                "html_attributions": [
                    "<a href=\"https://maps.google.com/maps/contrib/117919506437304265280/photos\">Machipi Joas Mathekga</a>"
                ],
                "photo_reference": "CmRaAAAAaAsGpD33Bx66PNN2635ID-DdiWG9-qQRITc8ZtZvu3KDDQT26tbWUFa1K9SQz6EnB_Jitveteb9Nk1Dc6cG3LU81W5M_buL8HgHgQaRVGLhaHLjOATH7aEsuoBrrSmiOEhCErzScsRLt3A_TjDbDOY7kGhSDvj4wEuKcX_qCb635Iz8woq02yg",
                "width": 3264
            }
        ],
        "place_id": "ChIJN7XXLMKjuR4RXiZgB9zl0JI",
        "rating": 3,
        "reference": "CmRSAAAA1NxMUVFI3B0xgBV1H0zDIHuD40afYWBuiKsaBGMVWgX-x1A7m9Le9JXsE_-D8ri7wMCh1HLNvF_LpnhFm-fzCwy0IzT5uKVjtQBDBmbSOSRYFsjEbngFnN5iqlZ2UW_WEhB-PvzAE7Ntcfyu0MFVKXhMGhQj_sOQ9JWI3mO1kldPcHZDhwraew",
        "types": [
            "hospital",
            "point_of_interest",
            "establishment"
        ]
    },
    "9": {
        "formatted_address": "0659, South Africa",
        "geometry": {
            "location": {
                "lat": -24.0768876,
                "lng": 28.9799337
            },
            "viewport": {
                "northeast": {
                    "lat": -24.0755386197085,
                    "lng": 28.9812826802915
                },
                "southwest": {
                    "lat": -24.07823658029151,
                    "lng": 28.9785847197085
                }
            }
        },
        "icon": "https://maps.gstatic.com/mapfiles/place_api/icons/doctor-71.png",
        "id": "3db4c29ab220c7b941479d6c2064734c6cf16183",
        "name": "Tshamahansi Clinic",
        "photos": [
            {
                "height": 1600,
                "html_attributions": [
                    "<a href=\"https://maps.google.com/maps/contrib/116743482506602524688/photos\">Kholofelo Domengo</a>"
                ],
                "photo_reference": "CmRaAAAAqEhsdd7qA5JXwnZl9gNkR0WcHOz5KsLNUIcADmq3m6hi5RcAY2Thu3jEnVNoayaaQZ9mqIzwA8byFPJrX5v0cuu3e8VFrfddF9psHM78ARUTilwmEqhp_VHE7bKbCvBJEhCkvTZIndswdZxjsNcwS8uSGhQEkfoPsJlZd8O2wtlMbmynO-HP8Q",
                "width": 1200
            }
        ],
        "place_id": "ChIJzb4tF2tJxx4RIaJ4KN8obgU",
        "rating": 1,
        "reference": "CmRRAAAAW4nQME6QzW6WY2wFw9-f00mXK2Br1ja4RDy1efqFIiMRHqiYqE88J9Shix4XEEl5GCnWhLPrtysWEAoZWz_7Q3AefdNNjJv8UeJSCwVzMS382kp9AEunJXDf_1Uc9gg-EhDNdj9oshVdR11fqKYU616vGhSR_DxZvQ-xuEk4ezOmb6DossP-0g",
        "types": [
            "hospital",
            "point_of_interest",
            "establishment"
        ]
    },
    "10": {
        "formatted_address": "Alwyn Street & Chris Hani Ave, Lephalale, 0555, South Africa",
        "geometry": {
            "location": {
                "lat": -23.6780972,
                "lng": 27.7011137
            },
            "viewport": {
                "northeast": {
                    "lat": -23.6767482197085,
                    "lng": 27.70246268029151
                },
                "southwest": {
                    "lat": -23.6794461802915,
                    "lng": 27.6997647197085
                }
            }
        },
        "icon": "https://maps.gstatic.com/mapfiles/place_api/icons/doctor-71.png",
        "id": "65edb1f08a3ab6ed191b446d72370758275f9d46",
        "name": "Ellisras Hospital",
        "opening_hours": {
            "open_now": true,
            "weekday_text": []
        },
        "place_id": "ChIJbXZj9GemuR4REDuakTm67cM",
        "rating": 2,
        "reference": "CmRSAAAAc2AvPlQuWuJ4KKiLtfEMmhKQtals1Di8uLc4u0w5820lNOoP8IyTz0fmHrcv2Zg23u8YGf9yaQgMg1pHWOnQ7n69vAVE8A9gGUrRC3PNaCOTn4He8O_1KV8O3Kf3BzgNEhDA0TBc6vksUf6C_OsKbOHLGhSkwJokr7ZcLRJlsEMYm1Bh2HUP2A",
        "types": [
            "hospital",
            "point_of_interest",
            "establishment"
        ]
    },
    "11": {
        "formatted_address": "R101, South Africa",
        "geometry": {
            "location": {
                "lat": -24.8642299,
                "lng": 28.3276711
            },
            "viewport": {
                "northeast": {
                    "lat": -24.86288091970849,
                    "lng": 28.3290200802915
                },
                "southwest": {
                    "lat": -24.8655788802915,
                    "lng": 28.3263221197085
                }
            }
        },
        "icon": "https://maps.gstatic.com/mapfiles/place_api/icons/generic_business-71.png",
        "id": "737db287e317a6eb1414d822c1a30abe65da42d2",
        "name": "Dr Aucamp's Clinic",
        "opening_hours": {
            "open_now": true,
            "weekday_text": []
        },
        "place_id": "ChIJIQ4h7Otyvx4RrJln-5N-Oe8",
        "reference": "CmRSAAAAG6pzArGIAAuxCq3sdpeZROaSDnN3zY1JjibyE5M7VrCNo313OVw8zjQBLMuA2MuGqB1kJ-D_EHvxTAQVR7EEqvgCY1vCtt9lMTTcl2-0kv985qDVt7l2rC4wEX_H-St1EhDr6OYF4wO93LkQK7e3dexBGhTI_ARkkhyzUpfMPVBM6BdkQUxDkQ",
        "types": [
            "doctor",
            "health",
            "point_of_interest",
            "establishment"
        ]
    },
    "12": {
        "formatted_address": "53 Plein Street, Polokwane, 0700, South Africa",
        "geometry": {
            "location": {
                "lat": -23.908231,
                "lng": 29.4645518
            },
            "viewport": {
                "northeast": {
                    "lat": -23.9068820197085,
                    "lng": 29.4659007802915
                },
                "southwest": {
                    "lat": -23.9095799802915,
                    "lng": 29.4632028197085
                }
            }
        },
        "icon": "https://maps.gstatic.com/mapfiles/place_api/icons/generic_business-71.png",
        "id": "c1e520d3a36c43997c3698d615d5edb63568533a",
        "name": "Mediclinic Limpopo",
        "photos": [
            {
                "height": 3024,
                "html_attributions": [
                    "<a href=\"https://maps.google.com/maps/contrib/100197009939102746754/photos\">Tiisetso</a>"
                ],
                "photo_reference": "CmRaAAAAUj7I8WG--lrxfL-ebgeZItXaGG-GlhLwmgau7NRlPgsz5PRcoT21iHnbbpgIe-PwV_2eXS8g3vuDkDVA4grHwHXz7G1VYv84DdM4Vu5VceGD2jSzr4via5dBlvL1Lhn7EhAlwdl5Nshbj7hgghrG6Ua8GhRHBU104ywXsg3H_PZrvnI7SO9Gzg",
                "width": 4032
            }
        ],
        "place_id": "ChIJeRkwTdXZxh4RBRIwxDLgY8I",
        "rating": 3.2,
        "reference": "CmRSAAAAd5lIYv9fooC8cow8fCfjfOjjTXTeFH7FgUpa3v94i3zEJvdAtR7Cz3uy6flb0ykKLFre6GKY1LvFOIneoTiPPJostM1uhDIxytZikpofNj2pSCF-vsw_2A9WlC4F4t7PEhBw5ooQooC5VdTOyO_ZSKtxGhRWL_HFnDpmeHr3RWXevr0IzLi3EQ",
        "types": [
            "health",
            "point_of_interest",
            "establishment"
        ]
    },
    "13": {
        "formatted_address": "95 Landdros Mare St, Polokwane Central, Polokwane, 0700, South Africa",
        "geometry": {
            "location": {
                "lat": -23.902337,
                "lng": 29.4513845
            },
            "viewport": {
                "northeast": {
                    "lat": -23.9010247697085,
                    "lng": 29.45254593029149
                },
                "southwest": {
                    "lat": -23.90372273029151,
                    "lng": 29.4498479697085
                }
            }
        },
        "icon": "https://maps.gstatic.com/mapfiles/place_api/icons/generic_business-71.png",
        "id": "07ce73a5a4b00ad9aa8a1609dfd0e6105a5167c2",
        "name": "Marie Stopes South Africa",
        "opening_hours": {
            "open_now": true,
            "weekday_text": []
        },
        "photos": [
            {
                "height": 373,
                "html_attributions": [
                    "<a href=\"https://maps.google.com/maps/contrib/111303893881919716030/photos\">Mpinyana 200</a>"
                ],
                "photo_reference": "CmRZAAAAvskISd4UWWG9ZkBAOYTzWbyLSfP7OlCmx2nJiF78vdH7XFDXys0iL-XI5_lc0JPp5DjAWOJpTKgZb7wYNpUw5ynJnKdp7EeGZu5rloxD1pHMeP5TOPtaM1SQZ_plhipoEhCmO_AxF6ZgsMmDmXIiQGeiGhTEn7At3zeWF-k9kKeBou9KzQhYgg",
                "width": 373
            }
        ],
        "place_id": "ChIJiXG20IjXxh4R3YckjFcVGYg",
        "rating": 4.2,
        "reference": "CmRSAAAAKNhmUuA2xAy9CNNSTfW13rpSKAwuRejaC4uGtPCPQBDBAA9-NSVxbfvDd6udDK5mStjT1kwdc7RmEfzOYbFT8EywZH9BI1KlSytlT4qR6JCOusMn3wubjSfQet2xUoUvEhC6Rl-supkc8--jPjLPTGjgGhTsxcjCTHjkiaHtIzq6tzU-mqiyjw",
        "types": [
            "health",
            "point_of_interest",
            "establishment"
        ]
    },
    "14": {
        "formatted_address": "Hans Van Rensburg Straat, Shop 20 , Euphorbia Park, Mookgopong, 0560, South Africa",
        "geometry": {
            "location": {
                "lat": -24.5216578,
                "lng": 28.7118315
            },
            "viewport": {
                "northeast": {
                    "lat": -24.5203088197085,
                    "lng": 28.7131804802915
                },
                "southwest": {
                    "lat": -24.5230067802915,
                    "lng": 28.7104825197085
                }
            }
        },
        "icon": "https://maps.gstatic.com/mapfiles/place_api/icons/generic_business-71.png",
        "id": "570f8bdd0350ad54444188ef35983f8b2e539624",
        "name": "Spec-Savers Naboomspruit",
        "opening_hours": {
            "open_now": true,
            "weekday_text": []
        },
        "photos": [
            {
                "height": 250,
                "html_attributions": [
                    "<a href=\"https://maps.google.com/maps/contrib/116914658801787480653/photos\">Spec-Savers Naboomspruit</a>"
                ],
                "photo_reference": "CmRaAAAAa1PMdIZAzjjB-Ul4r6HVyGSRwcVHSxn1ibv0C4FCzIqbJl1Co1_3v4FqWxxlBv-kXNURRaxSj70xrV3EPYSjWM-OkzKakQ42ioMkEDuoiEAC02OmblJK8MNRRk6giohQEhDgtKBCFYDyvnJaIgtIBCgRGhTDk4BH0SnhijdjOA847AjFIDiCRg",
                "width": 250
            }
        ],
        "place_id": "ChIJfYebQt6gwB4R_KnPCuc1qic",
        "reference": "CmRRAAAABKN4oOtVcXtxyIVM55i3lNcnUt8yzc4FiGjyZpQI0vcYht70zOsMS9uFF5riY9rMYPaaUDLF90KCzVUKlkaytMgCK_iAREMfctzuN3FnD8OW2v4I2p6rVa5F-gDDPrb3EhC9dcZO7Ock4CIQBUVkRyaDGhRczlvg1ljuhdmcDwjpDKrO4MPtLg",
        "types": [
            "doctor",
            "health",
            "store",
            "point_of_interest",
            "establishment"
        ]
    },
    "15": {
        "formatted_address": "Eland Street And Steenbok Street, Eland Building Shop 2, Thabazimbi, 0380, South Africa",
        "geometry": {
            "location": {
                "lat": -24.588,
                "lng": 27.408167
            },
            "viewport": {
                "northeast": {
                    "lat": -24.5866510197085,
                    "lng": 27.40951598029151
                },
                "southwest": {
                    "lat": -24.5893489802915,
                    "lng": 27.4068180197085
                }
            }
        },
        "icon": "https://maps.gstatic.com/mapfiles/place_api/icons/generic_business-71.png",
        "id": "6fb3d143f58a81240630b81e325504dcc844119f",
        "name": "Spec-Savers Thabazimbi",
        "opening_hours": {
            "open_now": true,
            "weekday_text": []
        },
        "place_id": "ChIJ18FIF4Cxvh4RrVWjQysjuyE",
        "reference": "CmRRAAAAvLJw0zbE6OACSbFU_0ugQSRfrfUNvuEeeMTayX9RK4i89HC_xzn5c0leoTU5vlk6oPOLHT0zljdVh-2abbqoOdU-Y173KnyixGAzM--Ibo1ID_DZeezGLMogkn9k-QoqEhCDPytybK5hAAQrEqpUP0XdGhQW9A-yUm6q461K0r934n3LEt5wKw",
        "types": [
            "doctor",
            "health",
            "store",
            "point_of_interest",
            "establishment"
        ]
    },
    "16": {
        "formatted_address": "3197 Tambo 2, Stinkwater, City of Tshwane Rural, 0407, South Africa",
        "geometry": {
            "location": {
                "lat": -25.3967903,
                "lng": 28.1562005
            },
            "viewport": {
                "northeast": {
                    "lat": -25.3954413197085,
                    "lng": 28.1575494802915
                },
                "southwest": {
                    "lat": -25.3981392802915,
                    "lng": 28.1548515197085
                }
            }
        },
        "icon": "https://maps.gstatic.com/mapfiles/place_api/icons/generic_business-71.png",
        "id": "b7b430d617f787b84e18e393d4f672f6dfecdae4",
        "name": "Stinkwater Clinic.",
        "place_id": "ChIJVVVVFYe4vx4RY_Y2ghmv840",
        "rating": 2,
        "reference": "CmRSAAAAcwED0vJ5fhshu2Q6FRJ6sm6dz_vEPOCFWZBKg8-fHnOtNi9niHK5CaUAw3INSXFE25Z_2iiyyEJpp7tfQaK4sZoWV1R-Bv34nk2TECkFAvFd0ukuNtT8qhyDxvNveyxcEhBiNLZlJW601SEx4dAgjwW-GhTb92QZfYzdqZY4wq-svkfBnbzAHw",
        "types": [
            "health",
            "point_of_interest",
            "establishment"
        ]
    },
    "17": {
        "formatted_address": "Ga-Kolopo, 0714, South Africa",
        "geometry": {
            "location": {
                "lat": -23.480408,
                "lng": 29.1858633
            },
            "viewport": {
                "northeast": {
                    "lat": -23.4790590197085,
                    "lng": 29.1872122802915
                },
                "southwest": {
                    "lat": -23.4817569802915,
                    "lng": 29.1845143197085
                }
            }
        },
        "icon": "https://maps.gstatic.com/mapfiles/place_api/icons/generic_business-71.png",
        "id": "c6d47987c13ffc3f5efb90640db2ced5fbc4a8b3",
        "name": "Percy Clinic",
        "place_id": "ChIJWxzLTU0Ixx4R9PCQ1Qny4oM",
        "rating": 1,
        "reference": "CmRSAAAA6uEsWHyX1ncULUAXo6CZRdWhT8s3-h0aE7hyClPYphCyBBufyzhpFrVlcMTQRwOKvPgDaJxF364h9occ0nBs3D29N8vFGccIkeogn62mdP72M7C8CAPTP3l4itBzONahEhALlqR8mefflKGUnTDZ23YsGhSPTPXGEGjlDVCfoNHN4KKTeR8a9g",
        "types": [
            "health",
            "point_of_interest",
            "establishment"
        ]
    },
    "18": {
        "formatted_address": "55 Ruiter Rd, Mokopane, 0600, South Africa",
        "geometry": {
            "location": {
                "lat": -24.181014,
                "lng": 29.0103
            },
            "viewport": {
                "northeast": {
                    "lat": -24.1798474697085,
                    "lng": 29.0122364302915
                },
                "southwest": {
                    "lat": -24.1825454302915,
                    "lng": 29.0095384697085
                }
            }
        },
        "icon": "https://maps.gstatic.com/mapfiles/place_api/icons/generic_business-71.png",
        "id": "5815b266bbab6f367228af385d1cc0d341552844",
        "name": "Mens Clinic International - Mokopane",
        "photos": [
            {
                "height": 768,
                "html_attributions": [
                    "<a href=\"https://maps.google.com/maps/contrib/113443499407490872701/photos\">Nicolas Goslar</a>"
                ],
                "photo_reference": "CmRaAAAA6GbLyvnDCYfn7mu-67TyhieHGGhsF2l8ZYNFPfaImsfzGu4re4SPZFl3dtyZeRQR8t2VMYlH6X1gcf9hsx1nfVsAwd3MmS7YSB-a2nMm9GSSfubkpNIt57YNuq1R-O1mEhDkluxjXvi2SxhWprcGqm6GGhSS9lVhkwV0aYg0u5LnfG4za2KaUg",
                "width": 1024
            }
        ],
        "place_id": "ChIJv6Viki21wB4RN0xtfAk9F80",
        "reference": "CmRSAAAABm_nvKeCPVOL3jjnF1Ris8rj82hyAetq5UiFtyqmqzhfD5CNb-8oRQTzezpPLc0umZXQqN7Lp7Z0T5qiVbaVJeNiFqb2-_cHvh4dMOwOXIKpA4QKKF_5-IEH6018IuEgEhDYiY73LJSJkXckLbzTNFBkGhRzonrQT_JzM9XEXACYjiPC-Z6W8g",
        "types": [
            "doctor",
            "health",
            "point_of_interest",
            "establishment"
        ]
    },
    "19": {
        "formatted_address": "376 Jack Hinden Street, Pretoria North, Pretoria, 0182, South Africa",
        "geometry": {
            "location": {
                "lat": -25.667061,
                "lng": 28.16896
            },
            "viewport": {
                "northeast": {
                    "lat": -25.6657120197085,
                    "lng": 28.1703089802915
                },
                "southwest": {
                    "lat": -25.6684099802915,
                    "lng": 28.1676110197085
                }
            }
        },
        "icon": "https://maps.gstatic.com/mapfiles/place_api/icons/generic_business-71.png",
        "id": "18923848e636e4564747d50a5bc672e8afe37bdd",
        "name": "Pretoria North Clinic",
        "opening_hours": {
            "open_now": true,
            "weekday_text": []
        },
        "place_id": "ChIJ_____xPZvx4RdqomMKgw2SQ",
        "rating": 3,
        "reference": "CmRRAAAAF7slDYjV2FgvbuqdMrZPxFeKsV_u9DMypuGO499VNQmfGeJxUf0nynR3-4SldXMnw9-EQCyUBawo2bOluIzKJKpOeJpvAjAYjLDwiPmkbWxzUne_AZzajnBpnIrHfVH5EhARG08-PkI2ZQUjLr4E15IoGhQieKRF0BZehfPKabWyn8MQejAWcA",
        "types": [
            "health",
            "point_of_interest",
            "establishment"
        ]
    },
    "20": {
        "formatted_address": "20A Kruger St, Groblersdal, 0470, South Africa",
        "geometry": {
            "location": {
                "lat": -25.16979,
                "lng": 29.39382999999999
            },
            "viewport": {
                "northeast": {
                    "lat": -25.1686211697085,
                    "lng": 29.3952605802915
                },
                "southwest": {
                    "lat": -25.1713191302915,
                    "lng": 29.3925626197085
                }
            }
        },
        "icon": "https://maps.gstatic.com/mapfiles/place_api/icons/generic_business-71.png",
        "id": "f61c0536c3d6870e65d42553f47f2329ce7ef9a0",
        "name": "Dr kim women's abortion clinic/cytotec abortion pills for sale",
        "opening_hours": {
            "open_now": true,
            "weekday_text": []
        },
        "photos": [
            {
                "height": 367,
                "html_attributions": [
                    "<a href=\"https://maps.google.com/maps/contrib/116756159460447392308/photos\">Dr kim women&#39;s abortion clinic</a>"
                ],
                "photo_reference": "CmRaAAAAruhdiC5js3UA6vpAvOsZHXAz_wEKjh-545mdvTqjOOEatrHNDAoPBBzPCu1Ra8axprgbrxj2WbrPbxfje_PpoFSTvTPoGHbxdVWELDoQ3q04KFWR4MCpz-RZ6MkzdsPREhBAdoMvtiWjg5LaWZ2jF8WnGhTW32rwuAT7d_l6GbwJpYm7A80YpQ",
                "width": 368
            }
        ],
        "place_id": "ChIJ42DTshg1wB4RuLQ6XOTRBH0",
        "rating": 5,
        "reference": "CmRRAAAAh4K_kb6547VbkkJdbXelOFsEXOdpZ7IyVFle_9raawkWVDrKO6FKisgYm3McxTriupAOZKh7NNumHUgFSl7A6ylYS5P0wMBd3SzcQSmNLIDwp9wS5nIaWPONvhrAThLrEhDjka5ugcbwKB9mLcy5nZWEGhQN5ae77gnlRi7Gk-AnzB4gq8bNAQ",
        "types": [
            "health",
            "point_of_interest",
            "establishment"
        ]
    },
    "21": {
        "formatted_address": "120 Thabo Mbeki Dr, Mokopane, 0600, South Africa",
        "geometry": {
            "location": {
                "lat": -24.1903489,
                "lng": 29.010772
            },
            "viewport": {
                "northeast": {
                    "lat": -24.1889560197085,
                    "lng": 29.0119768802915
                },
                "southwest": {
                    "lat": -24.19165398029151,
                    "lng": 29.0092789197085
                }
            }
        },
        "icon": "https://maps.gstatic.com/mapfiles/place_api/icons/generic_business-71.png",
        "id": "c6de40da6777a3aa9d40ab140ac9fe8ef4f239ab",
        "name": "Dr. Vernon Els",
        "opening_hours": {
            "open_now": true,
            "weekday_text": []
        },
        "photos": [
            {
                "height": 4032,
                "html_attributions": [
                    "<a href=\"https://maps.google.com/maps/contrib/114575469560667185300/photos\">Lance Coetzee</a>"
                ],
                "photo_reference": "CmRaAAAAooNkIJYbCvZRbeWamDEX8NhwCN0Iky9Vs87ew5yR9CabERXFpxqUixh4v8ovgtpA86yjj1TE6fDnszGx4oHn7hV0UQBu0V-SFLkqEUUti0vLXbTcOzqQDjScvga_TOvUEhB9hPJ8NMu4YVHUbDz3oalmGhSivEJNbjRsddpksdBqqAx3sFHB0Q",
                "width": 3024
            }
        ],
        "place_id": "ChIJ9YjIKiW1wB4RwgLTdh1qdcI",
        "rating": 4.5,
        "reference": "CmRSAAAAgJZ6zp0Rp5I_j4-UJCnoqAp1aENFByz_aDG5OBOVS-UMNuRDF3zsaBWw1IiICCqJN7-zZGz_ujU7BvcuBEZH0u_hwhaTj1GLIB8GDW4N0vFrA_p5vbDYau2A8TccTLP_EhBULcTVls8FzwbWobWOpYCrGhS8bIhsIpyCdIRFIyys6Sn1aarP_w",
        "types": [
            "doctor",
            "local_government_office",
            "health",
            "point_of_interest",
            "establishment"
        ]
    },
    "22": {
        "formatted_address": "Shop No 203 A Modi Mall, Cnr Thabo Mbeki Drive & Rivier Street, Nylstroom, Modimolle, 0510, South Africa",
        "geometry": {
            "location": {
                "lat": -24.695248,
                "lng": 28.4048104
            },
            "viewport": {
                "northeast": {
                    "lat": -24.6938990197085,
                    "lng": 28.4061593802915
                },
                "southwest": {
                    "lat": -24.6965969802915,
                    "lng": 28.4034614197085
                }
            }
        },
        "icon": "https://maps.gstatic.com/mapfiles/place_api/icons/generic_business-71.png",
        "id": "4e9becc93224a0aa9fa9555b4dadbe27266b6c44",
        "name": "Van Der Merwe M T/a Torga Optical Modi Mall",
        "place_id": "ChIJO9fKOXFpvx4R9ojbpnccMnA",
        "reference": "CmRRAAAAooOjNK5XFEq9u8mKBv3XMzQU9q5VqlR3tAaLTS8yVt-csibWaJbWceiR139gaKtBFSXNEQgcio4J5MUQNQGAy3AnhARhyLruN3BPk5g18wy1u4t7AB501QARdHA9HFgBEhBjVQN-gEjZNvTYGT9ZzwbtGhQvDmoCsiNoBU20_pAaNL48mVqpoQ",
        "types": [
            "health",
            "point_of_interest",
            "establishment"
        ]
    },
    "23": {
        "formatted_address": "52 Hooge St, Mokopane, 0600, South Africa",
        "geometry": {
            "location": {
                "lat": -24.1822059,
                "lng": 29.015948
            },
            "viewport": {
                "northeast": {
                    "lat": -24.1808132697085,
                    "lng": 29.0171574302915
                },
                "southwest": {
                    "lat": -24.1835112302915,
                    "lng": 29.0144594697085
                }
            }
        },
        "icon": "https://maps.gstatic.com/mapfiles/place_api/icons/generic_business-71.png",
        "id": "4b9ccf2486c64b9d0ec9054de1336088b085f552",
        "name": "Doc-on-Call",
        "opening_hours": {
            "open_now": true,
            "weekday_text": []
        },
        "place_id": "ChIJx0H4RDG1wB4RNBue-WO7eCk",
        "rating": 5,
        "reference": "CmRRAAAAbdGdNY45UaTgz1uD1wo0gvPROT1KSCS_FJeLYe0fNWKfKzPc9lzDmxfKDpXCjGDV4hYlgfiVADSUWBwvGkcN_TlclnAzlCBMrQZXVKkhPUFWKdxeCwEjr0BmjxWyucr6EhDCuH0kZUzq-1LtYXy9gVWwGhSusjwl1I5Y-3qR4uhdM175UApXcQ",
        "types": [
            "doctor",
            "health",
            "point_of_interest",
            "establishment"
        ]
    },
    "24": {
        "formatted_address": "Berg St, Modimolle, 0510, South Africa",
        "geometry": {
            "location": {
                "lat": -24.7014658,
                "lng": 28.4220459
            },
            "viewport": {
                "northeast": {
                    "lat": -24.70001761970849,
                    "lng": 28.4235214802915
                },
                "southwest": {
                    "lat": -24.7027155802915,
                    "lng": 28.4208235197085
                }
            }
        },
        "icon": "https://maps.gstatic.com/mapfiles/place_api/icons/doctor-71.png",
        "id": "30d7302058c52f632a52826d8c22c84263b575fb",
        "name": "F H Odendaal Hospital.",
        "place_id": "ChIJGRV6twxpvx4RWYDTZKVp7lA",
        "rating": 2.8,
        "reference": "CmRRAAAADQ4vUJwUHPA_3QW8mnoS5WphTkBP-x3tEOJcxZCTmJ7aOkTe6nHwiHmGHw_WjUcfoq-0uoEvpcFrK4gi5uF-lvH142egnU33agjmqyXf4Dkt4Brm3LRlxK8jFPZ54RPUEhC8UoEy0Pfw3vw85Qgl-i5oGhTArHEURIViJqbVdrI1nDvk7MBVZw",
        "types": [
            "hospital",
            "point_of_interest",
            "establishment"
        ]
    },
    "25": {
        "formatted_address": "21 Kretzschmar St, Bela-Bela, 0480, South Africa",
        "geometry": {
            "location": {
                "lat": -24.88251,
                "lng": 28.29615
            },
            "viewport": {
                "northeast": {
                    "lat": -24.88126076970849,
                    "lng": 28.2973577802915
                },
                "southwest": {
                    "lat": -24.8839587302915,
                    "lng": 28.2946598197085
                }
            }
        },
        "icon": "https://maps.gstatic.com/mapfiles/place_api/icons/generic_business-71.png",
        "id": "9ecfe32998946abab4f11e1f36a723399f9661a9",
        "name": "Mens Clinic International - Bela-Bela",
        "place_id": "ChIJXwkjRioNvx4R_A1gddc6Wfk",
        "reference": "CmRSAAAA7f0TFAQLvDGAqQA0luLlI8zGYl4daDZ9LUGJuErhmj0NjoX3tC5miM-uMj8vfCZmU4h42coVTWPjo8QwZFw46qerxHsbeZ-mbyM6MSkqHAUNvU26jzUF3ymQDANEwNd7EhAdbR5vSTQNn-bo8LjAtC8JGhSi7vkokenqDIHKutR1529JIPykNw",
        "types": [
            "doctor",
            "health",
            "point_of_interest",
            "establishment"
        ]
    },
    "26": {
        "formatted_address": "Kwaggafontein-A, Kwaggafontein, South Africa",
        "geometry": {
            "location": {
                "lat": -25.2941114,
                "lng": 28.95996599999999
            },
            "viewport": {
                "northeast": {
                    "lat": -25.2927624197085,
                    "lng": 28.96131498029149
                },
                "southwest": {
                    "lat": -25.2954603802915,
                    "lng": 28.95861701970849
                }
            }
        },
        "icon": "https://maps.gstatic.com/mapfiles/place_api/icons/generic_business-71.png",
        "id": "1ea44b6c50ddf06dbe84a347662bcfcd33a5498b",
        "name": "Kwaggafontein C Clinic",
        "place_id": "ChIJfb_hagwUwB4R650j2nez0Hw",
        "reference": "CmRRAAAAfSBWC4VisS3BukL4AiET8fYoOK43UFMH2rumkCrYZ8g8EyWL9t4KJXqmGlaZ7GOiflJVo6lRYbSIt-UxH3bZr8kAbfllcKQXIQaVDwQCdDMZr1IwVYkrHRKcphWQSpikEhA6QNEhPODopKKitsxd3aroGhSFZKJYGhUGJfB4SCtZZpEPCqDrQw",
        "types": [
            "health",
            "point_of_interest",
            "establishment"
        ]
    },
    "27": {
        "formatted_address": "Unnamed Road, Malebitsa, South Africa",
        "geometry": {
            "location": {
                "lat": -24.90328,
                "lng": 28.9356427
            },
            "viewport": {
                "northeast": {
                    "lat": -24.9019310197085,
                    "lng": 28.9369916802915
                },
                "southwest": {
                    "lat": -24.9046289802915,
                    "lng": 28.9342937197085
                }
            }
        },
        "icon": "https://maps.gstatic.com/mapfiles/place_api/icons/generic_business-71.png",
        "id": "92f6aeef7f2c6aff79eca7d0984085e9b84bdbf8",
        "name": "Malebitsa Comunity Health Centre",
        "place_id": "ChIJY-u7gxZiwB4RUZpH0M0acrs",
        "reference": "CmRSAAAAjphEr3qbjvAz-MRVBZf6Nobz8g0zSdGb_2SiL1TqE-NH3fA4jZJ9TQX9LpnXryLkhY41y3L_M6aD1SKUxBrrLiofQsoVPvLrqVC_57zZaMSduxtiJvtfVW08cbpqEfjOEhAeiYIT_ZfcjnHVlUhReNfXGhSu4j-jl2jk_kM164kLCQYFLf8XWA",
        "types": [
            "health",
            "point_of_interest",
            "establishment"
        ]
    },
    "28": {
        "formatted_address": "N11, Thaba Leshoba, 0617, South Africa",
        "geometry": {
            "location": {
                "lat": -23.4833692,
                "lng": 28.6560526
            },
            "viewport": {
                "northeast": {
                    "lat": -23.4820374697085,
                    "lng": 28.6573728302915
                },
                "southwest": {
                    "lat": -23.4847354302915,
                    "lng": 28.6546748697085
                }
            }
        },
        "icon": "https://maps.gstatic.com/mapfiles/place_api/icons/doctor-71.png",
        "id": "87d8e2ff791d5b651702a64d55eb1d8e1e0dd801",
        "name": "Thaba Leshoba Health Centre",
        "place_id": "ChIJbV7dJUR_uB4RFAdig00Vk7k",
        "rating": 5,
        "reference": "CmRSAAAA8FtPrAGzbt5BGtscGjExfIT8ETn4hvmlTrIcehbP5Y9LzDfvVwqUL-v9JJEgcXuO7gb437yl5C_-CIC8ThvVx9YHv_JQLvrs2BFdVUTvGOzlWje-SM6YiULcRj6obNrgEhCM3y-xdi5TgBF7xZUf1Je3GhTcQ-TQMrp6wT-_x6bYh-HK4_wy4Q",
        "types": [
            "hospital",
            "point_of_interest",
            "establishment"
        ]
    },
    "29": {
        "formatted_address": "Marapyane, 0431, South Africa",
        "geometry": {
            "location": {
                "lat": -25.0046231,
                "lng": 28.7957931
            },
            "viewport": {
                "northeast": {
                    "lat": -25.0032741197085,
                    "lng": 28.7971420802915
                },
                "southwest": {
                    "lat": -25.0059720802915,
                    "lng": 28.7944441197085
                }
            }
        },
        "icon": "https://maps.gstatic.com/mapfiles/place_api/icons/generic_business-71.png",
        "id": "db4e7af166acf77dc04f713b9fb2010d6bfac26a",
        "name": "Marapyane Community Health Centre",
        "opening_hours": {
            "open_now": true,
            "weekday_text": []
        },
        "place_id": "ChIJm8QOYYl7wB4ROaju1vC0xDE",
        "reference": "CmRRAAAA4603WhVFeTYacHVcIeoFwsjQVWAVjY42HBwzLvc1i465jKj3C8x9dJEgqJ6Xy8btcUZ9BAzRjPChAwNIdLKyDAB_SOyicaimr_09NUd6SApYBIlcJZI0akO5hAYpXaftEhBSA3VpHpVuVRiZTz-9UimgGhTycQvNfAK4bbclhv4MNsupz-kVlA",
        "types": [
            "health",
            "point_of_interest",
            "establishment"
        ]
    },
    "30": {
        "formatted_address": "175 Mosethla St, Marapong, Lephalale, 0556, South Africa",
        "geometry": {
            "location": {
                "lat": -23.6567686,
                "lng": 27.6170945
            },
            "viewport": {
                "northeast": {
                    "lat": -23.65528716970849,
                    "lng": 27.6188212802915
                },
                "southwest": {
                    "lat": -23.6579851302915,
                    "lng": 27.6161233197085
                }
            }
        },
        "icon": "https://maps.gstatic.com/mapfiles/place_api/icons/doctor-71.png",
        "id": "ce766315a2c5dfca88b36ccb61854d7173b9f8ca",
        "name": "Lephalale Medical Center",
        "photos": [
            {
                "height": 1836,
                "html_attributions": [
                    "<a href=\"https://maps.google.com/maps/contrib/117919506437304265280/photos\">Machipi Joas Mathekga</a>"
                ],
                "photo_reference": "CmRaAAAAsTgAxiJeZ3HAbvi7VxVZZrMkjcwSUqa-RwXo_E47UUhqwEzSE4VPzFbvLileZmIWMCFwgY4sZXTBxYjo8p-RB4mzXAGZVEB7M8MK0BbmMq-X4eL9SFIakFVtWATBDgDEEhCLMVYT-fVs4BpOz1QhnFUhGhTKTvso5ufXe0MTkxwQEuXrpCz9mw",
                "width": 3264
            }
        ],
        "place_id": "ChIJN7XXLMKjuR4RXiZgB9zl0JI",
        "rating": 3,
        "reference": "CmRSAAAAkg39YfSgrjjwqHN63Cu9V5F6A5XLavWfa74Gt8TR_WgFAxNJRP1ZlMXCT-5NeV8g0uorzcxUwRQ6xKqGvqTFaRl2xzr9zDyOsxgdyjI3w7FiSvQuRq4zf4rxuMusFWCFEhATp4Ief4isfwUz83OKZs6WGhQzYocxkmbSeIxoqBHZ9haSiwrFSg",
        "types": [
            "hospital",
            "point_of_interest",
            "establishment"
        ]
    },
    "31": {
        "formatted_address": "2 Thabo Mbeki St, Mookgopong, 0560, South Africa",
        "geometry": {
            "location": {
                "lat": -24.5244405,
                "lng": 28.7083087
            },
            "viewport": {
                "northeast": {
                    "lat": -24.52309151970849,
                    "lng": 28.7096576802915
                },
                "southwest": {
                    "lat": -24.5257894802915,
                    "lng": 28.7069597197085
                }
            }
        },
        "icon": "https://maps.gstatic.com/mapfiles/place_api/icons/generic_business-71.png",
        "id": "b946b887609c1dd1b39dd39dc2f042dfd2265384",
        "name": "Mookgophong Health Center",
        "photos": [
            {
                "height": 3120,
                "html_attributions": [
                    "<a href=\"https://maps.google.com/maps/contrib/107831853208867126954/photos\">Thambulo Nangambi</a>"
                ],
                "photo_reference": "CmRaAAAAGu1eL-71mqt72TepWRNmaIbtxm90kiBqPjAVM4VxibP3F6L5HNP1rdVkFHJnthar7xcWfMTcwkgCuGZgLjLdxzQHPAwHuBlitKm98Ytemo3LMyH3sD4LQ9i24v5ZpjVsEhAbSAzlD1AT9fB7_66BCdOnGhRIHcJnE2itJO6jEHRXsxUzLidCBQ",
                "width": 4160
            }
        ],
        "place_id": "ChIJSR5jKOagwB4RCTlFO75WSWs",
        "rating": 5,
        "reference": "CmRRAAAAAu9tW_pdpAvw5kw1qaO7CNWiQVbXrDW_Gr8IF6qyD4PqUeDum4agEDJqs1ct9N_LDT1aGi8GM_1lzTWhuo6Hm0a7EVwNtUAuaERBrPyUzZPdPE8X3e7l87W7Tytk9kNEEhAfv2itDeHLdQPczNJXKt0-GhTnqZRXXsb35nFtBtTGnZjDSc4wyA",
        "types": [
            "health",
            "point_of_interest",
            "establishment"
        ]
    },
    "32": {
        "formatted_address": "Unnamed Rd, Walman, South Africa",
        "geometry": {
            "location": {
                "lat": -25.0800526,
                "lng": 28.2347624
            },
            "viewport": {
                "northeast": {
                    "lat": -25.0787036197085,
                    "lng": 28.2361113802915
                },
                "southwest": {
                    "lat": -25.0814015802915,
                    "lng": 28.23341341970849
                }
            }
        },
        "icon": "https://maps.gstatic.com/mapfiles/place_api/icons/doctor-71.png",
        "id": "74776a83aea1febd367b10ec8224845f8dcfeca5",
        "name": "Kutlwanong Health Centre Syferkuil",
        "place_id": "ChIJHXgIVBmhvx4RCZZWCibhPxI",
        "reference": "CmRRAAAALRerC998Zb2NDuwDHjB-zbYAHGGwf-1QjK2wopXLMrOPf1Wb7dmEyLe9HKiyGoQiRWvj5QkkApkdnhmgvBz_BdczATBzLmeLKl-F4wCeBwFPGnDc9NNEaHTrDFycleOmEhCU7U7utRjyiCq6UxbJXPFzGhTtM62lLKEraESuZ5-mYGOUZEec6A",
        "types": [
            "hospital",
            "point_of_interest",
            "establishment"
        ]
    },
    "33": {
        "formatted_address": "Shop 12 Lephalale Square, Jan-Lee Street, Ellisras, Lephalale, 0555, South Africa",
        "geometry": {
            "location": {
                "lat": -23.67739,
                "lng": 27.73838
            },
            "viewport": {
                "northeast": {
                    "lat": -23.6760410197085,
                    "lng": 27.7397289802915
                },
                "southwest": {
                    "lat": -23.6787389802915,
                    "lng": 27.7370310197085
                }
            }
        },
        "icon": "https://maps.gstatic.com/mapfiles/place_api/icons/doctor-71.png",
        "id": "92955ef20c75dbe8c9e0df9adf9e75078d78c25f",
        "name": "Teffo S F & Poto L T T/a Bophelong Medical Centre",
        "place_id": "ChIJi_86752ouR4RY9yIMgesA0M",
        "reference": "CmRRAAAADoEBr0TjPsFLvRIBpRsgS8_5gZ-GHxLST2SWB4Lu5sMz-vdN2sIB-x-7zzrlRBCLvEnStA4j3f1OBIWt8YOgCLapD6g4JK5lF9AOFoW-vsu3XANJ8RN7VqH2fVuGkoLyEhAkKsv5q5g7axVGdPG2tAUeGhS6tob9fPTTHzlI857Ct3gJVRRQOA",
        "types": [
            "hospital",
            "point_of_interest",
            "establishment"
        ]
    },
    "34": {
        "formatted_address": "Folang Medical centre; 31 Ruiter Road, Mokopane, 0601, South Africa",
        "geometry": {
            "location": {
                "lat": -24.178055,
                "lng": 29.012011
            },
            "viewport": {
                "northeast": {
                    "lat": -24.1767060197085,
                    "lng": 29.01335998029149
                },
                "southwest": {
                    "lat": -24.1794039802915,
                    "lng": 29.0106620197085
                }
            }
        },
        "icon": "https://maps.gstatic.com/mapfiles/place_api/icons/generic_business-71.png",
        "id": "0ecfa2b41e6dfa08fa73c329dff4e967e0340f81",
        "name": "Senwamadi M S",
        "opening_hours": {
            "open_now": true,
            "weekday_text": []
        },
        "place_id": "ChIJ0W5KRy21wB4Rf8kFgtGbN0k",
        "reference": "CmRRAAAAMGhTNGPaeyo_0J6c7H-8EdESnooouEnx0tv_IUgMI_RgGUAW7nACasnJklHVab7EA9rz4O4E6_bXi9HGm3FzduAjoDYlGDcXYyxt7QmI9Nnzmv7CDnnmmu2vcpo9xU7EEhAI95G7o76ki3vw1nmxj505GhRNVqVRagORIHndewaqwpfDxiRUyw",
        "types": [
            "physiotherapist",
            "hospital",
            "health",
            "point_of_interest",
            "establishment"
        ]
    },
    "35": {
        "formatted_address": "Watson St, Thabazimbi, 0387, South Africa",
        "geometry": {
            "location": {
                "lat": -24.5884498,
                "lng": 27.4124993
            },
            "viewport": {
                "northeast": {
                    "lat": -24.5870875697085,
                    "lng": 27.4138999302915
                },
                "southwest": {
                    "lat": -24.5897855302915,
                    "lng": 27.4112019697085
                }
            }
        },
        "icon": "https://maps.gstatic.com/mapfiles/place_api/icons/generic_business-71.png",
        "id": "933e1562c2c1f30ae168c85da05d0fbeed2de571",
        "name": "Medical Centre",
        "place_id": "ChIJ92vVWn6xvh4RuEguaPvdSbQ",
        "reference": "CmRSAAAAm4aFesKJRJqeeYOIKSXVPe-Ukv3V7qzkeO_sYPITaziWRuAIQvdr2Y2KtucgK0R6RJe6Izpzi3Ni680pz-HMAB5lZSKmA_0j_I3ybaTRdJ3mzwAjEUKKJSAqkUhHlkFhEhBP7wvmv4O71Au7aKv_9QAlGhRBEdZXf9CrQu0ig6zKVNPVYmklOQ",
        "types": [
            "doctor",
            "health",
            "point_of_interest",
            "establishment"
        ]
    },
    "36": {
        "formatted_address": "39 Pretorius St, Mokopane, 0601, South Africa",
        "geometry": {
            "location": {
                "lat": -24.178251,
                "lng": 29.009708
            },
            "viewport": {
                "northeast": {
                    "lat": -24.1769898697085,
                    "lng": 29.01134723029149
                },
                "southwest": {
                    "lat": -24.1796878302915,
                    "lng": 29.0086492697085
                }
            }
        },
        "icon": "https://maps.gstatic.com/mapfiles/place_api/icons/generic_business-71.png",
        "id": "7a84f306395f7a6880849ab51e093356a20cf849",
        "name": "Phelang Medical Centre",
        "opening_hours": {
            "open_now": true,
            "weekday_text": []
        },
        "place_id": "ChIJ0W5KRy21wB4Rk4As4GlFgnw",
        "reference": "CmRRAAAA76PCtp8bv4plN32AYyugYqxNxNPGecZcQ1PPVY-cCRU2ENniN1xlFiLHUM1GI91NDrH1na6qLVLlMVn9mKzU06llI38CJU4brR93VZ70hG5kJyZrT8Ps33aEHAdCKpIDEhDv-enUZbZDFL2IV-s2nUOSGhTUtAzCP0GET4oIGdwlc1KnLJcbJQ",
        "types": [
            "doctor",
            "health",
            "point_of_interest",
            "establishment"
        ]
    },
    "37": {
        "formatted_address": "52 Hooge St, Mokopane, 0600, South Africa",
        "geometry": {
            "location": {
                "lat": -24.1822059,
                "lng": 29.015948
            },
            "viewport": {
                "northeast": {
                    "lat": -24.1808132697085,
                    "lng": 29.0171574302915
                },
                "southwest": {
                    "lat": -24.1835112302915,
                    "lng": 29.0144594697085
                }
            }
        },
        "icon": "https://maps.gstatic.com/mapfiles/place_api/icons/generic_business-71.png",
        "id": "4b9ccf2486c64b9d0ec9054de1336088b085f552",
        "name": "Doc-on-Call",
        "opening_hours": {
            "open_now": true,
            "weekday_text": []
        },
        "place_id": "ChIJx0H4RDG1wB4RNBue-WO7eCk",
        "rating": 5,
        "reference": "CmRRAAAAlUFoIElyANdt-6khzsv5QMTvfaHjy7WkjktcTObYDLO5E9Musd4t4G3DzZKSmaWH1o1J1DTDNHpPagn4Zn4ivYZHqMeY7iLMyr_HKqzD2M7Stz519y61FQbIyulxEgMyEhAFCKG1s6taJ_o5_hPpPxJnGhQwdH4XXT9aeGAwtTjQZzyYK56fsA",
        "types": [
            "doctor",
            "health",
            "point_of_interest",
            "establishment"
        ]
    },
    "38": {
        "formatted_address": "Northam, Thabazimbi, 0360, South Africa",
        "geometry": {
            "location": {
                "lat": -24.95,
                "lng": 27.266667
            },
            "viewport": {
                "northeast": {
                    "lat": -24.9486510197085,
                    "lng": 27.2680159802915
                },
                "southwest": {
                    "lat": -24.9513489802915,
                    "lng": 27.2653180197085
                }
            }
        },
        "icon": "https://maps.gstatic.com/mapfiles/place_api/icons/generic_business-71.png",
        "id": "c6da71aeaf852d0e464942d705791a2eb6a6c891",
        "name": "Northam Platinum Mine Clinic",
        "opening_hours": {
            "open_now": true,
            "weekday_text": []
        },
        "place_id": "ChIJ95HRO7Oevh4RwpcS05DzzEI",
        "rating": 1,
        "reference": "CmRRAAAArMylobyX7x0-TuczCauvHSCiDA_iJ2aUN5qcX_J4FPjrb5BlTaAb_wThy4k2aWqmCUYc3c9sZcp12S4OAU7w75Q72XFwzK6AXkturM5jBaDyH_3weyLm2FKoBXfUMv_kEhCEQO1lhmlw4nDV4-ikL5xvGhQwhcQ0Fhg9xqRrOQnOWWNQXbXojQ",
        "types": [
            "health",
            "point_of_interest",
            "establishment"
        ]
    },
    "39": {
        "formatted_address": "South Africa",
        "geometry": {
            "location": {
                "lat": -25.1503584,
                "lng": 28.4954249
            },
            "viewport": {
                "northeast": {
                    "lat": -25.1490094197085,
                    "lng": 28.4967738802915
                },
                "southwest": {
                    "lat": -25.1517073802915,
                    "lng": 28.4940759197085
                }
            }
        },
        "icon": "https://maps.gstatic.com/mapfiles/place_api/icons/generic_business-71.png",
        "id": "c16d7180c0478d45818d71818f9df06b049174b5",
        "name": "Phake Clinic",
        "place_id": "ChIJWUSL1VeFvx4RcceydgcyOfg",
        "reference": "CmRSAAAAn2_0qtlM9PNBmFQfqO4DU-nDHNngHS575mfXUEyi8DJlW4oTuI4SEklcqdn8RTG_-thmM8VtpZOIsglQMe2bWKX2NBG2qYAb8ejddUAw4QcP9w6NGRorfxVjCKY7l8piEhB5fDPIesMrDmNNZGcBLYu_GhQv3G9HVI67qRzIJ_XErepcUW3pUw",
        "types": [
            "health",
            "point_of_interest",
            "establishment"
        ]
    },
    "40": {
        "formatted_address": "72 Joe Slovo St, Modimolle, 0510, South Africa",
        "geometry": {
            "location": {
                "lat": -24.7045615,
                "lng": 28.4106171
            },
            "viewport": {
                "northeast": {
                    "lat": -24.7031588697085,
                    "lng": 28.4119160302915
                },
                "southwest": {
                    "lat": -24.70585683029151,
                    "lng": 28.4092180697085
                }
            }
        },
        "icon": "https://maps.gstatic.com/mapfiles/place_api/icons/generic_business-71.png",
        "id": "a330fa4442f512290a710a57280910701b084a32",
        "name": "Dr. M.S.C. Radipabe",
        "opening_hours": {
            "open_now": true,
            "weekday_text": []
        },
        "place_id": "ChIJ6TTlKmxpvx4RMcI6Q0BE-u0",
        "reference": "CmRSAAAApO-45g6vzZKW95PsWL24lKv8ePXFNcsjWHrBa_5y6MpQykgh9h7RaDXbiUWkGg4dDcJWmpdpWYCYghvcH19bNDsxickxf-jtuVZKRvuABCufj-q_6vTBtjFCeFSBDqNPEhCcPlp17PirPlwgbyt45d_OGhTxz6N6YdOWejPIvor6exGDot9laQ",
        "types": [
            "dentist",
            "health",
            "point_of_interest",
            "establishment"
        ]
    },
    "41": {
        "formatted_address": "120 Thabo Mbeki Dr, Mokopane, 0600, South Africa",
        "geometry": {
            "location": {
                "lat": -24.1903489,
                "lng": 29.010772
            },
            "viewport": {
                "northeast": {
                    "lat": -24.1889560197085,
                    "lng": 29.0119768802915
                },
                "southwest": {
                    "lat": -24.19165398029151,
                    "lng": 29.0092789197085
                }
            }
        },
        "icon": "https://maps.gstatic.com/mapfiles/place_api/icons/generic_business-71.png",
        "id": "c6de40da6777a3aa9d40ab140ac9fe8ef4f239ab",
        "name": "Dr. Vernon Els",
        "opening_hours": {
            "open_now": true,
            "weekday_text": []
        },
        "photos": [
            {
                "height": 4032,
                "html_attributions": [
                    "<a href=\"https://maps.google.com/maps/contrib/114575469560667185300/photos\">Lance Coetzee</a>"
                ],
                "photo_reference": "CmRaAAAA4hnlqJ5OEyXmR1ABvxfJ01Ebt5MXirO2C48hs4seWOMIDh0-kdKanv-1I3M00VdH1YzOmHEctIw3imAuJ6AVpHAFgPZPUmlsuOeZxONLkV1jV-X0j-UcuMoj1xNHqTeQEhCAL8SMwCEtYFzZrNRJ7n-vGhRiJByrjXFo-4OLPkHh1wLe7virAQ",
                "width": 3024
            }
        ],
        "place_id": "ChIJ9YjIKiW1wB4RwgLTdh1qdcI",
        "rating": 4.5,
        "reference": "CmRSAAAAVILcDN1Sbnx7Sx6quox3INI-BC1zZLneAJpXiyIYUPkhoUyqbIggPTPVMUB66xnRxN8AYWceuw4yY6TisjUk57PKNiG2RtIlnteUPhnWhKJyiSZIS6fFtbV1SekRaReOEhDJwGdc2tno6O0UFjk9vSHdGhSycP3Ld0V1_dLWBSY5xQVGw6aXUA",
        "types": [
            "doctor",
            "local_government_office",
            "health",
            "point_of_interest",
            "establishment"
        ]
    },
    "42": {
        "formatted_address": "1 Jan Lees Botha Ln, Lephalale, 0555, South Africa",
        "geometry": {
            "location": {
                "lat": -23.3348695,
                "lng": 28.0101586
            },
            "viewport": {
                "northeast": {
                    "lat": -23.3335205197085,
                    "lng": 28.0115075802915
                },
                "southwest": {
                    "lat": -23.3362184802915,
                    "lng": 28.0088096197085
                }
            }
        },
        "icon": "https://maps.gstatic.com/mapfiles/place_api/icons/doctor-71.png",
        "id": "6dff20ea379e4b11e501085e1efc317625d2d9b2",
        "name": "Witpoort Hospital",
        "photos": [
            {
                "height": 1152,
                "html_attributions": [
                    "<a href=\"https://maps.google.com/maps/contrib/109545579599954988234/photos\">enika lumona</a>"
                ],
                "photo_reference": "CmRaAAAAByu5q_TnXViK0fzo9CU9Ulf8i-6Wrbg-e-T8d3RoVfdfaaWakefY6nLr6qzC8BSw1ihjiwnkj-qDxuvVygtMfQpItE6uDiqEwqnZmzPsnm26MmpOCYXV2S3tOkZO6_v_EhAgQ8Z4OtLjKpQ0myTpPsRyGhQMc08vx03531mToDFu2k2OmTeFcQ",
                "width": 2048
            }
        ],
        "place_id": "ChIJj42HNJyouR4RH8VgDx1qtxY",
        "rating": 4,
        "reference": "CmRRAAAABfT9mhpijwqBgvcleClcSAzQhDKtF7eu2p-8s4kr82fdiv6wCJKYE4_zHKb-yRkfJX7I9TXHlnxV0xYTF-admp5dQzL5a2xVwLP-cAuGaY-lgoNrmyKWylGsO7sXKAa-EhCGFelePX78rr7PbAtUB6gyGhRnQ8_XUtOPABPnj_R4yMiFym1VhA",
        "types": [
            "hospital",
            "point_of_interest",
            "establishment"
        ]
    },
    "43": {
        "formatted_address": "Alwyn Street & Chris Hani Ave, Lephalale, 0555, South Africa",
        "geometry": {
            "location": {
                "lat": -23.6780972,
                "lng": 27.7011137
            },
            "viewport": {
                "northeast": {
                    "lat": -23.6767482197085,
                    "lng": 27.70246268029151
                },
                "southwest": {
                    "lat": -23.6794461802915,
                    "lng": 27.6997647197085
                }
            }
        },
        "icon": "https://maps.gstatic.com/mapfiles/place_api/icons/doctor-71.png",
        "id": "65edb1f08a3ab6ed191b446d72370758275f9d46",
        "name": "Ellisras Hospital",
        "opening_hours": {
            "open_now": true,
            "weekday_text": []
        },
        "place_id": "ChIJbXZj9GemuR4REDuakTm67cM",
        "rating": 2,
        "reference": "CmRSAAAA9n6sxgXA2s0-pnWd2ceXGe8x_LtJOzHJDOmPn0D9OPNldgZgJXao5IbCJ6zGYxVfALyzWcZQpjFij7utQ1Ke1ca16cdwzEex-KbMC7NUaSKqFRLbClTcuWHqNVtCNTTqEhCunVHPLAaMymUGXhE9PhChGhRTcjFeSpwzJEhtR3XKxmDypEw0jA",
        "types": [
            "hospital",
            "point_of_interest",
            "establishment"
        ]
    },
    "44": {
        "formatted_address": "Berg St, Modimolle, 0510, South Africa",
        "geometry": {
            "location": {
                "lat": -24.7014658,
                "lng": 28.4220459
            },
            "viewport": {
                "northeast": {
                    "lat": -24.70001761970849,
                    "lng": 28.4235214802915
                },
                "southwest": {
                    "lat": -24.7027155802915,
                    "lng": 28.4208235197085
                }
            }
        },
        "icon": "https://maps.gstatic.com/mapfiles/place_api/icons/doctor-71.png",
        "id": "30d7302058c52f632a52826d8c22c84263b575fb",
        "name": "F H Odendaal Hospital.",
        "place_id": "ChIJGRV6twxpvx4RWYDTZKVp7lA",
        "rating": 2.8,
        "reference": "CmRRAAAAYwPgPtE5gA_9HG0i_Q06WivbZmEhoVnRe_Qbt5bnuPvhZ4G__TkUIyHxdJLHBMIkvRNvzs0a2PxHBWGsZv0-jb1piwB7JFwTUtrpMiX1zDQezDHRvMxdCtr02NSDksAFEhB9ehjTFVorl74BykAQ_2HiGhTM6wnCQBoPZ9MeAgp6kkuHxQ0IWQ",
        "types": [
            "hospital",
            "point_of_interest",
            "establishment"
        ]
    },
    "45": {
        "formatted_address": "1 Jan Lees Botha Ln, Lephalale, 0555, South Africa",
        "geometry": {
            "location": {
                "lat": -23.3348695,
                "lng": 28.0101586
            },
            "viewport": {
                "northeast": {
                    "lat": -23.3335205197085,
                    "lng": 28.0115075802915
                },
                "southwest": {
                    "lat": -23.3362184802915,
                    "lng": 28.0088096197085
                }
            }
        },
        "icon": "https://maps.gstatic.com/mapfiles/place_api/icons/doctor-71.png",
        "id": "6dff20ea379e4b11e501085e1efc317625d2d9b2",
        "name": "Witpoort Hospital",
        "photos": [
            {
                "height": 1152,
                "html_attributions": [
                    "<a href=\"https://maps.google.com/maps/contrib/109545579599954988234/photos\">enika lumona</a>"
                ],
                "photo_reference": "CmRaAAAANy_egTztdFeaU3_WPLnjZqHX6cdBm6LrN_4ZhtB5qYKgoqJd-mxjQ9uTpb3eaT0-xTfQyH0wBpOFHXQU6fGUA4H_nIkqzJuFa0ay3dBE7VwAjHo3AZNoOTc_PISqcgSIEhAn1RXdBAcXSeAdl7kc6QqgGhTVkUlBunq2CP23AhFnY9ASgs2uiQ",
                "width": 2048
            }
        ],
        "place_id": "ChIJj42HNJyouR4RH8VgDx1qtxY",
        "rating": 4,
        "reference": "CmRRAAAACRF7F0kS9vtw3nKo84gCZMhpYz3wIOUx-5ySL5x1TuqGqF0_MWlA_oyqFfsXLVIR-Dx1x_3wd1idDsAUvfYfYTfxfTdY3GyPw4M7F33Q40D2j4QE94byYCVjSVMXormnEhBKvQVahRsUslSE-L7RO4aSGhSAwYf6v8gsL-J5srPn5Ryo9Jt0nA",
        "types": [
            "hospital",
            "point_of_interest",
            "establishment"
        ]
    },
    "46": {
        "formatted_address": "South Africa",
        "geometry": {
            "location": {
                "lat": -23.8757331,
                "lng": 28.6947119
            },
            "viewport": {
                "northeast": {
                    "lat": -23.8743841197085,
                    "lng": 28.6960608802915
                },
                "southwest": {
                    "lat": -23.8770820802915,
                    "lng": 28.6933629197085
                }
            }
        },
        "icon": "https://maps.gstatic.com/mapfiles/place_api/icons/doctor-71.png",
        "id": "382ccf8af33f8743703af9d4d262fcfb10c8b630",
        "name": "George Masebe Hospital",
        "opening_hours": {
            "open_now": true,
            "weekday_text": []
        },
        "place_id": "ChIJ_1B2GRVgxx4RnMFtdEovhW0",
        "rating": 1.8,
        "reference": "CmRRAAAATqXIhY8jf5VZYitfU--ubiv6F8yVAAiAv7NnAdLSSlqYHO-Tws9gX2HrkH1QSKPbVHdy8teKEdwoWO10Zv5P2blIUcngUSXNGd2N8_q3eYq_HtWPFYZ5uyAhfo2ugmhDEhDZONKSc6uai0rXDBTTbNfaGhRCs6verLUc_PHtA6frVCCDAzswfg",
        "types": [
            "hospital",
            "point_of_interest",
            "establishment"
        ]
    },
    "47": {
        "formatted_address": "30 Quagga Rd, Bela-Bela, 0480, South Africa",
        "geometry": {
            "location": {
                "lat": -24.8808985,
                "lng": 28.2800639
            },
            "viewport": {
                "northeast": {
                    "lat": -24.8801937197085,
                    "lng": 28.2809037302915
                },
                "southwest": {
                    "lat": -24.8828916802915,
                    "lng": 28.2782057697085
                }
            }
        },
        "icon": "https://maps.gstatic.com/mapfiles/place_api/icons/doctor-71.png",
        "id": "b700b0047bc9d480845ba0860f110c2dde7b9fd1",
        "name": "Saint Vincent's Hospital",
        "place_id": "ChIJRwOJjSMNvx4RXvuY43Err4c",
        "rating": 5,
        "reference": "CmRSAAAA-Wmrcj0ir9GMfzBGAK4xLzjSAF3Nq_k4jxWt9s_QN3LcDPI57C66pdG7VJz_lvq2v8V5RaPpPestYiDcsydftKfPcFPrJr_3TvKey-XYoXu7lD2331a8RmCgZNvp-1syEhByaNPLigenSEoNN1fTvUiPGhQc3njhKQchMdgX9F8zPZAffHiVWQ",
        "types": [
            "hospital",
            "point_of_interest",
            "establishment"
        ]
    },
    "48": {
        "formatted_address": "Lood Dr, Thabazimbi, 0387, South Africa",
        "geometry": {
            "location": {
                "lat": -24.595747,
                "lng": 27.390735
            },
            "viewport": {
                "northeast": {
                    "lat": -24.5943799697085,
                    "lng": 27.3921123802915
                },
                "southwest": {
                    "lat": -24.5970779302915,
                    "lng": 27.38941441970849
                }
            }
        },
        "icon": "https://maps.gstatic.com/mapfiles/place_api/icons/doctor-71.png",
        "id": "095444d0905f9bff59b21b4e968e335583b73452",
        "name": "Thabazimbi public Hospital",
        "place_id": "ChIJd8gZ_Iuxvh4RqIYImM4nRRE",
        "reference": "CmRRAAAAv4f3dPGCt-hkpGRARrl-pVsRmCryGzhNbVJUm0ytJbqxQwHxavloLhYpDyCuTU6IHeCS37UhvKaKWn-q6YSldVx2pEpkCEBk4TnrP_y_rBssiuBv-1vZ50TyOF17WYWPEhCswxlx2XpOFcTAA8_LuhxJGhRQE7vxtyYzhsk0OFQZhEe-rd-MDA",
        "types": [
            "hospital",
            "point_of_interest",
            "establishment"
        ]
    },
    "49": {
        "formatted_address": "Dudu Madisha Dr, Mokopane, 0601, South Africa",
        "geometry": {
            "location": {
                "lat": -24.1667494,
                "lng": 28.995143
            },
            "viewport": {
                "northeast": {
                    "lat": -24.1653978197085,
                    "lng": 28.9964953802915
                },
                "southwest": {
                    "lat": -24.1680957802915,
                    "lng": 28.9937974197085
                }
            }
        },
        "icon": "https://maps.gstatic.com/mapfiles/place_api/icons/doctor-71.png",
        "id": "522775057b3672d269f239beae186fc841dcf3d8",
        "name": "Mokopane Hospital Dispensary",
        "place_id": "ChIJP-r1XyZLxx4RUDF8X1GfevU",
        "reference": "CmRSAAAA3RqGmpzqbbszry31956lUrs_nH1Sc-zszPSQN7Wb9YHfghEZJbXdZ_bAC5ZnwOMpAOJgSCsZoWp66Z19KlLWMxGJ2E6DjjRgq8t7bRxYtTSRQWHPdAzaflNojehiO23sEhBuQpdlnpmkYSqCX3GPVAuYGhTz8DG5QEWgnfF9TJ_3DKlg9PWdjA",
        "types": [
            "hospital",
            "point_of_interest",
            "establishment"
        ]
    },
    "50": {
        "formatted_address": "2 Geyser St, Trim Park, Mokopane, South Africa",
        "geometry": {
            "location": {
                "lat": -24.1960763,
                "lng": 29.0146673
            },
            "viewport": {
                "northeast": {
                    "lat": -24.1946277197085,
                    "lng": 29.0160532802915
                },
                "southwest": {
                    "lat": -24.1973256802915,
                    "lng": 29.0133553197085
                }
            }
        },
        "icon": "https://maps.gstatic.com/mapfiles/place_api/icons/doctor-71.png",
        "id": "e0fe93eed1012d3f000fbb8c269cb58a0bd7efdb",
        "name": "Voortrekker Hospital",
        "place_id": "ChIJwd7HpD21wB4RuAjpy8Yhc5c",
        "reference": "CmRSAAAANWF0hjHt7mhNj7oIK3MUZEKH14e6uNInMLnPAu4wf3uynQMUVwn1YCtNk8l4PriWCWiwB1n22IjpiSa3w9GPCgrENP0akpALAp94s1MxBtCxDQ8YeAifZUCI4V3n9GQsEhBOTgtjvc7sUt-jOTLikqbAGhThdwWqMZrFp8pqRlyycyxOYj78hQ",
        "types": [
            "hospital",
            "point_of_interest",
            "establishment"
        ]
    },
    "51": {
        "formatted_address": "269 Dudu Madisha Dr, Mahwelereng-A, Mokopane, 0626, South Africa",
        "geometry": {
            "location": {
                "lat": -24.1537973,
                "lng": 28.9885963
            },
            "viewport": {
                "northeast": {
                    "lat": -24.15244831970849,
                    "lng": 28.9899452802915
                },
                "southwest": {
                    "lat": -24.1551462802915,
                    "lng": 28.9872473197085
                }
            }
        },
        "icon": "https://maps.gstatic.com/mapfiles/place_api/icons/doctor-71.png",
        "id": "c8a678b98ef063b6dd3a6ed03bd6d6df681c5954",
        "name": "Mokopane Hospital",
        "photos": [
            {
                "height": 1836,
                "html_attributions": [
                    "<a href=\"https://maps.google.com/maps/contrib/103563608921408936061/photos\">Basilhubert Khosa</a>"
                ],
                "photo_reference": "CmRaAAAAWjkQs-JzYAZUQuH9dk58_58kMS96CePTxkZdKKYJYjpSlzcaQzmSahMVH2QFC-unJcr1SJQHV0xI4kJqSAbmo409TIcdqeB8VchDiRWggmCYkgKP-5dt_dfY4IA8Nl2bEhDzafvLcrgTw0EtWopj5NKkGhRNmmk3qPG-PZUJFktYkQE9lrGCBw",
                "width": 3264
            }
        ],
        "place_id": "ChIJ4WV6rdJKxx4Rg9fGG9N79DU",
        "rating": 3.4,
        "reference": "CmRRAAAACWWb9aBFQN6KukvaLJJ9jxLBn2T9f9oOOACqo6GybPkH8Kdfb_EKOIS7f1RRPA4rpUvU8S7dt5K4E6eHmogOT6KWuI-szs6qxtR-LAogZqMi2HhitHfMYoSCQCJQaCc7EhD-21hofIztdpN9l88wwaYvGhRLNTk8FsnZVSqhtLjGYCotcoYITA",
        "types": [
            "hospital",
            "point_of_interest",
            "establishment"
        ]
    },
    "52": {
        "formatted_address": "175 Mosethla St, Marapong, Lephalale, 0556, South Africa",
        "geometry": {
            "location": {
                "lat": -23.6567686,
                "lng": 27.6170945
            },
            "viewport": {
                "northeast": {
                    "lat": -23.65528716970849,
                    "lng": 27.6188212802915
                },
                "southwest": {
                    "lat": -23.6579851302915,
                    "lng": 27.6161233197085
                }
            }
        },
        "icon": "https://maps.gstatic.com/mapfiles/place_api/icons/doctor-71.png",
        "id": "ce766315a2c5dfca88b36ccb61854d7173b9f8ca",
        "name": "Lephalale Medical Center",
        "photos": [
            {
                "height": 1836,
                "html_attributions": [
                    "<a href=\"https://maps.google.com/maps/contrib/117919506437304265280/photos\">Machipi Joas Mathekga</a>"
                ],
                "photo_reference": "CmRaAAAADkOcJJiqHby4mz8G7B9wXil2OiMWI7Y2xd84aLXc2uZ_46zm2BdLjFz9iJFV-by4BAHtRFmd7Sos-nRY1FOQVU0nhw1RvMBw26zKYjh-YxP6sOT1t9ZRi0XOB1SV6BSxEhDQkKnbhw-tU8FcjMStjd7IGhTEafuiDvgtHt75ktiY7pM3yAm5Yg",
                "width": 3264
            }
        ],
        "place_id": "ChIJN7XXLMKjuR4RXiZgB9zl0JI",
        "rating": 3,
        "reference": "CmRSAAAAYZePUvJKFXutudwU8yOIjIz19KB5Lyj6MXc-XuM6BTyXZAZM1dK0TEE3h-Uv-Xuz_XeeLaikIxlH8iTB-HPtpgE9LOA-FqcBZ0u6NaC0eOpfJXTxFtllh3SUwdFUrapKEhDEgjvA9ozUbTSFgsXzS-aPGhSIUYd2_jPJ-kFWcD153rkuyxbI3A",
        "types": [
            "hospital",
            "point_of_interest",
            "establishment"
        ]
    },
    "53": {
        "formatted_address": "Cnr Douwater & Joe Slovo Str, Onverwacht, Lephalale, 0557, South Africa",
        "geometry": {
            "location": {
                "lat": -23.6865851,
                "lng": 27.6984928
            },
            "viewport": {
                "northeast": {
                    "lat": -23.6852361197085,
                    "lng": 27.6998417802915
                },
                "southwest": {
                    "lat": -23.6879340802915,
                    "lng": 27.6971438197085
                }
            }
        },
        "icon": "https://maps.gstatic.com/mapfiles/place_api/icons/doctor-71.png",
        "id": "4281d411b9555b541fd9bd86bc53108bd15bb366",
        "name": "Mediclinic Lephalale",
        "opening_hours": {
            "open_now": true,
            "weekday_text": []
        },
        "photos": [
            {
                "height": 2988,
                "html_attributions": [
                    "<a href=\"https://maps.google.com/maps/contrib/115088816941137414029/photos\">Grov\u00e9 Erasmus</a>"
                ],
                "photo_reference": "CmRaAAAAZ5GMlOg0gM-OrJnufK1TQvbv5edDdc__Y9LPnxh3PHa4QTlBVQs0fp4qfjbVsyuL7g2GnKQxmR4Z4W6nn4LuWcerZgxkMbl7zhu7190_AJ3bCvumnertFkjkXiaUdfqiEhAa4Roh8QoWlH8kRyOMGH2-GhQkHz7LhYkoVmRSbrZAycurXWVZsw",
                "width": 5312
            }
        ],
        "place_id": "ChIJTSaxa_OmuR4Rrcm4wmYzzxU",
        "rating": 4.6,
        "reference": "CmRRAAAACkvFidOcbip5E5yul3NFQlgYFS42qnv4p_yJAeC1hBZuqBvzdSC85x43IIpfr7hlwZdDGE2Ch0CY1roIGbgMLdT8czz9A5zVXj-_MWrUJg2odUowLM2GtIeOAl7XvkXBEhACyI-IY-tZ9Z461AevAngrGhQhUVwXGViEjWPsJiOj9vOdJa_irg",
        "types": [
            "hospital",
            "point_of_interest",
            "establishment"
        ]
    },
    "54": {
        "formatted_address": "Pankop Road, Hammanskraal, 0432, South Africa",
        "geometry": {
            "location": {
                "lat": -25.1050896,
                "lng": 28.5578409
            },
            "viewport": {
                "northeast": {
                    "lat": -25.1040030197085,
                    "lng": 28.5589028302915
                },
                "southwest": {
                    "lat": -25.1067009802915,
                    "lng": 28.5562048697085
                }
            }
        },
        "icon": "https://maps.gstatic.com/mapfiles/place_api/icons/doctor-71.png",
        "id": "72c9aadb99e4160418f7a39712a27a833b3b3615",
        "name": "Mmamethlake Hospital",
        "photos": [
            {
                "height": 2560,
                "html_attributions": [
                    "<a href=\"https://maps.google.com/maps/contrib/107397166467228414670/photos\">Shepherd Modise Shepherd Modise</a>"
                ],
                "photo_reference": "CmRaAAAAqic8YfC4P4ehZ5bh0cKbrwc7VUtDuIjqDqerWmgsBiNwyr-rJBF-irtS4s21MQZb0mSQDFPoYHmh5O3hzrtAQ_PxGMCHHN_f-wua5RBiZZaJVbGCfXwoZidRRFBtbcE-EhB64iJd0sDgxm74w3_xr9YmGhRElik6riC9wcOV9lj6D2Kcw_5vjw",
                "width": 1536
            }
        ],
        "place_id": "ChIJ9R4a48eFvx4RDUnAibNCruY",
        "rating": 3.3,
        "reference": "CmRSAAAAeslEVA5LUhff8m4tIuCa0zCVwUP6f7K1RnlQHlCoEs9g05LwGst3lnJ5Vch8YOutpRtzuBrnzD49SGOKLCI8cwZ8Y3bycKXGX9NsnLP6i1xfo2TWot2IGzGh_hojMHNiEhD9K9Myx5v8XrYMerJXmWc1GhQtBWArscry_lOPQkiNHDW3k_SiWA",
        "types": [
            "hospital",
            "point_of_interest",
            "establishment"
        ]
    },
    "55": {
        "formatted_address": "1 Hospital Street, Thabazimbi, 0387, South Africa",
        "geometry": {
            "location": {
                "lat": -24.5988305,
                "lng": 27.40718249999999
            },
            "viewport": {
                "northeast": {
                    "lat": -24.5974815197085,
                    "lng": 27.4085314802915
                },
                "southwest": {
                    "lat": -24.6001794802915,
                    "lng": 27.40583351970849
                }
            }
        },
        "icon": "https://maps.gstatic.com/mapfiles/place_api/icons/doctor-71.png",
        "id": "26984588e8381e2511e258c9f111343e16107016",
        "name": "Curamed Thabazimbi Hospital",
        "place_id": "ChIJ2YOk0oKxvh4RVAqJZouNGaQ",
        "reference": "CmRSAAAAszAo7PjBFbLTUt4R8NLDyQcH2--p7WV5jlLL9yLm-Gj4Ca-yMVlPyfa0-JE7B31ZQ6cyrochwHdcnB5dazOa2knzUqGhzjxRPB58eSyfT3t6dIzSn3NbtGcHozmxQ3CYEhAFK9Nce1bmlvSO5CdqDXgeGhRQEt-5ByUGytks7BS6j-HSES_9vQ",
        "types": [
            "hospital",
            "point_of_interest",
            "establishment"
        ]
    },
    "56": {
        "formatted_address": "Swartklip, 0370, South Africa",
        "geometry": {
            "location": {
                "lat": -24.938235,
                "lng": 27.154746
            },
            "viewport": {
                "northeast": {
                    "lat": -24.9368860197085,
                    "lng": 27.1560949802915
                },
                "southwest": {
                    "lat": -24.9395839802915,
                    "lng": 27.1533970197085
                }
            }
        },
        "icon": "https://maps.gstatic.com/mapfiles/place_api/icons/doctor-71.png",
        "id": "b10d6ce06c3c039406526e0b107658731cf5ceb3",
        "name": "Platinum Health Hospital",
        "place_id": "ChIJ0QgNRmEgvB4RPL8nT0-FM98",
        "reference": "CmRSAAAAPDRuNJcob4Fwx_18rILGqK9URrxiGRgBINqnbsA4TDcR1Hk5erjCq9RW4A8dI0Xizd9wPFm6CoWQP1bPqUSOGNNvzxmeQUdts27clofByhKVf_stU71CmazPdFJ-IW6ZEhDo4gyuVIc_-qNbwDxI-Vc6GhRTzokuMytB7pIU5pQJn6OK6V3azw",
        "types": [
            "hospital",
            "point_of_interest",
            "establishment"
        ]
    },
    "57": {
        "formatted_address": "57 Voortrekker Rd, Bela-Bela, 0480, South Africa",
        "geometry": {
            "location": {
                "lat": -24.8859906,
                "lng": 28.2891874
            },
            "viewport": {
                "northeast": {
                    "lat": -24.8843400697085,
                    "lng": 28.29050558029151
                },
                "southwest": {
                    "lat": -24.8870380302915,
                    "lng": 28.2878076197085
                }
            }
        },
        "icon": "https://maps.gstatic.com/mapfiles/place_api/icons/doctor-71.png",
        "id": "77c9a553c7103bc019cada5d2dbfd8d3050bb280",
        "name": "Bela Bela Provincial Hospital",
        "opening_hours": {
            "open_now": true,
            "weekday_text": []
        },
        "place_id": "ChIJnzi0kigNvx4RWpDcQzHcTuM",
        "rating": 2,
        "reference": "CmRSAAAARbNyyWAF9E_Bb-T03eUzLAE29O_HCIInnWJhj6aBsv8yFnud0Q8f4Ohypa5kRxOn3Y2DPEi45sjyfBVWc-QCCblrnq8B-ju6ogVuxPG2vJOAfVg4lqqSEB9PginsOOZHEhAUCuuG_J-emjVoN5H4sJR_GhQkKf96CQhshf0_jJy8xQWhHmBqlA",
        "types": [
            "hospital",
            "point_of_interest",
            "establishment"
        ]
    },
    "58": {
        "formatted_address": "Khutso St, Mahwelereng-A, Mokopane, 0626, South Africa",
        "geometry": {
            "location": {
                "lat": -24.1501586,
                "lng": 28.9896326
            },
            "viewport": {
                "northeast": {
                    "lat": -24.1488382197085,
                    "lng": 28.99097198029149
                },
                "southwest": {
                    "lat": -24.1515361802915,
                    "lng": 28.98827401970849
                }
            }
        },
        "icon": "https://maps.gstatic.com/mapfiles/place_api/icons/doctor-71.png",
        "id": "f5dd74eb72efd4d01d891e35c8efb8084c7c2d98",
        "name": "Unit c mahwelereng, hospital view",
        "place_id": "ChIJO0UpwhpLxx4RxLM-iuOD6tw",
        "reference": "CmRSAAAA0Die65Ox8jcI04mLlqLYei8BKUmO0gafLTdc4B5Yoq3_DqpkbrRzzEBWUcMu42nVjtBsSP-I-6q6uAGG7EpMTF2de4dIHzeoIBKokIjhVHF9vBht1GkrDaSGrv6q3bScEhB_rXd1Jfjn1hVi-acd_c4jGhTPDITu48M5LZAKz6Bi0pcNbqSsSg",
        "types": [
            "hospital",
            "point_of_interest",
            "establishment"
        ]
    },
    "59": {
        "formatted_address": "54 Thabo Mbeki Drive, Modimolle, 0510, South Africa",
        "geometry": {
            "location": {
                "lat": -24.7079338,
                "lng": 28.3948044
            },
            "viewport": {
                "northeast": {
                    "lat": -24.7065848197085,
                    "lng": 28.3961533802915
                },
                "southwest": {
                    "lat": -24.7092827802915,
                    "lng": 28.3934554197085
                }
            }
        },
        "icon": "https://maps.gstatic.com/mapfiles/place_api/icons/doctor-71.png",
        "id": "0b709bbc7254f5ca31eb69de7e8991f75d4d747f",
        "name": "FH Odendaal MDR Hospital",
        "place_id": "ChIJ3QIx8XBpvx4RDSRDMHjjIog",
        "reference": "CmRSAAAAS30-qKNYX_kck-TfAElkPxyBBbAmMX8zlbiKnlabQAvxLNpDXI3NmqdEvhC6O4nXtnpKVTLyxfY7AY7T31vHV-gwkXGEH3jXKbFxKQL1FIoHJSs1F7_wfhIrNT7LURD1EhDHW8lXVNUqqzepgJ4U2HMjGhSqRBridmvRfIu2QAiVEJAZCNooYQ",
        "types": [
            "hospital",
            "point_of_interest",
            "establishment"
        ]
    },
    "60": {
        "formatted_address": "Thabazimbi, 0387, South Africa",
        "geometry": {
            "location": {
                "lat": -24.5895031,
                "lng": 27.3944578
            },
            "viewport": {
                "northeast": {
                    "lat": -24.58815411970849,
                    "lng": 27.3958067802915
                },
                "southwest": {
                    "lat": -24.5908520802915,
                    "lng": 27.3931088197085
                }
            }
        },
        "icon": "https://maps.gstatic.com/mapfiles/place_api/icons/doctor-71.png",
        "id": "ba90069d86976db9aa4c44b32132c9f7c471e040",
        "name": "Thabazimbi Hospital Mortuary",
        "place_id": "ChIJhZlHhCeyvh4RDg2Uni7KSMI",
        "reference": "CmRSAAAA5bL8PxrnNaB7_LZzHgnsiLCyBP-BhlnVJwvzlzUgMim10AbFgcmc4EnHumW3sq7WGR71N4quHHzhTXQKOc7n6MkUCieWp_hqRxKkpXhAxr26ZINr0k2l0OS7OXggkHfuEhBvLjLtZ-9lX3p6X9IWC4yqGhT_6ugQPGhdQQJSOY1v7ngrL6XGGw",
        "types": [
            "hospital",
            "point_of_interest",
            "establishment"
        ]
    },
    "61": {
        "formatted_address": "40 Flint Mazibuko St, Tembisa, 0040, South Africa",
        "geometry": {
            "location": {
                "lat": -24.883944,
                "lng": 28.3152
            },
            "viewport": {
                "northeast": {
                    "lat": -24.8825950197085,
                    "lng": 28.3165489802915
                },
                "southwest": {
                    "lat": -24.8852929802915,
                    "lng": 28.31385101970849
                }
            }
        },
        "icon": "https://maps.gstatic.com/mapfiles/place_api/icons/doctor-71.png",
        "id": "7776bab7b3eccdef0ed461efe3c76ec2880006a1",
        "name": "Tembisa Zoo Hospital",
        "place_id": "ChIJ7fBinthyvx4Rr_JU-U-oGBc",
        "reference": "CmRRAAAAnlEibwYzhiFVcdBLJpQpB4C8F1Qq2K4ZY6mfF5ff8dIZvwJC1O2-4QCohcnMe3iEfgBwk6yYZIzc8bkU_2gjmmPRxUqyTz1mjWfH_B-WBkJe6wgmCqH2TNQXS6PjXBwJEhAGHS4aqX9k-pxsBAJIiBfgGhSzWS7BnocLjz2aNksn4YS9FViBew",
        "types": [
            "hospital",
            "point_of_interest",
            "establishment"
        ]
    },
    "62": {
        "formatted_address": "58 Ad Diederick St, Modimolle, 0510, South Africa",
        "geometry": {
            "location": {
                "lat": -24.7012106,
                "lng": 28.4212624
            },
            "viewport": {
                "northeast": {
                    "lat": -24.6995992197085,
                    "lng": 28.4219373
                },
                "southwest": {
                    "lat": -24.7022971802915,
                    "lng": 28.4192377
                }
            }
        },
        "icon": "https://maps.gstatic.com/mapfiles/place_api/icons/doctor-71.png",
        "id": "383d51d6e008f9dab6883faa6e806ea3cb9fafc7",
        "name": "Nhls Modimolle",
        "place_id": "ChIJP9iDPBJpvx4RVAWBdtv0Ex0",
        "reference": "CmRRAAAAsoXI2YLBlxO6u3Zax9-GjRPuDOAD8_vkMEAthlaZFWbvLoVTiCACgau70gaEUmnVY52GLxEXxDopu5tleTIpPXtGTJ63nu6mqc6Ih-iMHfM24LIiV1ospsAO59cxRibHEhA2b15l0z2JbqdFLIKTuX4_GhQoM9I-ExM7TdC7dWrFN85pgpzYpw",
        "types": [
            "hospital",
            "point_of_interest",
            "establishment"
        ]
    },
    "63": {
        "formatted_address": "Cullinan, South Africa",
        "geometry": {
            "location": {
                "lat": -25.3717547,
                "lng": 28.3022005
            },
            "viewport": {
                "northeast": {
                    "lat": -25.3704057197085,
                    "lng": 28.3035494802915
                },
                "southwest": {
                    "lat": -25.37310368029151,
                    "lng": 28.30085151970849
                }
            }
        },
        "icon": "https://maps.gstatic.com/mapfiles/place_api/icons/doctor-71.png",
        "id": "51c19d94322f1bad29ae80ac4a27fa642e8f42cb",
        "name": "Kekana Gardens Clinic",
        "place_id": "ChIJNzevqanqvx4RCQCIvfRqnT0",
        "rating": 5,
        "reference": "CmRRAAAAdlDFjsYulYcxdO_7CSECHC5qgIjI4X24IWuUvhtRrvVaXl18eoObIE2xO37La_EcG247eTQCa8KfQgEI3HfGpRSYu-tUa_kEUquH2zZ2N8ho6ICOgsl3I_1XQyK9QX_9EhDq4_41mons4q9cJ6lxrRo1GhQ8Czxuu8B36Q1Eq_yckbCMy9v7fA",
        "types": [
            "hospital",
            "point_of_interest",
            "establishment"
        ]
    },
    "64": {
        "formatted_address": "Temba Rural, Temba, 0407, South Africa",
        "geometry": {
            "location": {
                "lat": -25.4023242,
                "lng": 28.2650875
            },
            "viewport": {
                "northeast": {
                    "lat": -25.4009752197085,
                    "lng": 28.2664364802915
                },
                "southwest": {
                    "lat": -25.4036731802915,
                    "lng": 28.2637385197085
                }
            }
        },
        "icon": "https://maps.gstatic.com/mapfiles/place_api/icons/doctor-71.png",
        "id": "7e85a1157ac6eb8d448563e66c389fa16cdc9020",
        "name": "Jubilee District Hospital",
        "opening_hours": {
            "open_now": true,
            "weekday_text": []
        },
        "place_id": "ChIJ57ZoKkXAvx4RvxU02VO3moM",
        "rating": 3.5,
        "reference": "CmRSAAAAeHjZTd-KZAEXwBYmCySCalRzo5dX9k-FG3Z1jM42kTyE15zAEhnjkQsWDMSDj_6PXKcvMbQhPv2Q5xFNryGLTga_umSrVu0_Q_7Cgzz8VRTsWD47d0iL0Z4MMxgaqMMrEhCuRaRUnzlJzQA0HzlPrmZwGhSXgxmu_YAwpvtRafNurHVGlA_RgQ",
        "types": [
            "hospital",
            "point_of_interest",
            "establishment"
        ]
    },
    "65": {
        "formatted_address": "Mathibela, 0737, South Africa",
        "geometry": {
            "location": {
                "lat": -24.31085019999999,
                "lng": 29.3375121
            },
            "viewport": {
                "northeast": {
                    "lat": -24.3096196197085,
                    "lng": 29.3388157802915
                },
                "southwest": {
                    "lat": -24.3123175802915,
                    "lng": 29.3361178197085
                }
            }
        },
        "icon": "https://maps.gstatic.com/mapfiles/place_api/icons/doctor-71.png",
        "id": "4ba53956a84200d2aef4c652fcbd4c4589f3d9be",
        "name": "Dr MMM Hospital",
        "place_id": "ChIJA_VLzpHZwB4RDtsqfbjtE5A",
        "reference": "CmRSAAAAP8LpvF1JHcySeOVCfus8LWQBYdLHTiGwOUfYwUblJON_8IQM_r2lRyuu0ZebMD6IXg490kIYw5IvC_tV877btZB6ejdq74EQjUW_7CmAKmuk7w2nj893RhLfgawKuWWEEhBOWl8wuWyeb0JfGen_BAjbGhQZ2CwIpb6Zr-DrOz8GAedaqkIBuA",
        "types": [
            "hospital",
            "point_of_interest",
            "establishment"
        ]
    },
    "66": {
        "formatted_address": "Ga-Mmabasotho, 0710, South Africa",
        "geometry": {
            "location": {
                "lat": -23.60709,
                "lng": 29.15268
            },
            "viewport": {
                "northeast": {
                    "lat": -23.6057410197085,
                    "lng": 29.1540289802915
                },
                "southwest": {
                    "lat": -23.6084389802915,
                    "lng": 29.1513310197085
                }
            }
        },
        "icon": "https://maps.gstatic.com/mapfiles/place_api/icons/doctor-71.png",
        "id": "c92a61325d253ea7585414a6fdac6b331cad7fec",
        "name": "W F Knobel Hospital",
        "photos": [
            {
                "height": 3120,
                "html_attributions": [
                    "<a href=\"https://maps.google.com/maps/contrib/105482911487499155610/photos\">Molese Kekana</a>"
                ],
                "photo_reference": "CmRaAAAADMyStuMx6d7AYk1U1CVQ4MoAp0iwkvNV7BZzVXWJWm3tgXhUCmB7gO-TNRUCZ6g91qdYcZSM0GrQUX1Cr7SJisWGl2z5q1AMIaDyPxhdGDT3cPN9W9wNanLyb6IpQ01fEhApPYmbWhHY0jJgDwWvpEIxGhR3veFWhDE2YgSUtHuW_Z2_erRSOA",
                "width": 4160
            }
        ],
        "place_id": "ChIJA9bjzBIOxx4RLhma4pY5NnA",
        "rating": 1.7,
        "reference": "CmRRAAAA-wRHkyJ4C2DmkQ6AwRw6dUEozjLexHGiXPFGHXD20BwyKthDXx4rN0o4uUaj_1DoHt1SzPzpd3hny9aqQ-E8AYzec7hKffYQNA7wi3pcRCgHsNB92svZqO8bYoTFRSQQEhCZol73DWZlw7sp18Z-hxD5GhSPPutCU9uTn-IzcQSxmKV9OuqfXw",
        "types": [
            "hospital",
            "point_of_interest",
            "establishment"
        ]
    },
    "67": {
        "formatted_address": "Sefhare, Botswana",
        "geometry": {
            "location": {
                "lat": -23.0232037,
                "lng": 27.51562359999999
            },
            "viewport": {
                "northeast": {
                    "lat": -23.0218547197085,
                    "lng": 27.5169725802915
                },
                "southwest": {
                    "lat": -23.0245526802915,
                    "lng": 27.51427461970849
                }
            }
        },
        "icon": "https://maps.gstatic.com/mapfiles/place_api/icons/doctor-71.png",
        "id": "590f29cc27f3cbbb7a1c0b0a171c83a2f34b164c",
        "name": "Sefhare Primary Hospital",
        "opening_hours": {
            "open_now": true,
            "weekday_text": []
        },
        "place_id": "ChIJJc7gPEVetx4R3tjYJ7Ken-8",
        "rating": 4,
        "reference": "CmRSAAAA00NE29KL8zO2a4Hl8HBmWl-JIaekUriUFzn9xUUjEPOvSyYYpywVTG2X5vXQrAN4VwXaWvxmT0G7hZV4R-RasPteuxuFZZDx0M7ydjBS_TwXnW3ByrstAegogF9hAsOvEhAL0UC1l9vHaRVWtVab5g89GhQLruGMabdEC81HCsfANfMvZc0Vzg",
        "types": [
            "hospital",
            "point_of_interest",
            "establishment"
        ]
    },
    "68": {
        "formatted_address": "Matlala, South Africa",
        "geometry": {
            "location": {
                "lat": -24.8334181,
                "lng": 29.502314
            },
            "viewport": {
                "northeast": {
                    "lat": -24.8320691197085,
                    "lng": 29.5036629802915
                },
                "southwest": {
                    "lat": -24.8347670802915,
                    "lng": 29.5009650197085
                }
            }
        },
        "icon": "https://maps.gstatic.com/mapfiles/place_api/icons/doctor-71.png",
        "id": "639bd1826327abda67ceab42e417005cbedb36fd",
        "name": "Matlala Hospital",
        "photos": [
            {
                "height": 4128,
                "html_attributions": [
                    "<a href=\"https://maps.google.com/maps/contrib/108541884782211436286/photos\">lebohang kgatla</a>"
                ],
                "photo_reference": "CmRaAAAA9Lykbopk9Qor2Abllgv3-B4w66_CYFIUynMdv67fzeJdmDeyCoDcgR8Bd0ekpfPnVQ6P8aOvCXaTiI5Pm6ep2Aw0yA3bCVzYC2TKsc3c3m9eHOz7mKJTIatE45BWTdNEEhC0WuD4dEt-7WPaOYf-tP_MGhSMeoPeMj9TTNROhHKuHUBEcMGiKA",
                "width": 2322
            }
        ],
        "place_id": "ChIJ-Ww7huarwR4R8kA1_Z01a1c",
        "rating": 3,
        "reference": "CmRRAAAAe0FQdl_YxFZy9Awqjow9UW76THMVk9uvDsV74JmNVDp8y07jzyCGz8eqtnxvhsxnZU7KUfhe-CeM8plYcJ1xr2ECew3ti1EqDC7vSEYp5I0q-hg0XNsUl4ckAwXnMdiDEhBRHo1XZtVRHu9oiVcyffiSGhTKXPOqQG_6pkZ6nf4h17k0rVgBiw",
        "types": [
            "hospital",
            "point_of_interest",
            "establishment"
        ]
    },
    "69": {
        "formatted_address": "Temba Rural Temba, South Africa",
        "geometry": {
            "location": {
                "lat": -25.40292569999999,
                "lng": 28.2671782
            },
            "viewport": {
                "northeast": {
                    "lat": -25.40157671970849,
                    "lng": 28.2685271802915
                },
                "southwest": {
                    "lat": -25.4042746802915,
                    "lng": 28.2658292197085
                }
            }
        },
        "icon": "https://maps.gstatic.com/mapfiles/place_api/icons/doctor-71.png",
        "id": "b5f1a1db2e32225199dfb9859469c6c1358f6b02",
        "name": "Hammamskraal animal hospital",
        "place_id": "ChIJB4F0dkXAvx4Rfj3tuWoXaLc",
        "reference": "CmRSAAAANXfPLjnKfGvd2ALm8egDFTsZruSDLQrTaWekUvAOTrIpl6lTx9eGrDLs5gxUyze-8GHZTv_0ifu6wD9EcMuqS5d4yKLrn7fe12l4RxfMbaON64CbVaxagG1W2iaIFUfhEhBNKU-b4evIAIiclEIpj2B4GhSoGGFYIov6kr9TPM_oYFwP4K4rtA",
        "types": [
            "hospital",
            "point_of_interest",
            "establishment"
        ]
    },
    "70": {
        "formatted_address": "Klipgat Road, Mabopane Unit U, Mabopane, 0190, South Africa",
        "geometry": {
            "location": {
                "lat": -25.5181996,
                "lng": 28.0225299
            },
            "viewport": {
                "northeast": {
                    "lat": -25.5168506197085,
                    "lng": 28.02387888029151
                },
                "southwest": {
                    "lat": -25.5195485802915,
                    "lng": 28.0211809197085
                }
            }
        },
        "icon": "https://maps.gstatic.com/mapfiles/place_api/icons/doctor-71.png",
        "id": "97bba6ccd2132b60b60886e25b17e4bdce6772bb",
        "name": "Odi Community Hospital",
        "photos": [
            {
                "height": 2160,
                "html_attributions": [
                    "<a href=\"https://maps.google.com/maps/contrib/101874431543435603821/photos\">Toby van Reenen</a>"
                ],
                "photo_reference": "CmRaAAAA4lypIWgap4J3ol6raS6mJBkQJSCUKcPw-kCnOkHsrXFjuhvnsS5HvoVYa8VH16DmQTENl-hkRzMXtVvNZNCZY33wnGqGIw0V3z6tyn-pVPjIY8B_CF7yAu-5Vgqy_P9fEhBVWROwtrwmddQl4Ian5DvRGhQoWh_vJ-XCqrXeGtzBT_e_Rf0DaA",
                "width": 3840
            }
        ],
        "place_id": "ChIJ64anCrbOvx4RD4etsWFwr2k",
        "rating": 3.2,
        "reference": "CmRRAAAALGCUso27cpXI_k8T8L58ty423a-97n0qmC0mzvVA0yrmyGkvsFFlmtNtdl5GJ7QijH4LXC42C2e0KiGWwe0FbiUwFWJbtBFWyIWZ-ZMRbHfh-5PpaI4-ATTQyrHETHVvEhAokquGLkgMRKDzHRIJCfNiGhQdCuBch7M7oKBsX5-FZMjvJmRXNg",
        "types": [
            "hospital",
            "point_of_interest",
            "establishment"
        ]
    },
    "71": {
        "formatted_address": "South Africa",
        "geometry": {
            "location": {
                "lat": -23.27776,
                "lng": 29.12409
            },
            "viewport": {
                "northeast": {
                    "lat": -23.2764110197085,
                    "lng": 29.1254389802915
                },
                "southwest": {
                    "lat": -23.2791089802915,
                    "lng": 29.1227410197085
                }
            }
        },
        "icon": "https://maps.gstatic.com/mapfiles/place_api/icons/doctor-71.png",
        "id": "f3e6afd30f87789182d1a5a6dcb8573e34a96476",
        "name": "Blouberg Hospital",
        "place_id": "ChIJyQ7yg7C8xx4Ruq3LAjC6n00",
        "rating": 1,
        "reference": "CmRRAAAAVrF9XlCR50u6kbvyZqWIahcG3gh-QKDU7stuyU7sNyvTyWDaweoUhoRgijwxK3cP6b1sfvB5pYd9xStS8BMtB_EmDkuoDmumCSn-B0F_7jEQWqfNZ1vvEwE-oEEMJ4ZfEhAbwPTB3za74B2Z52PzxbkyGhQVKOlJseCUapk82-taoNRZJ6MdpQ",
        "types": [
            "hospital",
            "point_of_interest",
            "establishment"
        ]
    },
    "72": {
        "formatted_address": "Bochum Road, South Africa",
        "geometry": {
            "location": {
                "lat": -23.2833665,
                "lng": 29.1123205
            },
            "viewport": {
                "northeast": {
                    "lat": -23.2820175197085,
                    "lng": 29.1136694802915
                },
                "southwest": {
                    "lat": -23.2847154802915,
                    "lng": 29.1109715197085
                }
            }
        },
        "icon": "https://maps.gstatic.com/mapfiles/place_api/icons/doctor-71.png",
        "id": "5c7917e9683ba40da28fcc9f9fac4cd9323df869",
        "name": "Helena Franz Hospital",
        "photos": [
            {
                "height": 551,
                "html_attributions": [
                    "<a href=\"https://maps.google.com/maps/contrib/100326900904546230378/photos\">Mahlodi Lekgadima</a>"
                ],
                "photo_reference": "CmRaAAAAdRSrFerJ3XtN0jU1toC1BjqxdgC5OUY3p_EDmF0XZJw3Wz_hVNOGaUNIpOwbfQMPEoW66PShxZzajnzosFqzyL6rarHzgfVFkDRncQ1cppjkIA96fVyscAOhBBZNyeq9EhCd7i5xYixQ5Oem8OO3fp0sGhRoyyWz4-cBCbYZkSceMhhB6qT88g",
                "width": 980
            }
        ],
        "place_id": "ChIJ9WzGg7C8xx4RZ2L4z4y9I1s",
        "rating": 3,
        "reference": "CmRRAAAAa9H_CL3PyJsTzsM7Do1Z_B52Efe6A96n59rH57Jyz2krsZtDYbxqN437_6aUYRQnziOwax7Tei3qemzmqwHaBVGtF6uUwn1q7M3GT4g-iUzNFT65x4R8Vuj81HOrfYDVEhBpx7tbruSy5CdPYK7C736cGhRgRZR3e2TZVNV5XYzske9m3k-Lvg",
        "types": [
            "hospital",
            "point_of_interest",
            "establishment"
        ]
    },
    "73": {
        "formatted_address": "Lebowakgomo, 0737, South Africa",
        "geometry": {
            "location": {
                "lat": -24.2954038,
                "lng": 29.5284317
            },
            "viewport": {
                "northeast": {
                    "lat": -24.2940548197085,
                    "lng": 29.52978068029149
                },
                "southwest": {
                    "lat": -24.2967527802915,
                    "lng": 29.5270827197085
                }
            }
        },
        "icon": "https://maps.gstatic.com/mapfiles/place_api/icons/doctor-71.png",
        "id": "88eba50e7400a4821674928aea5ce473d8460887",
        "name": "Lebowakgomo Hospital",
        "opening_hours": {
            "open_now": true,
            "weekday_text": []
        },