{
    "lulekani clinic": {
        "formatted_address": "1493 Nghunghunyani Dr, Lulekani-B, Phalaborwa, 1392, South Africa",
        "geometry": {
            "location": {
                "lat": -23.8644321,
                "lng": 31.0775968
            },
            "viewport": {
                "northeast": {
                    "lat": -23.86308227010728,
                    "lng": 31.07894662989272
                },
                "southwest": {
                    "lat": -23.86578192989272,
                    "lng": 31.07624697010728
                }
            }
        },
        "icon": "https://maps.gstatic.com/mapfiles/place_api/icons/generic_business-71.png",
        "id": "9fe322efdf0d9edb6294b3872a048d446dae4d8b",
        "name": "lulekani clinic",
        "opening_hours": {},
        "place_id": "ChIJBZ-r5tR6wx4Rdmfuq_GSuoM",
        "plus_code": {
            "compound_code": "43PH+62 Phalaborwa, South Africa",
            "global_code": "5G8H43PH+62"
        },
        "rating": 0,
        "reference": "ChIJBZ-r5tR6wx4Rdmfuq_GSuoM",
        "types": [
            "health",
            "point_of_interest",
            "establishment"
        ]
    },
    "Benfarm Clinic": {
        "formatted_address": "Ben-A, Phalaborwa, South Africa",
        "geometry": {
            "location": {
                "lat": -23.9160157,
                "lng": 31.0370016
            },
            "viewport": {
                "northeast": {
                    "lat": -23.91466587010727,
                    "lng": 31.03835142989272
                },
                "southwest": {
                    "lat": -23.91736552989272,
                    "lng": 31.03565177010728
                }
            }
        },
        "icon": "https://maps.gstatic.com/mapfiles/place_api/icons/generic_business-71.png",
        "id": "a80171032b7c291607c5107c30132369e7a7e73c",
        "name": "Benfarm Clinic",
        "opening_hours": {},
        "place_id": "ChIJ7fzn_H5wwx4RyV8KR3TTWNQ",
        "plus_code": {
            "compound_code": "32MP+HR Phalaborwa, South Africa",
            "global_code": "5G8H32MP+HR"
        },
        "rating": 5,
        "reference": "ChIJ7fzn_H5wwx4RyV8KR3TTWNQ",
        "types": [
            "health",
            "point_of_interest",
            "establishment"
        ]
    },
    "Namakgale B Clinic": {
        "formatted_address": "Namakgale-C, Phalaborwa, 1391, South Africa",
        "geometry": {
            "location": {
                "lat": -23.9280342,
                "lng": 31.0165668
            },
            "viewport": {
                "northeast": {
                    "lat": -23.92668437010728,
                    "lng": 31.01791662989272
                },
                "southwest": {
                    "lat": -23.92938402989272,
                    "lng": 31.01521697010728
                }
            }
        },
        "icon": "https://maps.gstatic.com/mapfiles/place_api/icons/generic_business-71.png",
        "id": "7086fb00f8dc76d80d67e9daeaee43d8758eaeeb",
        "name": "Namakgale B Clinic",
        "opening_hours": {},
        "place_id": "ChIJHyxgAZpwwx4R4oM9n22IZZ8",
        "plus_code": {
            "compound_code": "32C8+QJ Phalaborwa, South Africa",
            "global_code": "5G8H32C8+QJ"
        },
        "rating": 0,
        "reference": "ChIJHyxgAZpwwx4R4oM9n22IZZ8",
        "types": [
            "health",
            "point_of_interest",
            "establishment"
        ]
    },
    "Spec-Savers Phalaborwa": {
        "formatted_address": "Cnr Palm And Mandela Street, Shop 19 Pick & Pay Centre, Phalaborwa, 1390, South Africa",
        "geometry": {
            "location": {
                "lat": -23.950333,
                "lng": 31.135333
            },
            "viewport": {
                "northeast": {
                    "lat": -23.94898317010728,
                    "lng": 31.13668282989272
                },
                "southwest": {
                    "lat": -23.95168282989273,
                    "lng": 31.13398317010727
                }
            }
        },
        "icon": "https://maps.gstatic.com/mapfiles/place_api/icons/generic_business-71.png",
        "id": "d09a7932fcab646028a7ec680e1491be32487381",
        "name": "Spec-Savers Phalaborwa",
        "opening_hours": {
            "open_now": true
        },
        "place_id": "ChIJsfluiPFuwx4RV2qCZUfXV4s",
        "plus_code": {
            "compound_code": "24XP+V4 Phalaborwa, South Africa",
            "global_code": "5G8H24XP+V4"
        },
        "rating": 1,
        "reference": "ChIJsfluiPFuwx4RV2qCZUfXV4s",
        "types": [
            "doctor",
            "store",
            "health",
            "point_of_interest",
            "establishment"
        ]
    },
    "Lulekani Community Health Centre": {
        "formatted_address": "1453b Clinic Street, Lulekani, Phalaborwa, 1392, South Africa",
        "geometry": {
            "location": {
                "lat": -23.863053,
                "lng": 31.082236
            },
            "viewport": {
                "northeast": {
                    "lat": -23.86170317010727,
                    "lng": 31.08358582989272
                },
                "southwest": {
                    "lat": -23.86440282989272,
                    "lng": 31.08088617010727
                }
            }
        },
        "icon": "https://maps.gstatic.com/mapfiles/place_api/icons/generic_business-71.png",
        "id": "0654af0ea511a6b6ec21fae538621f7a09fb43c3",
        "name": "Lulekani Community Health Centre",
        "place_id": "ChIJ4____yplwx4Rud1kKoScHoI",
        "plus_code": {
            "compound_code": "43PJ+QV Phalaborwa, South Africa",
            "global_code": "5G8H43PJ+QV"
        },
        "rating": 1,
        "reference": "ChIJ4____yplwx4Rud1kKoScHoI",
        "types": [
            "point_of_interest",
            "establishment"
        ]
    },
    "MarulaMed Health Centre": {
        "formatted_address": "33 Park St, Phalaborwa, Ba, 1390, South Africa",
        "geometry": {
            "location": {
                "lat": -23.955701,
                "lng": 31.14114
            },
            "viewport": {
                "northeast": {
                    "lat": -23.95420502010728,
                    "lng": 31.14252027989273
                },
                "southwest": {
                    "lat": -23.95690467989272,
                    "lng": 31.13982062010728
                }
            }
        },
        "icon": "https://maps.gstatic.com/mapfiles/place_api/icons/doctor-71.png",
        "id": "8821230e8162593cf8b92dac7c906f3ccec0ddef",
        "name": "MarulaMed Health Centre",
        "opening_hours": {
            "open_now": true
        },
        "photos": [
            {
                "height": 1960,
                "html_attributions": [
                    "<a href=\"https://maps.google.com/maps/contrib/116640620326592645650/photos\">A Google User</a>"
                ],
                "photo_reference": "CmRaAAAAZIW88QmLbfgqEfEemlAj07aFEdvel0qtrw-QnGOAtkORclmRkZh9YbSX93wDay2g5woB6HB23GSnzQaIVjydtPu7SgaouQUQQFh0UQlwA6PhvwazT1klNbMmOqDe893QEhAHk7Owj3WP_Izduach2SbSGhS3p2olmclTvx8roE0rWE3kEuVqHw",
                "width": 4032
            }
        ],
        "place_id": "ChIJCZ-3JMNvwx4RLRmYPgoWxio",
        "plus_code": {
            "compound_code": "24VR+PF Phalaborwa, South Africa",
            "global_code": "5G8H24VR+PF"
        },
        "rating": 0,
        "reference": "ChIJCZ-3JMNvwx4RLRmYPgoWxio",
        "types": [
            "hospital",
            "point_of_interest",
            "establishment"
        ]
    },
    "Namakgale medical Centre": {
        "formatted_address": "stand 3494 zone b, Calvin Ngobeni, street, 1391, South Africa",
        "geometry": {
            "location": {
                "lat": -23.9383719,
                "lng": 31.0312885
            },
            "viewport": {
                "northeast": {
                    "lat": -23.93721637010728,
                    "lng": 31.03249157989272
                },
                "southwest": {
                    "lat": -23.93991602989272,
                    "lng": 31.02979192010728
                }
            }
        },
        "icon": "https://maps.gstatic.com/mapfiles/place_api/icons/doctor-71.png",
        "id": "5ade833cbcba4fe1a8b98952c9cb55c8c944fe62",
        "name": "Namakgale medical Centre",
        "place_id": "ChIJ90XwZ4lxwx4RB4txoUHyVz0",
        "plus_code": {
            "compound_code": "326J+MG Phalaborwa, South Africa",
            "global_code": "5G8H326J+MG"
        },
        "rating": 0,
        "reference": "ChIJ90XwZ4lxwx4RB4txoUHyVz0",
        "types": [
            "hospital",
            "point_of_interest",
            "establishment"
        ]
    },
    "JD Bronkhorst": {
        "formatted_address": "70 Grosvenor St, Phalaborwa, 1389, South Africa",
        "geometry": {
            "location": {
                "lat": -23.936323,
                "lng": 31.138697
            },
            "viewport": {
                "northeast": {
                    "lat": -23.93507722010728,
                    "lng": 31.13986777989272
                },
                "southwest": {
                    "lat": -23.93777687989272,
                    "lng": 31.13716812010728
                }
            }
        },
        "icon": "https://maps.gstatic.com/mapfiles/place_api/icons/generic_business-71.png",
        "id": "1a13e5326d3edd95c38c79060144d3b95aa97544",
        "name": "JD Bronkhorst",
        "opening_hours": {},
        "photos": [
            {
                "height": 1080,
                "html_attributions": [
                    "<a href=\"https://maps.google.com/maps/contrib/116308163230171184491/photos\">Joshua Dinkelmann</a>"
                ],
                "photo_reference": "CmRaAAAAhKJQ45YNpSdpqcb30-XlxEM2zjVEb1dmCglOImNk5tSmCNpf1ELed9okTIUi5yi6eNcw8i32ZuChfUYNhose2MaOMEFZBuSO_RfRJ49F4617zB2mYkNUGgPf6cAiPvEoEhBzw3Y-2BvysD7ri3JmXYUAGhQC56GF7DdVmM0Cq5bISx1jtq5BpA",
                "width": 1920
            }
        ],
        "place_id": "ChIJ7R-TGuNuwx4RSimFG9Evhpc",
        "plus_code": {
            "compound_code": "347Q+FF Phalaborwa, South Africa",
            "global_code": "5G8H347Q+FF"
        },
        "rating": 5,
        "reference": "ChIJ7R-TGuNuwx4RSimFG9Evhpc",
        "types": [
            "doctor",
            "health",
            "point_of_interest",
            "establishment"
        ]
    },
    "Maphutha Malatji Hospital Pharmacy": {
        "formatted_address": "Namakgale-D, Phalaborwa, 1391, South Africa",
        "geometry": {
            "location": {
                "lat": -23.9260467,
                "lng": 31.0386515
            },
            "viewport": {
                "northeast": {
                    "lat": -23.92469687010728,
                    "lng": 31.04000132989272
                },
                "southwest": {
                    "lat": -23.92739652989272,
                    "lng": 31.03730167010728
                }
            }
        },
        "icon": "https://maps.gstatic.com/mapfiles/place_api/icons/doctor-71.png",
        "id": "f33dfa150030db2e0de8c912a47b27d5910b1117",
        "name": "Maphutha Malatji Hospital Pharmacy",
        "opening_hours": {},
        "photos": [
            {
                "height": 600,
                "html_attributions": [
                    "<a href=\"https://maps.google.com/maps/contrib/100688135080738015078/photos\">Danny Milton</a>"
                ],
                "photo_reference": "CmRaAAAAi5b11BwpZKzuOZsPQTueiutUzi4K1eCBE-BP3X_E47fiQ3iG4026vCkQU7BY1GY-FcDzCUzs3EATqdY_xRHZHAMwK78--R0ckxmHHT1SpcwJ3mUPQpJDlxZXeEG04ajaEhBXEP6nF5oSKDENkwWO-6lcGhRc5hVJA9aLoSoxQMBJAi9sPuRhtA",
                "width": 800
            }
        ],
        "place_id": "ChIJR8IzwfRwwx4RBDtBsJvcLmo",
        "plus_code": {
            "compound_code": "32FQ+HF Phalaborwa, South Africa",
            "global_code": "5G8H32FQ+HF"
        },
        "rating": 2.5,
        "reference": "ChIJR8IzwfRwwx4RBDtBsJvcLmo",
        "types": [
            "hospital",
            "point_of_interest",
            "establishment"
        ]
    },
    "Mens Clinic International - Phalaborwa": {
        "formatted_address": "71 Sealene Rd, Phalaborwa, 1389, South Africa",
        "geometry": {
            "location": {
                "lat": -23.951154,
                "lng": 31.133712
            },
            "viewport": {
                "northeast": {
                    "lat": -23.94965397010728,
                    "lng": 31.13513802989273
                },
                "southwest": {
                    "lat": -23.95235362989272,
                    "lng": 31.13243837010728
                }
            }
        },
        "icon": "https://maps.gstatic.com/mapfiles/place_api/icons/generic_business-71.png",
        "id": "54c27cb5d954743564cba8bd899826d868fa02ff",
        "name": "Mens Clinic International - Phalaborwa",
        "opening_hours": {},
        "place_id": "ChIJPSetqPNuwx4RX-jF1gSgop8",
        "plus_code": {
            "compound_code": "24XM+GF Phalaborwa, South Africa",
            "global_code": "5G8H24XM+GF"
        },
        "rating": 5,
        "reference": "ChIJPSetqPNuwx4RX-jF1gSgop8",
        "types": [
            "doctor",
            "health",
            "point_of_interest",
            "establishment"
        ]
    },
    "Dr TD Pilusa": {
        "formatted_address": "3510 Nation St, Namakgale-B, Phalaborwa, 1391, South Africa",
        "geometry": {
            "location": {
                "lat": -23.9344403,
                "lng": 31.0305083
            },
            "viewport": {
                "northeast": {
                    "lat": -23.93309047010728,
                    "lng": 31.03185812989272
                },
                "southwest": {
                    "lat": -23.93579012989272,
                    "lng": 31.02915847010727
                }
            }
        },
        "icon": "https://maps.gstatic.com/mapfiles/place_api/icons/generic_business-71.png",
        "id": "eafad6aed3b9c1fb929af52b055c836c804926ed",
        "name": "Dr TD Pilusa",
        "place_id": "ChIJj4mtH4twwx4R0Eq2ITgzpV8",
        "plus_code": {
            "compound_code": "328J+66 Phalaborwa, South Africa",
            "global_code": "5G8H328J+66"
        },
        "rating": 0,
        "reference": "ChIJj4mtH4twwx4R0Eq2ITgzpV8",
        "types": [
            "doctor",
            "health",
            "point_of_interest",
            "establishment"
        ]
    },
    "Dr SM Aphane": {
        "formatted_address": "1058 Impala Ave, Namakgale-A, Phalaborwa, 1391, South Africa",
        "geometry": {
            "location": {
                "lat": -23.9375488,
                "lng": 31.038162
            },
            "viewport": {
                "northeast": {
                    "lat": -23.93619897010727,
                    "lng": 31.03951182989273
                },
                "southwest": {
                    "lat": -23.93889862989272,
                    "lng": 31.03681217010729
                }
            }
        },
        "icon": "https://maps.gstatic.com/mapfiles/place_api/icons/generic_business-71.png",
        "id": "7c72e0e1cddbb45f43c50cc3cda8846e549eb4a5",
        "name": "Dr SM Aphane",
        "place_id": "ChIJlZP_jV5wwx4RYXpr-FbURQE",
        "plus_code": {
            "compound_code": "326Q+X7 Phalaborwa, South Africa",
            "global_code": "5G8H326Q+X7"
        },
        "rating": 0,
        "reference": "ChIJlZP_jV5wwx4RYXpr-FbURQE",
        "types": [
            "doctor",
            "health",
            "point_of_interest",
            "establishment"
        ]
    },
    "Maphutha L Malatjie Hospital - Dietetics Dept": {
        "formatted_address": "Namakgale-E, Phalaborwa, 1391, South Africa",
        "geometry": {
            "location": {
                "lat": -23.9249388,
                "lng": 31.036962
            },
            "viewport": {
                "northeast": {
                    "lat": -23.92358897010728,
                    "lng": 31.03831182989272
                },
                "southwest": {
                    "lat": -23.92628862989272,
                    "lng": 31.03561217010728
                }
            }
        },
        "icon": "https://maps.gstatic.com/mapfiles/place_api/icons/doctor-71.png",
        "id": "9e1995a045aa2fc577d6feb2072845bc0cc4cd57",
        "name": "Maphutha L Malatjie Hospital - Dietetics Dept",
        "opening_hours": {},
        "photos": [
            {
                "height": 825,
                "html_attributions": [
                    "<a href=\"https://maps.google.com/maps/contrib/108110901531754783949/photos\">Christen mokgope</a>"
                ],
                "photo_reference": "CmRaAAAAjbB32xFdCfzEB8IfU64AeAYNhULauVXbTtpdztRII7iaQIhokvzx4-ejCwvO8Z2uI7mr5g8gtdVB-aZGFI2flaeMUUUiCLHJAHFPfeStg2OguKnjZcr4HT6J65tvBgXUEhCsxRIA9a8yDXD4nt1Oe2LkGhQRR9CcHy_sS2A4U-2SW8hxpCNabg",
                "width": 1500
            }
        ],
        "place_id": "ChIJBXms2Ytwwx4RERhlBhc4HGM",
        "plus_code": {
            "compound_code": "32GP+2Q Phalaborwa, South Africa",
            "global_code": "5G8H32GP+2Q"
        },
        "rating": 3.5,
        "reference": "ChIJBXms2Ytwwx4RERhlBhc4HGM",
        "types": [
            "hospital",
            "point_of_interest",
            "establishment"
        ]
    },
    "Rewild": {
        "formatted_address": "Phalaborwa, 1390, South Africa",
        "geometry": {
            "location": {
                "lat": -23.8907227,
                "lng": 31.1048732
            },
            "viewport": {
                "northeast": {
                    "lat": -23.88937287010728,
                    "lng": 31.10622302989272
                },
                "southwest": {
                    "lat": -23.89207252989272,
                    "lng": 31.10352337010728
                }
            }
        },
        "icon": "https://maps.gstatic.com/mapfiles/place_api/icons/doctor-71.png",
        "id": "4fb57344b1a2b46dccac62d71d2e1c070e739e15",
        "name": "Rewild",
        "opening_hours": {
            "open_now": true
        },
        "place_id": "ChIJ_7S-HGdlwx4RKAlk9Mq7aco",
        "plus_code": {
            "compound_code": "4453+PW Phalaborwa, South Africa",
            "global_code": "5G8H4453+PW"
        },
        "rating": 0,
        "reference": "ChIJ_7S-HGdlwx4RKAlk9Mq7aco",
        "types": [
            "hospital",
            "point_of_interest",
            "establishment"
        ]
    },
    "Humulani Clinic": {
        "formatted_address": "Phalaborwa, 1390, South Africa",
        "geometry": {
            "location": {
                "lat": -23.8752057,
                "lng": 31.0602241
            },
            "viewport": {
                "northeast": {
                    "lat": -23.87385587010728,
                    "lng": 31.06157392989272
                },
                "southwest": {
                    "lat": -23.87655552989272,
                    "lng": 31.05887427010728
                }
            }
        },
        "icon": "https://maps.gstatic.com/mapfiles/place_api/icons/doctor-71.png",
        "id": "f3a16a935ad5230a8865b4945becebfc8c8e71ee",
        "name": "Humulani Clinic",
        "opening_hours": {},
        "photos": [
            {
                "height": 3024,
                "html_attributions": [
                    "<a href=\"https://maps.google.com/maps/contrib/100524635670951102148/photos\">A Google User</a>"
                ],
                "photo_reference": "CmRaAAAA-jlW_wjlfd3TUDZNMApbilAQId_sEccOzMue5CXGIFAPDDh_13UqELsA0wPxYXuNAZ5qsN6GDz3uP6f_xO4KgxRCzaTTk8L3pQVRm3RpsmxADEBg6OZJiwNJXczNn_VZEhBO7y_Es_WocBzS-aFutY1-GhShGvvPTBMMriVbSgTPIcOIl0tSTA",
                "width": 4032
            }
        ],
        "place_id": "ChIJlf1zFd17wx4R_eNxurgcU9A",
        "plus_code": {
            "compound_code": "43F6+W3 Phalaborwa, South Africa",
            "global_code": "5G8H43F6+W3"
        },
        "rating": 0,
        "reference": "ChIJlf1zFd17wx4R_eNxurgcU9A",
        "types": [
            "hospital",
            "point_of_interest",
            "establishment"
        ]
    },
    "Maphutha L Malatji Hopsital": {
        "formatted_address": "Namakgale-B, Phalaborwa, 1391, South Africa",
        "geometry": {
            "location": {
                "lat": -23.9245405,
                "lng": 31.0371229
            },
            "viewport": {
                "northeast": {
                    "lat": -23.92319067010728,
                    "lng": 31.03847272989272
                },
                "southwest": {
                    "lat": -23.92589032989272,
                    "lng": 31.03577307010728
                }
            }
        },
        "icon": "https://maps.gstatic.com/mapfiles/place_api/icons/doctor-71.png",
        "id": "90dc7e00e5b3e4bd4e8fa4befa1171e9fd15dcd8",
        "name": "Maphutha L Malatji Hopsital",
        "opening_hours": {},
        "place_id": "ChIJgYkWF41xwx4RAVAVI5e7So4",
        "plus_code": {
            "compound_code": "32GP+5R Phalaborwa, South Africa",
            "global_code": "5G8H32GP+5R"
        },
        "rating": 0,
        "reference": "ChIJgYkWF41xwx4RAVAVI5e7So4",
        "types": [
            "hospital",
            "point_of_interest",
            "establishment"
        ]
    },
    "SEDIBANE LESLEY": {
        "formatted_address": "BENFARM VILLAGE stand number 188 & 189 R71, 0895, South Africa",
        "geometry": {
            "location": {
                "lat": -23.9202667,
                "lng": 31.0468748
            },
            "viewport": {
                "northeast": {
                    "lat": -23.91891687010727,
                    "lng": 31.04822462989272
                },
                "southwest": {
                    "lat": -23.92161652989272,
                    "lng": 31.04552497010728
                }
            }
        },
        "icon": "https://maps.gstatic.com/mapfiles/place_api/icons/generic_business-71.png",
        "id": "9c42b78cc0b817f1c8ef121cccb9af44c1ccabeb",
        "name": "SEDIBANE LESLEY",
        "opening_hours": {
            "open_now": false
        },
        "photos": [
            {
                "height": 3120,
                "html_attributions": [
                    "<a href=\"https://maps.google.com/maps/contrib/117921861468234716115/photos\">Lesley Ramosedi</a>"
                ],
                "photo_reference": "CmRaAAAAVgMgQL4FJCwR1r8q0rFgC5JPv_EL9zt6r_fGWWWhmj0WoeCqCVPozHjf4CLWipVn2X1jZPZ3xOr_ZO6yXlzt6MAJShHUsPDVZvieIAJRMzlVsi6BtIZK-_CGHt5LebS8EhAfUzoEXFNbxiVOxdy9wbuyGhQNPBxp-xPqaIox24T6yFNx9NHdGw",
                "width": 4160
            }
        ],
        "place_id": "ChIJHZZhR3Bwwx4RH5cev_WTCs0",
        "plus_code": {
            "compound_code": "32HW+VP Phalaborwa, South Africa",
            "global_code": "5G8H32HW+VP"
        },
        "rating": 0,
        "reference": "ChIJHZZhR3Bwwx4RH5cev_WTCs0",
        "types": [
            "health",
            "point_of_interest",
            "establishment"
        ]
    },
    "Police Station Phalaborwa": {
        "formatted_address": "Sealene Rd, Phalaborwa, 1389, South Africa",
        "geometry": {
            "location": {
                "lat": -23.9526128,
                "lng": 31.1365357
            },
            "viewport": {
                "northeast": {
                    "lat": -23.95102592010728,
                    "lng": 31.13801067989272
                },
                "southwest": {
                    "lat": -23.95372557989272,
                    "lng": 31.13531102010727
                }
            }
        },
        "icon": "https://maps.gstatic.com/mapfiles/place_api/icons/police-71.png",
        "id": "282314a5a7a3cff26f25de4b51b4eda3063ccc79",
        "name": "Police Station Phalaborwa",
        "place_id": "ChIJrVJgh-1uwx4RyROkr4y-JfI",
        "plus_code": {
            "compound_code": "24WP+XJ Phalaborwa, South Africa",
            "global_code": "5G8H24WP+XJ"
        },
        "rating": 4,
        "reference": "ChIJrVJgh-1uwx4RyROkr4y-JfI",
        "types": [
            "police",
            "point_of_interest",
            "establishment"
        ]
    },
    "Department of Home Affairs Office - Phalaborwa": {
        "formatted_address": "23 Potgieter St, Phalaborwa, 1389, South Africa",
        "geometry": {
            "location": {
                "lat": -23.9547722,
                "lng": 31.1291056
            },
            "viewport": {
                "northeast": {
                    "lat": -23.95336022010728,
                    "lng": 31.13053652989272
                },
                "southwest": {
                    "lat": -23.95605987989272,
                    "lng": 31.12783687010728
                }
            }
        },
        "icon": "https://maps.gstatic.com/mapfiles/place_api/icons/civic_building-71.png",
        "id": "639642270160adb3c5b9ab1062128a73154fbf94",
        "name": "Department of Home Affairs Office - Phalaborwa",
        "opening_hours": {},
        "place_id": "ChIJOfkn9_Ruwx4ReEylYxFSpnA",
        "plus_code": {
            "compound_code": "24WH+3J Phalaborwa, South Africa",
            "global_code": "5G8H24WH+3J"
        },
        "rating": 5,
        "reference": "ChIJOfkn9_Ruwx4ReEylYxFSpnA",
        "types": [
            "point_of_interest",
            "establishment"
        ]
    },
    "Saps Lulekani.": {
        "formatted_address": "655 Chris Hani Dr, Lulekani-B, Phalaborwa, 1392, South Africa",
        "geometry": {
            "location": {
                "lat": -23.867114,
                "lng": 31.0803722
            },
            "viewport": {
                "northeast": {
                    "lat": -23.86576417010728,
                    "lng": 31.08172202989272
                },
                "southwest": {
                    "lat": -23.86846382989272,
                    "lng": 31.07902237010727
                }
            }
        },
        "icon": "https://maps.gstatic.com/mapfiles/place_api/icons/police-71.png",
        "id": "71333654c25d53241bb934b6dc54c84863ac4657",
        "name": "Saps Lulekani.",
        "place_id": "ChIJ__ePXCtlwx4REYDCfnU1b-U",
        "plus_code": {
            "compound_code": "43MJ+54 Phalaborwa, South Africa",
            "global_code": "5G8H43MJ+54"
        },
        "rating": 2.3,
        "reference": "ChIJ__ePXCtlwx4REYDCfnU1b-U",
        "types": [
            "police",
            "point_of_interest",
            "establishment"
        ]
    },
    "Magisterial Court - Phalaborwa": {
        "formatted_address": "Phalaborwa, 1390, South Africa",
        "geometry": {
            "location": {
                "lat": -23.9499299,
                "lng": 31.13807
            },
            "viewport": {
                "northeast": {
                    "lat": -23.94858007010728,
                    "lng": 31.13941982989273
                },
                "southwest": {
                    "lat": -23.95127972989272,
                    "lng": 31.13672017010729
                }
            }
        },
        "icon": "https://maps.gstatic.com/mapfiles/place_api/icons/civic_building-71.png",
        "id": "f1f4826c4069502000dedb8a8eb9f873f76e52b9",
        "name": "Magisterial Court - Phalaborwa",
        "place_id": "ChIJ54EZ6O1uwx4Rkkg2V-HKD3g",
        "plus_code": {
            "compound_code": "342Q+26 Phalaborwa, South Africa",
            "global_code": "5G8H342Q+26"
        },
        "rating": 0,
        "reference": "ChIJ54EZ6O1uwx4Rkkg2V-HKD3g",
        "types": [
            "courthouse",
            "point_of_interest",
            "establishment"
        ]
    },
    "Lulekani Magistrate's Court": {
        "formatted_address": "Chris Hani Street, Lulekani, Phalaborwa, 1392, South Africa",
        "geometry": {
            "location": {
                "lat": -23.8664306,
                "lng": 31.0810445
            },
            "viewport": {
                "northeast": {
                    "lat": -23.86508077010728,
                    "lng": 31.08239432989272
                },
                "southwest": {
                    "lat": -23.86778042989272,
                    "lng": 31.07969467010727
                }
            }
        },
        "icon": "https://maps.gstatic.com/mapfiles/place_api/icons/generic_business-71.png",
        "id": "14fe107f855ad95ce0adb5b2f6bffa621dc20433",
        "name": "Lulekani Magistrate's Court",
        "opening_hours": {
            "open_now": true
        },
        "place_id": "ChIJ4____yplwx4R06qpeFCV5k4",
        "plus_code": {
            "compound_code": "43MJ+CC Phalaborwa, South Africa",
            "global_code": "5G8H43MJ+CC"
        },
        "rating": 3.3,
        "reference": "ChIJ4____yplwx4R06qpeFCV5k4",
        "types": [
            "point_of_interest",
            "establishment"
        ]
    },
    "lulekani stadium": {
        "formatted_address": "Lulekani-B, Phalaborwa, 1392, South Africa",
        "geometry": {
            "location": {
                "lat": -23.8675445,
                "lng": 31.0945749
            },
            "viewport": {
                "northeast": {
                    "lat": -23.86619467010728,
                    "lng": 31.09592472989273
                },
                "southwest": {
                    "lat": -23.86889432989272,
                    "lng": 31.09322507010728
                }
            }
        },
        "icon": "https://maps.gstatic.com/mapfiles/place_api/icons/generic_business-71.png",
        "id": "478adbad476ce147531ea0375b30769e6a529d86",
        "name": "lulekani stadium",
        "photos": [
            {
                "height": 2448,
                "html_attributions": [
                    "<a href=\"https://maps.google.com/maps/contrib/103176792781671988358/photos\">Sydwell Marhule</a>"
                ],
                "photo_reference": "CmRaAAAA24_1CbgS0I0IhuXvbG9q5-Txma-CvY0yVdyoiPwgVmZttGL5DrHVbIMJGNaYnyZUazaa5POFFoN885qHzQ1Viqvpdi0YGzvZmqMsabN0MDVSLZWzHnZzSDzO14EdWM4JEhCXCZeXMbicldHXqWLLQ37oGhQN59UkwXQ4l4pWnBxewzqS6D7j_g",
                "width": 3264
            }
        ],
        "place_id": "ChIJ_0ILxSRlwx4R_9i0wjGEozY",
        "plus_code": {
            "compound_code": "43JV+XR Phalaborwa, South Africa",
            "global_code": "5G8H43JV+XR"
        },
        "rating": 4.2,
        "reference": "ChIJ_0ILxSRlwx4R_9i0wjGEozY",
        "types": [
            "stadium",
            "point_of_interest",
            "establishment"
        ]
    },
    "Lulekani Primary School.": {
        "formatted_address": "Lulekani-A, Phalaborwa, 1392, South Africa",
        "geometry": {
            "location": {
                "lat": -23.85852,
                "lng": 31.07692
            },
            "viewport": {
                "northeast": {
                    "lat": -23.85717017010728,
                    "lng": 31.07826982989272
                },
                "southwest": {
                    "lat": -23.85986982989272,
                    "lng": 31.07557017010728
                }
            }
        },
        "icon": "https://maps.gstatic.com/mapfiles/place_api/icons/school-71.png",
        "id": "00da2be051a9f3284c4b4969abf60df31c4045c2",
        "name": "Lulekani Primary School.",
        "photos": [
            {
                "height": 2448,
                "html_attributions": [
                    "<a href=\"https://maps.google.com/maps/contrib/107539875793496169011/photos\">A Google User</a>"
                ],
                "photo_reference": "CmRaAAAA4MheMNoU96TRioUQsj33XPO6Qg5Jv8SD4GlTFZtSN4nzbXRnjeLL6jE7Mydt0r8b8O7A6zbs4SBA0ofPAeICk1I0Q9i4Xw1nMQ9m5zqIy0eNQ1FcKYXZgEIrDk_qQExqEhA3e_QMIBRDioaDKXtT5vdEGhQ4UKC_OT1OlU8eksF04jhS23bdSw",
                "width": 3264
            }
        ],
        "place_id": "ChIJlwARBCt7wx4RtpBP4VBDN0Y",
        "plus_code": {
            "compound_code": "43RG+HQ Phalaborwa, South Africa",
            "global_code": "5G8H43RG+HQ"
        },
        "rating": 4,
        "reference": "ChIJlwARBCt7wx4RtpBP4VBDN0Y",
        "types": [
            "point_of_interest",
            "school",
            "establishment"
        ]
    },
    "Nkateko High School.": {
        "formatted_address": "Lulekani-A, Phalaborwa, 1392, South Africa",
        "geometry": {
            "location": {
                "lat": -23.8664999,
                "lng": 31.0729
            },
            "viewport": {
                "northeast": {
                    "lat": -23.86515007010728,
                    "lng": 31.07424982989272
                },
                "southwest": {
                    "lat": -23.86784972989273,
                    "lng": 31.07155017010728
                }
            }
        },
        "icon": "https://maps.gstatic.com/mapfiles/place_api/icons/school-71.png",
        "id": "80bcd16266baf01504e5d093accd6d35d7934254",
        "name": "Nkateko High School.",
        "place_id": "ChIJeYBRvdZ6wx4R2CAqgK7h4i4",
        "plus_code": {
            "compound_code": "43MF+C5 Phalaborwa, South Africa",
            "global_code": "5G8H43MF+C5"
        },
        "rating": 3,
        "reference": "ChIJeYBRvdZ6wx4R2CAqgK7h4i4",
        "types": [
            "point_of_interest",
            "school",
            "establishment"
        ]
    },
    "Nwasorini Primary School": {
        "formatted_address": "Lulekani-B, Phalaborwa, 1392, South Africa",
        "geometry": {
            "location": {
                "lat": -23.86122,
                "lng": 31.08185
            },
            "viewport": {
                "northeast": {
                    "lat": -23.85987017010728,
                    "lng": 31.08319982989272
                },
                "southwest": {
                    "lat": -23.86256982989272,
                    "lng": 31.08050017010728
                }
            }
        },
        "icon": "https://maps.gstatic.com/mapfiles/place_api/icons/school-71.png",
        "id": "8b0e062834150350bda506de70f6aac8f6064369",
        "name": "Nwasorini Primary School",
        "place_id": "ChIJqcJJjyplwx4RCpBjVwBCH7A",
        "plus_code": {
            "compound_code": "43QJ+GP Phalaborwa, South Africa",
            "global_code": "5G8H43QJ+GP"
        },
        "rating": 0,
        "reference": "ChIJqcJJjyplwx4RCpBjVwBCH7A",
        "types": [
            "point_of_interest",
            "school",
            "establishment"
        ]
    },
    "Nwa Risenga Primary School": {
        "formatted_address": "124 Park St, Lulekani-B, Phalaborwa, 1392, South Africa",
        "geometry": {
            "location": {
                "lat": -23.8620199,
                "lng": 31.08967
            },
            "viewport": {
                "northeast": {
                    "lat": -23.86067007010728,
                    "lng": 31.09101982989273
                },
                "southwest": {
                    "lat": -23.86336972989272,
                    "lng": 31.08832017010728
                }
            }
        },
        "icon": "https://maps.gstatic.com/mapfiles/place_api/icons/school-71.png",
        "id": "1313376ee5175386f2c2843a326f75fe2f1c378b",
        "name": "Nwa Risenga Primary School",
        "place_id": "ChIJD6ryjShlwx4RUUzL3CBj00E",
        "plus_code": {
            "compound_code": "43QQ+5V Phalaborwa, South Africa",
            "global_code": "5G8H43QQ+5V"
        },
        "rating": 5,
        "reference": "ChIJD6ryjShlwx4RUUzL3CBj00E",
        "types": [
            "point_of_interest",
            "school",
            "establishment"
        ]
    },
    "Baranuka Secondary School": {
        "formatted_address": "Matiko Xikaya-A, Phalaborwa, South Africa",
        "geometry": {
            "location": {
                "lat": -23.8568399,
                "lng": 31.04868
            },
            "viewport": {
                "northeast": {
                    "lat": -23.85549007010728,
                    "lng": 31.05002982989272
                },
                "southwest": {
                    "lat": -23.85818972989272,
                    "lng": 31.04733017010728
                }
            }
        },
        "icon": "https://maps.gstatic.com/mapfiles/place_api/icons/school-71.png",
        "id": "189e02e591f429b27cf9ef6be692d8298a3b607b",
        "name": "Baranuka Secondary School",
        "place_id": "ChIJQW9kmxB7wx4RwGLJHpZvJ_U",
        "plus_code": {
            "compound_code": "42VX+7F Phalaborwa, South Africa",
            "global_code": "5G8H42VX+7F"
        },
        "rating": 4.3,
        "reference": "ChIJQW9kmxB7wx4RwGLJHpZvJ_U",
        "types": [
            "point_of_interest",
            "school",
            "establishment"
        ]
    },
    "Pondo Combined School": {
        "formatted_address": "764, Lulekani-A, Phalaborwa, 1392, South Africa",
        "geometry": {
            "location": {
                "lat": -23.8701699,
                "lng": 31.0715
            },
            "viewport": {
                "northeast": {
                    "lat": -23.86882007010728,
                    "lng": 31.07284982989272
                },
                "southwest": {
                    "lat": -23.87151972989273,
                    "lng": 31.07015017010728
                }
            }
        },
        "icon": "https://maps.gstatic.com/mapfiles/place_api/icons/school-71.png",
        "id": "52fd24a2a7236ac5cb9cd79dfada244dea57fb71",
        "name": "Pondo Combined School",
        "photos": [
            {
                "height": 480,
                "html_attributions": [
                    "<a href=\"https://maps.google.com/maps/contrib/117491402220668130172/photos\">nhlawulo justice</a>"
                ],
                "photo_reference": "CmRaAAAAVmL0ZcF2ZGSppnWkFce9NXdUqEKuVE9iOyAZmvcDU8C9kRK3Xpzo-52uPiVcG5jMRtyGjUpjqKlrmrgkMY4oabzapSZixFWGQ1d8ylPN19GnT7y5d7qc8q_1_MUZwXAWEhAg1CcrfT9iEU--6fLePzOkGhTRZekAYt9cYkLjE8-s2sKr720tGA",
                "width": 640
            }
        ],
        "place_id": "ChIJHV_2D9F6wx4RQ-Om9kPxOkE",
        "plus_code": {
            "compound_code": "43HC+WJ Phalaborwa, South Africa",
            "global_code": "5G8H43HC+WJ"
        },
        "rating": 3.8,
        "reference": "ChIJHV_2D9F6wx4RQ-Om9kPxOkE",
        "types": [
            "point_of_interest",
            "school",
            "establishment"
        ]
    },
    "Majeje High School": {
        "formatted_address": "815 Quatro St, Lulekani-B, Phalaborwa, 1392, South Africa",
        "geometry": {
            "location": {
                "lat": -23.8667284,
                "lng": 31.08661459999999
            },
            "viewport": {
                "northeast": {
                    "lat": -23.86537857010728,
                    "lng": 31.08796442989272
                },
                "southwest": {
                    "lat": -23.86807822989272,
                    "lng": 31.08526477010727
                }
            }
        },
        "icon": "https://maps.gstatic.com/mapfiles/place_api/icons/school-71.png",
        "id": "683fe247924103588bc0d834cc1161b7b4087518",
        "name": "Majeje High School",
        "place_id": "ChIJY6QgZy5lwx4RFKGhQAGo93o",
        "plus_code": {
            "compound_code": "43MP+8J Phalaborwa, South Africa",
            "global_code": "5G8H43MP+8J"
        },
        "rating": 4,
        "reference": "ChIJY6QgZy5lwx4RFKGhQAGo93o",
        "types": [
            "school",
            "point_of_interest",
            "establishment"
        ]
    },
    "Xitlhangu Primary School": {
        "formatted_address": "Phalaborwa, 1390, South Africa",
        "geometry": {
            "location": {
                "lat": -23.86902,
                "lng": 31.05565
            },
            "viewport": {
                "northeast": {
                    "lat": -23.86767017010728,
                    "lng": 31.05699982989272
                },
                "southwest": {
                    "lat": -23.87036982989272,
                    "lng": 31.05430017010728
                }
            }
        },
        "icon": "https://maps.gstatic.com/mapfiles/place_api/icons/school-71.png",
        "id": "2f19f818765dfa09540f1d0bdf2acf2efbdcb98a",
        "name": "Xitlhangu Primary School",
        "place_id": "ChIJudAZiOB6wx4R_AGttlcxafQ",
        "plus_code": {
            "compound_code": "43J4+97 Phalaborwa, South Africa",
            "global_code": "5G8H43J4+97"
        },
        "rating": 0,
        "reference": "ChIJudAZiOB6wx4R_AGttlcxafQ",
        "types": [
            "point_of_interest",
            "school",
            "establishment"
        ]
    },
    "Majeje High.": {
        "formatted_address": "435 Bridgeway Street, Lulekani-B, Phalaborwa, 1392, South Africa",
        "geometry": {
            "location": {
                "lat": -23.8675,
                "lng": 31.0818183
            },
            "viewport": {
                "northeast": {
                    "lat": -23.86615017010728,
                    "lng": 31.08316812989273
                },
                "southwest": {
                    "lat": -23.86884982989272,
                    "lng": 31.08046847010728
                }
            }
        },
        "icon": "https://maps.gstatic.com/mapfiles/place_api/icons/school-71.png",
        "id": "ea2b72ea7cddf38b238a7b632acdcc72d6c0a19f",
        "name": "Majeje High.",
        "place_id": "ChIJm9hb8Sxlwx4R6DERwvnW2pc",
        "plus_code": {
            "compound_code": "43JJ+XP Phalaborwa, South Africa",
            "global_code": "5G8H43JJ+XP"
        },
        "rating": 0,
        "reference": "ChIJm9hb8Sxlwx4R6DERwvnW2pc",
        "types": [
            "school",
            "point_of_interest",
            "establishment"
        ]
    },
    "Phalaborwa College": {
        "formatted_address": "Cnr Harlem & Combretum Ave , Next to Delstern Butchery, Phalaborwa, 1390, South Africa",
        "geometry": {
            "location": {
                "lat": -23.9418224,
                "lng": 31.1361081
            },
            "viewport": {
                "northeast": {
                    "lat": -23.94047257010728,
                    "lng": 31.13745792989272
                },
                "southwest": {
                    "lat": -23.94317222989272,
                    "lng": 31.13475827010728
                }
            }
        },
        "icon": "https://maps.gstatic.com/mapfiles/place_api/icons/school-71.png",
        "id": "02c9c071155e5a20e9a5f1d5ade9318866efb0ab",
        "name": "Phalaborwa College",
        "photos": [
            {
                "height": 1296,
                "html_attributions": [
                    "<a href=\"https://maps.google.com/maps/contrib/113585077819417937633/photos\">kabelo nelson</a>"
                ],
                "photo_reference": "CmRaAAAALevAo66av1omTUXXlXZcXwG689osLfbkQPYOL5g9rn0LzY9WcaxBbPXWCTW0R1rDF4oncB08rSmuntwG4MQZ3FRcTORUKQpBd6uVbACv6Bgc8qmv_5ANtLWE-aeLoRe8EhBdg-zL4YkjheGBzh4EgQlkGhQWdyqzjFanIf-Pr4D-bBe9qtYvfQ",
                "width": 972
            }
        ],
        "place_id": "ChIJBQG31_puwx4RyS9mGOSK1mg",
        "plus_code": {
            "compound_code": "345P+7C Phalaborwa, South Africa",
            "global_code": "5G8H345P+7C"
        },
        "rating": 5,
        "reference": "ChIJBQG31_puwx4RyS9mGOSK1mg",
        "types": [
            "school",
            "point_of_interest",
            "establishment"
        ]
    },
    "Kingfisher Private School": {
        "formatted_address": "Corner of Tamboti & Rooibos street, Phalaborwa, 1390, South Africa",
        "geometry": {
            "location": {
                "lat": -23.951738,
                "lng": 31.14245
            },
            "viewport": {
                "northeast": {
                    "lat": -23.95038817010728,
                    "lng": 31.14379982989272
                },
                "southwest": {
                    "lat": -23.95308782989272,
                    "lng": 31.14110017010728
                }
            }
        },
        "icon": "https://maps.gstatic.com/mapfiles/place_api/icons/school-71.png",
        "id": "1a5cc89b141e18d2a469249bb797116daa7d559f",
        "name": "Kingfisher Private School",
        "opening_hours": {
            "open_now": true
        },
        "photos": [
            {
                "height": 3216,
                "html_attributions": [
                    "<a href=\"https://maps.google.com/maps/contrib/108834520725480555966/photos\">A Google User</a>"
                ],
                "photo_reference": "CmRaAAAA-N2aI-4p5QlqenyZ019jhHFu9HNbyuEsDIDlxW7u7BUV4Krr41gCOtSwYZ3f8Jj32kSEFqqdBiZhnaV-kunesjudkKGOQNq8wN5kyvJy260vS9EaVlSCwWshYv5_xkqPEhB-DuGogOO2wEh9iyJ1Rk_eGhSSYmDnkn7EDyCFqDzpdN-QumB4_w",
                "width": 4288
            }
        ],
        "place_id": "ChIJiW8Ffutuwx4RsuPCNsIn8kw",
        "plus_code": {
            "compound_code": "24XR+8X Phalaborwa, South Africa",
            "global_code": "5G8H24XR+8X"
        },
        "rating": 5,
        "reference": "ChIJiW8Ffutuwx4RsuPCNsIn8kw",
        "types": [
            "point_of_interest",
            "school",
            "establishment"
        ]
    },
    "Maseke Primary School": {
        "formatted_address": "Phalaborwa, 1390, South Africa",
        "geometry": {
            "location": {
                "lat": -23.98882,
                "lng": 31.0048
            },
            "viewport": {
                "northeast": {
                    "lat": -23.98747017010728,
                    "lng": 31.00614982989272
                },
                "southwest": {
                    "lat": -23.99016982989272,
                    "lng": 31.00345017010728
                }
            }
        },
        "icon": "https://maps.gstatic.com/mapfiles/place_api/icons/school-71.png",
        "id": "cb9e98e542626675fe6778b659680fd6bbb8a754",
        "name": "Maseke Primary School",
        "place_id": "ChIJ5TQvs0Zxwx4R4c4RwXhDlII",
        "plus_code": {
            "compound_code": "2263+FW Phalaborwa, South Africa",
            "global_code": "5G8H2263+FW"
        },
        "rating": 1,
        "reference": "ChIJ5TQvs0Zxwx4R4c4RwXhDlII",
        "types": [
            "point_of_interest",
            "school",
            "establishment"
        ]
    },
    "Fauna Park Primary School": {
        "formatted_address": "Phalaborwa, 1390, South Africa",
        "geometry": {
            "location": {
                "lat": -23.9328627,
                "lng": 31.1470544
            },
            "viewport": {
                "northeast": {
                    "lat": -23.93151287010728,
                    "lng": 31.14840422989272
                },
                "southwest": {
                    "lat": -23.93421252989272,
                    "lng": 31.14570457010728
                }
            }
        },
        "icon": "https://maps.gstatic.com/mapfiles/place_api/icons/school-71.png",
        "id": "10c3d9a4d3deca67ef14b4d67b6371694ade40c8",
        "name": "Fauna Park Primary School",
        "place_id": "ChIJQ6GSzxtvwx4RlTiBzWrXCOk",
        "plus_code": {
            "compound_code": "348W+VR Phalaborwa, South Africa",
            "global_code": "5G8H348W+VR"
        },
        "rating": 4.3,
        "reference": "ChIJQ6GSzxtvwx4RlTiBzWrXCOk",
        "types": [
            "point_of_interest",
            "school",
            "establishment"
        ]
    },
    "Phalaborwa Primary School": {
        "formatted_address": "Namakgale-B, Phalaborwa, 1391, South Africa",
        "geometry": {
            "location": {
                "lat": -23.9364521,
                "lng": 31.03943769999999
            },
            "viewport": {
                "northeast": {
                    "lat": -23.93510227010728,
                    "lng": 31.04078752989271
                },
                "southwest": {
                    "lat": -23.93780192989272,
                    "lng": 31.03808787010727
                }
            }
        },
        "icon": "https://maps.gstatic.com/mapfiles/place_api/icons/school-71.png",
        "id": "be7fbd2bdfdfb988a5291a383ac66bfa6d3e2d33",
        "name": "Phalaborwa Primary School",
        "place_id": "ChIJKd73VvVwwx4RVBUeJFv5pnA",
        "plus_code": {
            "compound_code": "327Q+CQ Phalaborwa, South Africa",
            "global_code": "5G8H327Q+CQ"
        },
        "rating": 0,
        "reference": "ChIJKd73VvVwwx4RVBUeJFv5pnA",
        "types": [
            "point_of_interest",
            "school",
            "establishment"
        ]
    },
    "Frans Du Toit High School.": {
        "formatted_address": "Janssens St, Phalaborwa, 1390, South Africa",
        "geometry": {
            "location": {
                "lat": -23.9310065,
                "lng": 31.1402261
            },
            "viewport": {
                "northeast": {
                    "lat": -23.92926717010727,
                    "lng": 31.14156162989273
                },
                "southwest": {
                    "lat": -23.93196682989272,
                    "lng": 31.13886197010729
                }
            }
        },
        "icon": "https://maps.gstatic.com/mapfiles/place_api/icons/school-71.png",
        "id": "a7450513727e195c1f3b1813580804dac1660218",
        "name": "Frans Du Toit High School.",
        "photos": [
            {
                "height": 1200,
                "html_attributions": [
                    "<a href=\"https://maps.google.com/maps/contrib/107403269135855317413/photos\">Lufuno Jeffrey Masindi</a>"
                ],
                "photo_reference": "CmRaAAAARbGKXQzjiOMmaFB2dc7QmDYPl9RyW4AP4yQEI-D5DTSHxIp4OrA9Y5h9XiMtu08gkABuZIz1qdvlgNjb9W2uEkbc4KIL5NXXUfzLTU0KmgKMxhSm4rHPf5sLBcYezYfGEhBYLYzEbHsOQs8uRyRqimk7GhRnu8nIc224dwktnmPW79tys88dqQ",
                "width": 1600
            }
        ],
        "place_id": "ChIJc1cBvB1vwx4REusez-RzTLw",
        "plus_code": {
            "compound_code": "349R+H3 Phalaborwa, South Africa",
            "global_code": "5G8H349R+H3"
        },
        "rating": 4.7,
        "reference": "ChIJc1cBvB1vwx4REusez-RzTLw",
        "types": [
            "school",
            "point_of_interest",
            "establishment"
        ]
    },
    "Lebeko High School": {
        "formatted_address": "Ga-Mashishimale, Phalaborwa, South Africa",
        "geometry": {
            "location": {
                "lat": -23.9458749,
                "lng": 30.9973479
            },
            "viewport": {
                "northeast": {
                    "lat": -23.94452507010728,
                    "lng": 30.99869772989272
                },
                "southwest": {
                    "lat": -23.94722472989272,
                    "lng": 30.99599807010727
                }
            }
        },
        "icon": "https://maps.gstatic.com/mapfiles/place_api/icons/school-71.png",
        "id": "ce819da041045bd37b286f884ca5d5e2b45f5583",
        "name": "Lebeko High School",
        "place_id": "ChIJWSDTOLRwwx4Rs9ubP-oLi7M",
        "plus_code": {
            "compound_code": "3X3W+MW Phalaborwa, South Africa",
            "global_code": "5G8G3X3W+MW"
        },
        "rating": 5,
        "reference": "ChIJWSDTOLRwwx4Rs9ubP-oLi7M",
        "types": [
            "point_of_interest",
            "school",
            "establishment"
        ]
    },
    "Rixile Education Centre": {
        "formatted_address": "373 Bridgeway Street, Lulekani-B, Phalaborwa, 1392, South Africa",
        "geometry": {
            "location": {
                "lat": -23.8668356,
                "lng": 31.0836606
            },
            "viewport": {
                "northeast": {
                    "lat": -23.86548577010727,
                    "lng": 31.08501042989272
                },
                "southwest": {
                    "lat": -23.86818542989272,
                    "lng": 31.08231077010727
                }
            }
        },
        "icon": "https://maps.gstatic.com/mapfiles/place_api/icons/school-71.png",
        "id": "7561cef02a8a0b312895b116f1171443be24ce2f",
        "name": "Rixile Education Centre",
        "opening_hours": {
            "open_now": true
        },
        "place_id": "ChIJf891QCxlwx4Rh1lXpcgREPQ",
        "plus_code": {
            "compound_code": "43MM+7F Phalaborwa, South Africa",
            "global_code": "5G8H43MM+7F"
        },
        "rating": 5,
        "reference": "ChIJf891QCxlwx4Rh1lXpcgREPQ",
        "types": [
            "school",
            "point_of_interest",
            "establishment"
        ]
    },
    "Ntshuxeko High School": {
        "formatted_address": "Ben Farm, Phalaborwa, South Africa",
        "geometry": {
            "location": {
                "lat": -23.9049406,
                "lng": 31.0460953
            },
            "viewport": {
                "northeast": {
                    "lat": -23.90359077010728,
                    "lng": 31.04744512989271
                },
                "southwest": {
                    "lat": -23.90629042989272,
                    "lng": 31.04474547010727
                }
            }
        },
        "icon": "https://maps.gstatic.com/mapfiles/place_api/icons/school-71.png",
        "id": "20156b6200a640f1a5514034a2c7133b85ec30a1",
        "name": "Ntshuxeko High School",
        "place_id": "ChIJK3J3-Jp6wx4RKWO8xQ7TVLc",
        "plus_code": {
            "compound_code": "32WW+2C Phalaborwa, South Africa",
            "global_code": "5G8H32WW+2C"
        },
        "rating": 4.3,
        "reference": "ChIJK3J3-Jp6wx4RKWO8xQ7TVLc",
        "types": [
            "point_of_interest",
            "school",
            "establishment"
        ]
    },
    "Sebalamakgolo High School": {
        "formatted_address": "1336 Walter Sisulu St, Namakgale-A, Phalaborwa, 1391, South Africa",
        "geometry": {
            "location": {
                "lat": -23.9383681,
                "lng": 31.0405787
            },
            "viewport": {
                "northeast": {
                    "lat": -23.93701827010727,
                    "lng": 31.04192852989272
                },
                "southwest": {
                    "lat": -23.93971792989272,
                    "lng": 31.03922887010727
                }
            }
        },
        "icon": "https://maps.gstatic.com/mapfiles/place_api/icons/school-71.png",
        "id": "5b1ff835c2c5ca08a7881c5bf60a3ad522e50c41",
        "name": "Sebalamakgolo High School",
        "place_id": "ChIJpXAXOVxwwx4RQMh6zB2lrnE",
        "plus_code": {
            "compound_code": "326R+M6 Phalaborwa, South Africa",
            "global_code": "5G8H326R+M6"
        },
        "rating": 3.3,
        "reference": "ChIJpXAXOVxwwx4RQMh6zB2lrnE",
        "types": [
            "point_of_interest",
            "school",
            "establishment"
        ]
    },
    "Namakgale Primary School": {
        "formatted_address": "1410 Jealous St, Namakgale-A, Phalaborwa, 1391, South Africa",
        "geometry": {
            "location": {
                "lat": -23.9384285,
                "lng": 31.0439102
            },
            "viewport": {
                "northeast": {
                    "lat": -23.93707867010728,
                    "lng": 31.04526002989272
                },
                "southwest": {
                    "lat": -23.93977832989272,
                    "lng": 31.04256037010728
                }
            }
        },
        "icon": "https://maps.gstatic.com/mapfiles/place_api/icons/school-71.png",
        "id": "dbdfc35cc9eee831267d133b8d1453b7a7490ffd",
        "name": "Namakgale Primary School",
        "place_id": "ChIJvcTTt1xwwx4R8sZN98tRCx0",
        "plus_code": {
            "compound_code": "326V+JH Phalaborwa, South Africa",
            "global_code": "5G8H326V+JH"
        },
        "rating": 4.1,
        "reference": "ChIJvcTTt1xwwx4R8sZN98tRCx0",
        "types": [
            "point_of_interest",
            "school",
            "establishment"
        ]
    },
    "Relebogile High School": {
        "formatted_address": "Namakgale-B, Phalaborwa, 1391, South Africa",
        "geometry": {
            "location": {
                "lat": -23.9269554,
                "lng": 31.0304792
            },
            "viewport": {
                "northeast": {
                    "lat": -23.92560557010728,
                    "lng": 31.03182902989272
                },
                "southwest": {
                    "lat": -23.92830522989272,
                    "lng": 31.02912937010728
                }
            }
        },
        "icon": "https://maps.gstatic.com/mapfiles/place_api/icons/school-71.png",
        "id": "9e8d99d8900d2d7c7035b2159d76407bf36b5124",
        "name": "Relebogile High School",
        "place_id": "ChIJmzt89ohwwx4RP5JR2xMir4I",
        "plus_code": {
            "compound_code": "32FJ+65 Phalaborwa, South Africa",
            "global_code": "5G8H32FJ+65"
        },
        "rating": 4,
        "reference": "ChIJmzt89ohwwx4RP5JR2xMir4I",
        "types": [
            "point_of_interest",
            "school",
            "establishment"
        ]
    },
    "Modume Primary School": {
        "formatted_address": "Mashishimale, Phalaborwa, 1395, South Africa",
        "geometry": {
            "location": {
                "lat": -23.9908,
                "lng": 30.99
            },
            "viewport": {
                "northeast": {
                    "lat": -23.98945017010728,
                    "lng": 30.99134982989272
                },
                "southwest": {
                    "lat": -23.99214982989272,
                    "lng": 30.98865017010727
                }
            }
        },
        "icon": "https://maps.gstatic.com/mapfiles/place_api/icons/school-71.png",
        "id": "e583da49517429774a60da65869685cb09a6c6af",
        "name": "Modume Primary School",
        "place_id": "ChIJAfZSBEtxwx4R3GMD1w4qau8",
        "plus_code": {
            "compound_code": "2X5R+M2 Phalaborwa, South Africa",
            "global_code": "5G8G2X5R+M2"
        },
        "rating": 3.5,
        "reference": "ChIJAfZSBEtxwx4R3GMD1w4qau8",
        "types": [
            "point_of_interest",
            "school",
            "establishment"
        ]
    },
    "Rethusitswe Primary School": {
        "formatted_address": "405 Letswiswe St, Namakgale-D, Phalaborwa, 1391, South Africa",
        "geometry": {
            "location": {
                "lat": -23.9467946,
                "lng": 31.039659
            },
            "viewport": {
                "northeast": {
                    "lat": -23.94544477010728,
                    "lng": 31.04100882989272
                },
                "southwest": {
                    "lat": -23.94814442989272,
                    "lng": 31.03830917010728
                }
            }
        },
        "icon": "https://maps.gstatic.com/mapfiles/place_api/icons/school-71.png",
        "id": "92c3bc4b9d84e993d62876124f5a3ca75ba57c5d",
        "name": "Rethusitswe Primary School",
        "place_id": "ChIJdfARSldwwx4RxHGQQLrviGk",
        "plus_code": {
            "compound_code": "323Q+7V Phalaborwa, South Africa",
            "global_code": "5G8H323Q+7V"
        },
        "rating": 3.4,
        "reference": "ChIJdfARSldwwx4RxHGQQLrviGk",
        "types": [
            "point_of_interest",
            "school",
            "establishment"
        ]
    },
    "Schiettocht Combined School": {
        "formatted_address": "Phalaborwa, 1390, South Africa",
        "geometry": {
            "location": {
                "lat": -23.9149299,
                "lng": 31.1071
            },
            "viewport": {
                "northeast": {
                    "lat": -23.91358007010728,
                    "lng": 31.10844982989272
                },
                "southwest": {
                    "lat": -23.91627972989272,
                    "lng": 31.10575017010728
                }
            }
        },
        "icon": "https://maps.gstatic.com/mapfiles/place_api/icons/school-71.png",
        "id": "2b97a2d0f3735083049c87f7cc24d3a9835af6ca",
        "name": "Schiettocht Combined School",
        "place_id": "ChIJ60GkPZRvwx4RDjzMIA1zFKs",
        "plus_code": {
            "compound_code": "34P4+2R Phalaborwa, South Africa",
            "global_code": "5G8H34P4+2R"
        },
        "rating": 4.7,
        "reference": "ChIJ60GkPZRvwx4RDjzMIA1zFKs",
        "types": [
            "school",
            "point_of_interest",
            "establishment"
        ]
    },
    "Maphokwane Secondary School": {
        "formatted_address": "Ga-Mashishimale, Phalaborwa, South Africa",
        "geometry": {
            "location": {
                "lat": -23.97008,
                "lng": 30.98963
            },
            "viewport": {
                "northeast": {
                    "lat": -23.96873017010727,
                    "lng": 30.99097982989272
                },
                "southwest": {
                    "lat": -23.97142982989272,
                    "lng": 30.98828017010728
                }
            }
        },
        "icon": "https://maps.gstatic.com/mapfiles/place_api/icons/school-71.png",
        "id": "fb1bdb95fa2a6f9614aabec075055d573a16ab75",
        "name": "Maphokwane Secondary School",
        "place_id": "ChIJX44uEitxwx4R9lYs4PNmsOw",
        "plus_code": {
            "compound_code": "2XHQ+XV Phalaborwa, South Africa",
            "global_code": "5G8G2XHQ+XV"
        },
        "rating": 5,
        "reference": "ChIJX44uEitxwx4R9lYs4PNmsOw",
        "types": [
            "point_of_interest",
            "school",
            "establishment"
        ]
    },
    "Biko Primary School": {
        "formatted_address": "Lulekani, 1392, South Africa",
        "geometry": {
            "location": {
                "lat": -23.8557483,
                "lng": 31.0651847
            },
            "viewport": {
                "northeast": {
                    "lat": -23.85439847010728,
                    "lng": 31.06653452989272
                },
                "southwest": {
                    "lat": -23.85709812989272,
                    "lng": 31.06383487010728
                }
            }
        },
        "icon": "https://maps.gstatic.com/mapfiles/place_api/icons/school-71.png",
        "id": "4049a7a11acd5e2dedb11f89d23d1a6962182f85",
        "name": "Biko Primary School",
        "place_id": "ChIJEUhcakF7wx4RJ3HUJhenlvk",
        "plus_code": {
            "compound_code": "43V8+P3 Phalaborwa, South Africa",
            "global_code": "5G8H43V8+P3"
        },
        "rating": 0,
        "reference": "ChIJEUhcakF7wx4RJ3HUJhenlvk",
        "types": [
            "school",
            "point_of_interest",
            "establishment"
        ]
    },
    "Mashabela Primary School": {
        "formatted_address": "546, Ben Farm, Phalaborwa, South Africa",
        "geometry": {
            "location": {
                "lat": -23.89831,
                "lng": 31.04161
            },
            "viewport": {
                "northeast": {
                    "lat": -23.89696017010727,
                    "lng": 31.04295982989272
                },
                "southwest": {
                    "lat": -23.89965982989272,
                    "lng": 31.04026017010728
                }
            }
        },
        "icon": "https://maps.gstatic.com/mapfiles/place_api/icons/school-71.png",
        "id": "09f1710df3db31588edb24a9c9e9c47f71e5758f",
        "name": "Mashabela Primary School",
        "place_id": "ChIJZSp65I56wx4Ru2cvRY2VlaQ",
        "plus_code": {
            "compound_code": "422R+MJ Phalaborwa, South Africa",
            "global_code": "5G8H422R+MJ"
        },
        "rating": 1.5,
        "reference": "ChIJZSp65I56wx4Ru2cvRY2VlaQ",
        "types": [
            "point_of_interest",
            "school",
            "establishment"
        ]
    },
    "Phalaborwa Noord State Aided Primary School": {
        "formatted_address": "25 Kierieklapper St, Phalaborwa, 1390, South Africa",
        "geometry": {
            "location": {
                "lat": -23.9372649,
                "lng": 31.1349855
            },
            "viewport": {
                "northeast": {
                    "lat": -23.93591547010728,
                    "lng": 31.13631927989272
                },
                "southwest": {
                    "lat": -23.93861512989272,
                    "lng": 31.13361962010728
                }
            }
        },
        "icon": "https://maps.gstatic.com/mapfiles/place_api/icons/school-71.png",
        "id": "4fa9057780d617d0ea457a260a7536db7080873c",
        "name": "Phalaborwa Noord State Aided Primary School",
        "place_id": "ChIJK6SZ6Pxuwx4RT50K2F4MsLc",
        "plus_code": {
            "compound_code": "347M+3X Phalaborwa, South Africa",
            "global_code": "5G8H347M+3X"
        },
        "rating": 0,
        "reference": "ChIJK6SZ6Pxuwx4RT50K2F4MsLc",
        "types": [
            "point_of_interest",
            "school",
            "establishment"
        ]
    },
    "Mashishimale Primary School": {
        "formatted_address": "Phalaborwa, 1390, South Africa",
        "geometry": {
            "location": {
                "lat": -23.9683299,
                "lng": 30.98728
            },
            "viewport": {
                "northeast": {
                    "lat": -23.96698007010728,
                    "lng": 30.98862982989272
                },
                "southwest": {
                    "lat": -23.96967972989273,
                    "lng": 30.98593017010727
                }
            }
        },
        "icon": "https://maps.gstatic.com/mapfiles/place_api/icons/school-71.png",
        "id": "cddf4024e37d3a92ae80e1e50d38b7632939bcc0",
        "name": "Mashishimale Primary School",
        "place_id": "ChIJi77fNdV2wx4R0v7z5JHvw6k",
        "plus_code": {
            "compound_code": "2XJP+MW Phalaborwa, South Africa",
            "global_code": "5G8G2XJP+MW"
        },
        "rating": 4,
        "reference": "ChIJi77fNdV2wx4R0v7z5JHvw6k",
        "types": [
            "point_of_interest",
            "school",
            "establishment"
        ]
    },
    "Laerskool Phalaborwa": {
        "formatted_address": "35 Mopanie St, Phalaborwa, 1390, South Africa",
        "geometry": {
            "location": {
                "lat": -23.948964,
                "lng": 31.1406099
            },
            "viewport": {
                "northeast": {
                    "lat": -23.94717772010728,
                    "lng": 31.14209747989273
                },
                "southwest": {
                    "lat": -23.94987737989272,
                    "lng": 31.13939782010728
                }
            }
        },
        "icon": "https://maps.gstatic.com/mapfiles/place_api/icons/school-71.png",
        "id": "d14b583f2eec230d26f2b5c31fa10874d8137a97",
        "name": "Laerskool Phalaborwa",
        "photos": [
            {
                "height": 3264,
                "html_attributions": [
                    "<a href=\"https://maps.google.com/maps/contrib/103152762431149243660/photos\">Wentzel Coetzer</a>"
                ],
                "photo_reference": "CmRaAAAAHAuIO7zSaw0ndqSOKctNRfHS9i4DZUxA_28cntM76zT0beV1X29bmtv5gl1YxrdXc9Ns3SGMMVUyDS_4H1aXFsothczMlUK9CCuEHelmzOsmCi0jlK51GDfbC13dAFjwEhBGVmKGCuLYGX8Rs-7XU0aHGhQI6Pn214iFaiOA00zcNE78Ctb6Qw",
                "width": 2448
            }
        ],
        "place_id": "ChIJ3WKW7uVuwx4RgHMjwkoUY_0",
        "plus_code": {
            "compound_code": "342R+C6 Phalaborwa, South Africa",
            "global_code": "5G8H342R+C6"
        },
        "rating": 3.9,
        "reference": "ChIJ3WKW7uVuwx4RgHMjwkoUY_0",
        "types": [
            "point_of_interest",
            "school",
            "establishment"
        ]
    },
    "Meridian College Phalaborwa C C": {
        "formatted_address": "Phalaborwa, 1390, South Africa",
        "geometry": {
            "location": {
                "lat": -23.9529825,
                "lng": 31.13884059999999
            },
            "viewport": {
                "northeast": {
                    "lat": -23.95163267010728,
                    "lng": 31.14019042989273
                },
                "southwest": {
                    "lat": -23.95433232989272,
                    "lng": 31.13749077010728
                }
            }
        },
        "icon": "https://maps.gstatic.com/mapfiles/place_api/icons/school-71.png",
        "id": "a40c833c666fa0219b2a9516688a0e1e7dba8556",
        "name": "Meridian College Phalaborwa C C",
        "place_id": "ChIJlZ__I-1uwx4R71kh5Ai1Oo8",
        "plus_code": {
            "compound_code": "24WQ+RG Phalaborwa, South Africa",
            "global_code": "5G8H24WQ+RG"
        },
        "rating": 4.2,
        "reference": "ChIJlZ__I-1uwx4R71kh5Ai1Oo8",
        "types": [
            "school",
            "point_of_interest",
            "establishment"
        ]
    },
    "Matome-Malatji High School": {
        "formatted_address": "Phalaborwa, 1390, South Africa",
        "geometry": {
            "location": {
                "lat": -23.9930703,
                "lng": 31.0128742
            },
            "viewport": {
                "northeast": {
                    "lat": -23.99172047010728,
                    "lng": 31.01422402989272
                },
                "southwest": {
                    "lat": -23.99442012989273,
                    "lng": 31.01152437010727
                }
            }
        },
        "icon": "https://maps.gstatic.com/mapfiles/place_api/icons/school-71.png",
        "id": "9d2ec29381098fd53a2ba03598f2f4a6762194c4",
        "name": "Matome-Malatji High School",
        "place_id": "ChIJDY2AKkJxwx4R86aNW63IQyQ",
        "plus_code": {
            "compound_code": "2247+Q4 Phalaborwa, South Africa",
            "global_code": "5G8H2247+Q4"
        },
        "rating": 5,
        "reference": "ChIJDY2AKkJxwx4R86aNW63IQyQ",
        "types": [
            "point_of_interest",
            "school",
            "establishment"
        ]
    },
    "Kgopsane Primary School": {
        "formatted_address": "Namakgale-B, Phalaborwa, 1391, South Africa",
        "geometry": {
            "location": {
                "lat": -23.9323484,
                "lng": 31.0443569
            },
            "viewport": {
                "northeast": {
                    "lat": -23.93099857010728,
                    "lng": 31.04570672989272
                },
                "southwest": {
                    "lat": -23.93369822989272,
                    "lng": 31.04300707010728
                }
            }
        },
        "icon": "https://maps.gstatic.com/mapfiles/place_api/icons/school-71.png",
        "id": "05f51f7dc8e7d991654fd85eeb81ebbc5d78c086",
        "name": "Kgopsane Primary School",
        "place_id": "ChIJ3_tzhmRwwx4RICv5Sv2EcVU",
        "plus_code": {
            "compound_code": "329V+3P Phalaborwa, South Africa",
            "global_code": "5G8H329V+3P"
        },
        "rating": 3.3,
        "reference": "ChIJ3_tzhmRwwx4RICv5Sv2EcVU",
        "types": [
            "point_of_interest",
            "school",
            "establishment"
        ]
    },
    "Shiphamele Primary School": {
        "formatted_address": "Phalaborwa, 1390, South Africa",
        "geometry": {
            "location": {
                "lat": -23.8652999,
                "lng": 31.05248
            },
            "viewport": {
                "northeast": {
                    "lat": -23.86395007010728,
                    "lng": 31.05382982989272
                },
                "southwest": {
                    "lat": -23.86664972989272,
                    "lng": 31.05113017010728
                }
            }
        },
        "icon": "https://maps.gstatic.com/mapfiles/place_api/icons/school-71.png",
        "id": "44a64e806c7a8e2da0f1758553eb7ab0709e87e5",
        "name": "Shiphamele Primary School",
        "place_id": "ChIJwdX2Qx57wx4RkmfMdcg_2Q4",
        "plus_code": {
            "compound_code": "43M2+VX Phalaborwa, South Africa",
            "global_code": "5G8H43M2+VX"
        },
        "rating": 3,
        "reference": "ChIJwdX2Qx57wx4RkmfMdcg_2Q4",
        "types": [
            "point_of_interest",
            "school",
            "establishment"
        ]
    },
    "Zamani Primary School": {
        "formatted_address": "Phalaborwa, 1390, South Africa",
        "geometry": {
            "location": {
                "lat": -23.9292585,
                "lng": 31.0377945
            },
            "viewport": {
                "northeast": {
                    "lat": -23.92790867010728,
                    "lng": 31.03914432989272
                },
                "southwest": {
                    "lat": -23.93060832989272,
                    "lng": 31.03644467010728
                }
            }
        },
        "icon": "https://maps.gstatic.com/mapfiles/place_api/icons/school-71.png",
        "id": "6252c9146a7e38e34b74d7d29849d530f35ab739",
        "name": "Zamani Primary School",
        "place_id": "ChIJVQtpK31wwx4RBvdQuwU_HyE",
        "plus_code": {
            "compound_code": "32CQ+74 Phalaborwa, South Africa",
            "global_code": "5G8H32CQ+74"
        },
        "rating": 0,
        "reference": "ChIJVQtpK31wwx4RBvdQuwU_HyE",
        "types": [
            "point_of_interest",
            "school",
            "establishment"
        ]
    },
    "Lepato M. High School": {
        "formatted_address": "Ga-Makhushane, Phalaborwa, South Africa",
        "geometry": {
            "location": {
                "lat": -23.975577,
                "lng": 31.0452187
            },
            "viewport": {
                "northeast": {
                    "lat": -23.97422717010728,
                    "lng": 31.04656852989272
                },
                "southwest": {
                    "lat": -23.97692682989272,
                    "lng": 31.04386887010727
                }
            }
        },
        "icon": "https://maps.gstatic.com/mapfiles/place_api/icons/school-71.png",
        "id": "f4c5352e27f2fa7b3dbc40b4e7052b4afab7b5cd",
        "name": "Lepato M. High School",
        "photos": [
            {
                "height": 640,
                "html_attributions": [
                    "<a href=\"https://maps.google.com/maps/contrib/112565951045764857764/photos\">Nthabokheni Botang Lucas</a>"
                ],
                "photo_reference": "CmRaAAAARk9Xx_h_NGL5pAA4x3jGMYQre9M8eFQPp-klwT5Y1PykqXJ4brQOAlX8DmuoLiKKevvz3bRGPOavaXKYLP3kRp9IhyAIPdgznaTjwUvQbeEwdHrteShE-e3ebFEgVLAYEhCR15ampNjsrso4inUl69aXGhSemukMkkonnB828Gf4Gm3i2AKJfQ",
                "width": 640
            }
        ],
        "place_id": "ChIJgXH7_Jdxwx4RBSzXGuv34V0",
        "plus_code": {
            "compound_code": "22FW+Q3 Phalaborwa, South Africa",
            "global_code": "5G8H22FW+Q3"
        },
        "rating": 5,
        "reference": "ChIJgXH7_Jdxwx4RBSzXGuv34V0",
        "types": [
            "point_of_interest",
            "school",
            "establishment"
        ]
    },
    "Laerskool Phalaborwa Noord": {
        "formatted_address": "Horsewood St, Phalaborwa, 1390, South Africa",
        "geometry": {
            "location": {
                "lat": -23.9371871,
                "lng": 31.1354795
            },
            "viewport": {
                "northeast": {
                    "lat": -23.93594927010728,
                    "lng": 31.13683312989272
                },
                "southwest": {
                    "lat": -23.93864892989272,
                    "lng": 31.13413347010728
                }
            }
        },
        "icon": "https://maps.gstatic.com/mapfiles/place_api/icons/school-71.png",
        "id": "7a1fdcb4adae6f4ebfb0f17bd7f1e5bfe4c8d834",
        "name": "Laerskool Phalaborwa Noord",
        "place_id": "ChIJC4K3If1uwx4R1slB0jMlmvE",
        "plus_code": {
            "compound_code": "347P+45 Phalaborwa, South Africa",
            "global_code": "5G8H347P+45"
        },
        "rating": 4.5,
        "reference": "ChIJC4K3If1uwx4R1slB0jMlmvE",
        "types": [
            "point_of_interest",
            "school",
            "establishment"
        ]
    },
    "Chuchekani Primary School": {
        "formatted_address": "Phalaborwa, 1390, South Africa",
        "geometry": {
            "location": {
                "lat": -23.8781699,
                "lng": 31.06142
            },
            "viewport": {
                "northeast": {
                    "lat": -23.87682007010728,
                    "lng": 31.06276982989272
                },
                "southwest": {
                    "lat": -23.87951972989272,
                    "lng": 31.06007017010728
                }
            }
        },
        "icon": "https://maps.gstatic.com/mapfiles/place_api/icons/school-71.png",
        "id": "5117ab5d06e323e44df8797f3f9918a64818feb8",
        "name": "Chuchekani Primary School",
        "photos": [
            {
                "height": 1296,
                "html_attributions": [
                    "<a href=\"https://maps.google.com/maps/contrib/114289205341469841042/photos\">Mapaketakawaltershai Mapaketakawaltershai</a>"
                ],
                "photo_reference": "CmRaAAAA0SO0bptqsGVUraFBm7VjDpz4Nv6crx0u1QcHiscY3xjyLoOjTnd9ryhftssvBYN6bplouvT3qIrPdW2A9uJpr-X4cNtLveIxqRffdxkA6WkasauQhK_ThQf0yAkc7N6OEhBDwYyeH_SqOgQgr4WNHuJdGhR4I0O2OhjWxo8sS1-vmoDq9oUIQg",
                "width": 972
            }
        ],
        "place_id": "ChIJTzx6d8N6wx4Ri6MX0QO1-Vo",
        "plus_code": {
            "compound_code": "43C6+PH Phalaborwa, South Africa",
            "global_code": "5G8H43C6+PH"
        },
        "rating": 1,
        "reference": "ChIJTzx6d8N6wx4Ri6MX0QO1-Vo",
        "types": [
            "point_of_interest",
            "school",
            "establishment"
        ]
    },
    "Vuxeni Senior Secondary School": {
        "formatted_address": "1813 Love St, Namakgale-A, Phalaborwa, 1391, South Africa",
        "geometry": {
            "location": {
                "lat": -23.9394604,
                "lng": 31.03618549999999
            },
            "viewport": {
                "northeast": {
                    "lat": -23.93811057010728,
                    "lng": 31.03753532989272
                },
                "southwest": {
                    "lat": -23.94081022989272,
                    "lng": 31.03483567010727
                }
            }
        },
        "icon": "https://maps.gstatic.com/mapfiles/place_api/icons/school-71.png",
        "id": "f435c91ec8d3f4b0dbc0c3f75f1ba25687a6745d",
        "name": "Vuxeni Senior Secondary School",
        "place_id": "ChIJPfQh4V5wwx4RBTsJHy6yuDA",
        "plus_code": {
            "compound_code": "326P+6F Phalaborwa, South Africa",
            "global_code": "5G8H326P+6F"
        },
        "rating": 4.3,
        "reference": "ChIJPfQh4V5wwx4RBTsJHy6yuDA",
        "types": [
            "point_of_interest",
            "school",
            "establishment"
        ]
    },
    "Gaza Lower Primary School": {
        "formatted_address": "1805 Impala Ave, Namakgale-A, Phalaborwa, 1391, South Africa",
        "geometry": {
            "location": {
                "lat": -23.942612,
                "lng": 31.047481
            },
            "viewport": {
                "northeast": {
                    "lat": -23.94126217010728,
                    "lng": 31.04883082989272
                },
                "southwest": {
                    "lat": -23.94396182989273,
                    "lng": 31.04613117010728
                }
            }
        },
        "icon": "https://maps.gstatic.com/mapfiles/place_api/icons/school-71.png",
        "id": "6adf62a3df59d5de5553e432231c0163afeac2d9",
        "name": "Gaza Lower Primary School",
        "place_id": "ChIJn09zBUVwwx4RWz1NcEtk6Ik",
        "plus_code": {
            "compound_code": "324W+XX Phalaborwa, South Africa",
            "global_code": "5G8H324W+XX"
        },
        "rating": 5,
        "reference": "ChIJn09zBUVwwx4RWz1NcEtk6Ik",
        "types": [
            "point_of_interest",
            "school",
            "establishment"
        ]
    },
    "Refiloe Primary School": {
        "formatted_address": "2571 Halfway St, Namakgale-B, Phalaborwa, 1391, South Africa",
        "geometry": {
            "location": {
                "lat": -23.9264999,
                "lng": 31.03048
            },
            "viewport": {
                "northeast": {
                    "lat": -23.92515007010728,
                    "lng": 31.03182982989273
                },
                "southwest": {
                    "lat": -23.92784972989272,
                    "lng": 31.02913017010728
                }
            }
        },
        "icon": "https://maps.gstatic.com/mapfiles/place_api/icons/school-71.png",
        "id": "db411c23a7b8773ef01a283658b1ef25e01df7ce",
        "name": "Refiloe Primary School",
        "photos": [
            {
                "height": 4128,
                "html_attributions": [
                    "<a href=\"https://maps.google.com/maps/contrib/106868206007181648490/photos\">A Google User</a>"
                ],
                "photo_reference": "CmRaAAAAt9Wj3NrMXq07xNdWRm3YRJ6U49HSo8RxO9ZIlZRyFFgXp3vmEaUHYQFX0P_9-EwRHJYrhvXsanyutnRsTqCpW-6o4OxYc9zQ4U3tsBtHIxpfTOUXWMgV2K5URpZJFI2aEhAeHToWO3VOvOSgKGNfKyf1GhTBSeUpcryXyjImNlg1Dv896CsGVA",
                "width": 3096
            }
        ],
        "place_id": "ChIJKRThiohwwx4R6ygNbiV0wD4",
        "plus_code": {
            "compound_code": "32FJ+C5 Phalaborwa, South Africa",
            "global_code": "5G8H32FJ+C5"
        },
        "rating": 0,
        "reference": "ChIJKRThiohwwx4R6ygNbiV0wD4",
        "types": [
            "point_of_interest",
            "school",
            "establishment"
        ]
    },
    "Rethabile Primary": {
        "formatted_address": "Namakgale-C, Phalaborwa, 1391, South Africa",
        "geometry": {
            "location": {
                "lat": -23.92243,
                "lng": 31.01907
            },
            "viewport": {
                "northeast": {
                    "lat": -23.92108017010728,
                    "lng": 31.02041982989272
                },
                "southwest": {
                    "lat": -23.92377982989272,
                    "lng": 31.01772017010727
                }
            }
        },
        "icon": "https://maps.gstatic.com/mapfiles/place_api/icons/school-71.png",
        "id": "4abeb270bc4a84417cbbe907e7a7ecbd29e89f46",
        "name": "Rethabile Primary",
        "photos": [
            {
                "height": 800,
                "html_attributions": [
                    "<a href=\"https://maps.google.com/maps/contrib/116657352354889044722/photos\">Vicent Mashele</a>"
                ],
                "photo_reference": "CmRaAAAAbD003MXxGM-sxeZtq8GnZ1GPZmGa8ne3oEzHkcG0u_rmW4iqUd5GozY77BkUbGTmbUec0edVsroESgw7GE_9a_7qnydiMOjBS1B-P556d0lv3HLoQOQ8YbTX5hdATe8KEhC5R4gUdLBAaoAq1MCSxNqYGhQ3SeLDGED64KasVkffEHaTVI5X8A",
                "width": 600
            }
        ],
        "place_id": "ChIJ4XOSf5xwwx4RWcGP5Rw_p34",
        "plus_code": {
            "compound_code": "32H9+2J Phalaborwa, South Africa",
            "global_code": "5G8H32H9+2J"
        },
        "rating": 5,
        "reference": "ChIJ4XOSf5xwwx4RWcGP5Rw_p34",
        "types": [
            "point_of_interest",
            "school",
            "establishment"
        ]
    },
    "Stanbury Higher Primary School": {
        "formatted_address": "Namakgale-D, Phalaborwa, 1391, South Africa",
        "geometry": {
            "location": {
                "lat": -23.94118,
                "lng": 31.03563
            },
            "viewport": {
                "northeast": {
                    "lat": -23.93983017010727,
                    "lng": 31.03697982989272
                },
                "southwest": {
                    "lat": -23.94252982989272,
                    "lng": 31.03428017010727
                }
            }
        },
        "icon": "https://maps.gstatic.com/mapfiles/place_api/icons/school-71.png",
        "id": "b1ebbfafc3ea7afe949673e787448de56195c333",
        "name": "Stanbury Higher Primary School",
        "place_id": "ChIJH81Ow1hwwx4RSu0fbzVcuUQ",
        "plus_code": {
            "compound_code": "325P+G7 Phalaborwa, South Africa",
            "global_code": "5G8H325P+G7"
        },
        "rating": 0,
        "reference": "ChIJH81Ow1hwwx4RSu0fbzVcuUQ",
        "types": [
            "point_of_interest",
            "school",
            "establishment"
        ]
    },
    "Selati Hospitality Training Academy": {
        "formatted_address": "Potgieter St, Phalaborwa, 1390, South Africa",
        "geometry": {
            "location": {
                "lat": -23.9447625,
                "lng": 31.1295676
            },
            "viewport": {
                "northeast": {
                    "lat": -23.94328832010728,
                    "lng": 31.13084752989272
                },
                "southwest": {
                    "lat": -23.94598797989272,
                    "lng": 31.12814787010727
                }
            }
        },
        "icon": "https://maps.gstatic.com/mapfiles/place_api/icons/school-71.png",
        "id": "ddb5ed414e2a90c7d5e851897f945ff6d63ffd4c",
        "name": "Selati Hospitality Training Academy",
        "opening_hours": {
            "open_now": true
        },
        "place_id": "ChIJ8Vkc6vluwx4RCH12oYLy4Rw",
        "plus_code": {
            "compound_code": "344H+3R Phalaborwa, South Africa",
            "global_code": "5G8H344H+3R"
        },
        "rating": 0,
        "reference": "ChIJ8Vkc6vluwx4RCH12oYLy4Rw",
        "types": [
            "school",
            "point_of_interest",
            "establishment"
        ]
    },
    "Mhalamhala Higher Primary School": {
        "formatted_address": "481 Stimela Street, Namakgale-A, Phalaborwa, 1391, South Africa",
        "geometry": {
            "location": {
                "lat": -23.9412401,
                "lng": 31.0462471
            },
            "viewport": {
                "northeast": {
                    "lat": -23.93976172010728,
                    "lng": 31.04798557989272
                },
                "southwest": {
                    "lat": -23.94246137989272,
                    "lng": 31.04528592010728
                }
            }
        },
        "icon": "https://maps.gstatic.com/mapfiles/place_api/icons/school-71.png",
        "id": "e3741ebb3d709416303d6f8d513d4a6c8ef3ccd2",
        "name": "Mhalamhala Higher Primary School",
        "place_id": "ChIJzxmjHkVwwx4RZg3AODLtts0",
        "plus_code": {
            "compound_code": "325W+GF Phalaborwa, South Africa",
            "global_code": "5G8H325W+GF"
        },
        "rating": 5,
        "reference": "ChIJzxmjHkVwwx4RZg3AODLtts0",
        "types": [
            "point_of_interest",
            "school",
            "establishment"
        ]
    },
    "B.N. Ntsanwisi Primary School": {
        "formatted_address": "Phalaborwa, 1390, South Africa",
        "geometry": {
            "location": {
                "lat": -23.9066037,
                "lng": 31.0548306
            },
            "viewport": {
                "northeast": {
                    "lat": -23.90525387010727,
                    "lng": 31.05618042989271
                },
                "southwest": {
                    "lat": -23.90795352989272,
                    "lng": 31.05348077010727
                }
            }
        },
        "icon": "https://maps.gstatic.com/mapfiles/place_api/icons/school-71.png",
        "id": "bf0a769463bbba55771d7e974d02065adb5f16af",
        "name": "B.N. Ntsanwisi Primary School",
        "opening_hours": {
            "open_now": true
        },
        "place_id": "ChIJualYoJ96wx4R3i5qmH3flK0",
        "plus_code": {
            "compound_code": "33V3+9W Phalaborwa, South Africa",
            "global_code": "5G8H33V3+9W"
        },
        "rating": 5,
        "reference": "ChIJualYoJ96wx4R3i5qmH3flK0",
        "types": [
            "point_of_interest",
            "school",
            "establishment"
        ]
    },
    "Bollanoto Primary School": {
        "formatted_address": "Ga-Makhushane, Phalaborwa, South Africa",
        "geometry": {
            "location": {
                "lat": -23.97672,
                "lng": 31.04045
            },
            "viewport": {
                "northeast": {
                    "lat": -23.97537017010728,
                    "lng": 31.04179982989272
                },
                "southwest": {
                    "lat": -23.97806982989272,
                    "lng": 31.03910017010728
                }
            }
        },
        "icon": "https://maps.gstatic.com/mapfiles/place_api/icons/school-71.png",
        "id": "764db42a32e3c50f44fe3e42e2e9f181cb5a3ab4",
        "name": "Bollanoto Primary School",
        "place_id": "ChIJJTDYo5hxwx4Rkhzcb4EyU_4",
        "plus_code": {
            "compound_code": "22FR+85 Phalaborwa, South Africa",
            "global_code": "5G8H22FR+85"
        },
        "rating": 2,
        "reference": "ChIJJTDYo5hxwx4Rkhzcb4EyU_4",
        "types": [
            "point_of_interest",
            "school",
            "establishment"
        ]
    },
    "BUSHVELD BETHEL CHRISTIAN ACADEMY": {
        "formatted_address": "64 Grosvenor St, Phalaborwa, 1390, South Africa",
        "geometry": {
            "location": {
                "lat": -23.937145,
                "lng": 31.139678
            },
            "viewport": {
                "northeast": {
                    "lat": -23.93589757010728,
                    "lng": 31.14096942989272
                },
                "southwest": {
                    "lat": -23.93859722989272,
                    "lng": 31.13826977010728
                }
            }
        },
        "icon": "https://maps.gstatic.com/mapfiles/place_api/icons/school-71.png",
        "id": "768c7546cb17576fb2026ef3534d762b52c7c0f2",
        "name": "BUSHVELD BETHEL CHRISTIAN ACADEMY",
        "place_id": "ChIJw-h6nuNuwx4R44v_DFCsm_8",
        "plus_code": {
            "compound_code": "347Q+4V Phalaborwa, South Africa",
            "global_code": "5G8H347Q+4V"
        },
        "rating": 5,
        "reference": "ChIJw-h6nuNuwx4R44v_DFCsm_8",
        "types": [
            "school",
            "point_of_interest",
            "establishment"
        ]
    },
    "Refentse Primary School": {
        "formatted_address": "461 Ronnie Kasrils St, Namakgale-E, Phalaborwa, 1391, South Africa",
        "geometry": {
            "location": {
                "lat": -23.9377316,
                "lng": 31.0200702
            },
            "viewport": {
                "northeast": {
                    "lat": -23.93638177010728,
                    "lng": 31.02142002989272
                },
                "southwest": {
                    "lat": -23.93908142989272,
                    "lng": 31.01872037010727
                }
            }
        },
        "icon": "https://maps.gstatic.com/mapfiles/place_api/icons/school-71.png",
        "id": "baef2d381818b4a6cafa56fbd4483e57226114ea",
        "name": "Refentse Primary School",
        "place_id": "ChIJV_ypz5Jwwx4RovmB8pzf_j8",
        "plus_code": {
            "compound_code": "326C+W2 Phalaborwa, South Africa",
            "global_code": "5G8H326C+W2"
        },
        "rating": 0,
        "reference": "ChIJV_ypz5Jwwx4RovmB8pzf_j8",
        "types": [
            "school",
            "point_of_interest",
            "establishment"
        ]
    },
    "Phulanibjihola Primary School": {
        "formatted_address": "Ben-A, Phalaborwa, South Africa",
        "geometry": {
            "location": {
                "lat": -23.9160282,
                "lng": 31.0347122
            },
            "viewport": {
                "northeast": {
                    "lat": -23.91467837010728,
                    "lng": 31.03606202989272
                },
                "southwest": {
                    "lat": -23.91737802989272,
                    "lng": 31.03336237010727
                }
            }
        },
        "icon": "https://maps.gstatic.com/mapfiles/place_api/icons/school-71.png",
        "id": "6b3b8bdde4180a0dbaf9a802c5f7cebf181277e0",
        "name": "Phulanibjihola Primary School",
        "place_id": "ChIJ6TPFy39wwx4RW0rZM2cBX6w",
        "plus_code": {
            "compound_code": "32MM+HV Phalaborwa, South Africa",
            "global_code": "5G8H32MM+HV"
        },
        "rating": 0,
        "reference": "ChIJ6TPFy39wwx4RW0rZM2cBX6w",
        "types": [
            "school",
            "point_of_interest",
            "establishment"
        ]
    },
    "Magnus Kleuterskool & Babasorg": {
        "formatted_address": "12 Mopanie St, Phalaborwa, 1390, South Africa",
        "geometry": {
            "location": {
                "lat": -23.9494577,
                "lng": 31.14679349999999
            },
            "viewport": {
                "northeast": {
                    "lat": -23.94819952010728,
                    "lng": 31.14811407989272
                },
                "southwest": {
                    "lat": -23.95089917989272,
                    "lng": 31.14541442010728
                }
            }
        },
        "icon": "https://maps.gstatic.com/mapfiles/place_api/icons/school-71.png",
        "id": "1b0ef5bf61459e1ee31289c9ed80d440bdf6d874",
        "name": "Magnus Kleuterskool & Babasorg",
        "place_id": "ChIJS-wSZ-puwx4RuwhzpIEwO0o",
        "plus_code": {
            "compound_code": "342W+6P Phalaborwa, South Africa",
            "global_code": "5G8H342W+6P"
        },
        "rating": 0,
        "reference": "ChIJS-wSZ-puwx4RuwhzpIEwO0o",
        "types": [
            "point_of_interest",
            "school",
            "establishment"
        ]
    },
    "Frangipani Dagsorg Sentrum Vir Gestremdes": {
        "formatted_address": "21 Essenhout St, Phalaborwa, 1389, South Africa",
        "geometry": {
            "location": {
                "lat": -23.947466,
                "lng": 31.145863
            },
            "viewport": {
                "northeast": {
                    "lat": -23.94600442010728,
                    "lng": 31.14724827989272
                },
                "southwest": {
                    "lat": -23.94870407989272,
                    "lng": 31.14454862010728
                }
            }
        },
        "icon": "https://maps.gstatic.com/mapfiles/place_api/icons/school-71.png",
        "id": "535d5e37aada423a14dbad21f730a797a9f2b787",
        "name": "Frangipani Dagsorg Sentrum Vir Gestremdes",
        "place_id": "ChIJZ90mKOpuwx4RrruJPLFsQ5Y",
        "plus_code": {
            "compound_code": "343W+28 Phalaborwa, South Africa",
            "global_code": "5G8H343W+28"
        },
        "rating": 0,
        "reference": "ChIJZ90mKOpuwx4RrruJPLFsQ5Y",
        "types": [
            "school",
            "point_of_interest",
            "establishment"
        ]
    },
    "Makhushane Lower Primary School": {
        "formatted_address": "Ga-Makhushane, Phalaborwa, South Africa",
        "geometry": {
            "location": {
                "lat": -23.976237,
                "lng": 31.0439549
            },
            "viewport": {
                "northeast": {
                    "lat": -23.97488717010727,
                    "lng": 31.04530472989272
                },
                "southwest": {
                    "lat": -23.97758682989272,
                    "lng": 31.04260507010728
                }
            }
        },
        "icon": "https://maps.gstatic.com/mapfiles/place_api/icons/school-71.png",
        "id": "06ad244e42816f9c6a64ad08f2db7a81c4cc2915",
        "name": "Makhushane Lower Primary School",
        "place_id": "ChIJKz8Hi0hxwx4R56UERJf_MWE",
        "plus_code": {
            "compound_code": "22FV+GH Phalaborwa, South Africa",
            "global_code": "5G8H22FV+GH"
        },
        "rating": 0,
        "reference": "ChIJKz8Hi0hxwx4R56UERJf_MWE",
        "types": [
            "school",
            "point_of_interest",
            "establishment"
        ]
    },
    "Ninakhulu Primary School": {
        "formatted_address": "Ben Farm, Phalaborwa, 1390, South Africa",
        "geometry": {
            "location": {
                "lat": -23.8877932,
                "lng": 31.0625443
            },
            "viewport": {
                "northeast": {
                    "lat": -23.88644337010728,
                    "lng": 31.06389412989272
                },
                "southwest": {
                    "lat": -23.88914302989272,
                    "lng": 31.06119447010727
                }
            }
        },
        "icon": "https://maps.gstatic.com/mapfiles/place_api/icons/school-71.png",
        "id": "8ba6cef1c8df52d8c846199d2f162604512445fb",
        "name": "Ninakhulu Primary School",
        "place_id": "ChIJofHSDWB7wx4R1kDQhQbjPrI",
        "plus_code": {
            "compound_code": "4367+V2 Phalaborwa, South Africa",
            "global_code": "5G8H4367+V2"
        },
        "rating": 0,
        "reference": "ChIJofHSDWB7wx4R1kDQhQbjPrI",
        "types": [
            "school",
            "point_of_interest",
            "establishment"
        ]
    },
    "Semendhe High School": {
        "formatted_address": "36 Wilger St, Phalaborwa, 1390, South Africa",
        "geometry": {
            "location": {
                "lat": -23.949247,
                "lng": 31.136633
            },
            "viewport": {
                "northeast": {
                    "lat": -23.94791057010728,
                    "lng": 31.13801377989272
                },
                "southwest": {
                    "lat": -23.95061022989272,
                    "lng": 31.13531412010727
                }
            }
        },
        "icon": "https://maps.gstatic.com/mapfiles/place_api/icons/school-71.png",
        "id": "8a322e0a884d963da8f6d2a691abe316c236cf48",
        "name": "Semendhe High School",
        "place_id": "ChIJqz8a_vFuwx4R_2Z5B01hCM0",
        "plus_code": {
            "compound_code": "342P+8M Phalaborwa, South Africa",
            "global_code": "5G8H342P+8M"
        },
        "rating": 0,
        "reference": "ChIJqz8a_vFuwx4R_2Z5B01hCM0",
        "types": [
            "school",
            "point_of_interest",
            "establishment"
        ]
    },
    "Mopani SE TVET College - Phalaborwa Campus": {
        "formatted_address": "Cnr Combretum & Haarlem Street, Combretum St, Phalaborwa, 1390, South Africa",
        "geometry": {
            "location": {
                "lat": -23.9420969,
                "lng": 31.1414455
            },