{
    "Moletsane High School": {
        "formatted_address": "1644, Moletsane, Soweto, 1868, South Africa",
        "geometry": {
            "location": {
                "lat": -26.2545499,
                "lng": 27.85119
            },
            "viewport": {
                "northeast": {
                    "lat": -26.25301487010728,
                    "lng": 27.85235747989272
                },
                "southwest": {
                    "lat": -26.25571452989272,
                    "lng": 27.84965782010728
                }
            }
        },
        "icon": "https://maps.gstatic.com/mapfiles/place_api/icons/school-71.png",
        "id": "694127120e5e5ee4d8484b15b829ecd4905040cd",
        "name": "Moletsane High School",
        "photos": [
            {
                "height": 480,
                "html_attributions": [
                    "<a href=\"https://maps.google.com/maps/contrib/115286946820380325692/photos\">A Google User</a>"
                ],
                "photo_reference": "CmRaAAAA-SaBtRSn_kbM6T5JHDELgBoRXJWdOqi-FjpCGPctPBnfGiAzkgZK_iTjX_77l4_T-W3vPEys0kC3u_mukl9j0_j-fGLJ5Qz3cSUPV7cj6PawTInOZrIICem0DHKRxn9sEhA8m2kPBhLFflRmjN3kifOaGhQcVDqOluvP1t8hu_rlN-FbBPMwFg",
                "width": 640
            }
        ],
        "place_id": "ChIJodq1JbmmlR4RWYXr9ncwt0U",
        "plus_code": {
            "compound_code": "PVW2+5F Soweto",
            "global_code": "5G59PVW2+5F"
        },
        "rating": 5,
        "reference": "ChIJodq1JbmmlR4RWYXr9ncwt0U",
        "types": [
            "secondary_school",
            "school",
            "point_of_interest",
            "establishment"
        ],
        "user_ratings_total": 4
    },
    "Naledi High School": {
        "formatted_address": "Nyakale St, Soweto, Johannesburg, 1868, South Africa",
        "geometry": {
            "location": {
                "lat": -26.2506089,
                "lng": 27.831194
            },
            "viewport": {
                "northeast": {
                    "lat": -26.24926047010728,
                    "lng": 27.83275617989272
                },
                "southwest": {
                    "lat": -26.25196012989272,
                    "lng": 27.83005652010728
                }
            }
        },
        "icon": "https://maps.gstatic.com/mapfiles/place_api/icons/school-71.png",
        "id": "704d8d0c53006ae08865c6517b4b2b9f47b92989",
        "name": "Naledi High School",
        "photos": [
            {
                "height": 2448,
                "html_attributions": [
                    "<a href=\"https://maps.google.com/maps/contrib/116554861849590971285/photos\">zorodzai munhumutema</a>"
                ],
                "photo_reference": "CmRaAAAA9s_LOA0Cp3uE3aJZUVB9l4awaLn-VWD8SIZ04rCT5Dtke1OfLbYgI0Ztnnkmgjx0q_nR8f0jO5gWhKqz8jN-rtRsUclKGnI_ZrJmjIFSTsLLfh9eML_ruYjnrsYllhNnEhB-UclJZec-3Xu9I4nr2L0pGhSBYmuoG-OqB9r_6gvhGMIGF5Wu-Q",
                "width": 3264
            }
        ],
        "place_id": "ChIJjSHydgKklR4R5J3AgPwBw3w",
        "plus_code": {
            "compound_code": "PRXJ+QF Soweto",
            "global_code": "5G59PRXJ+QF"
        },
        "rating": 3.8,
        "reference": "ChIJjSHydgKklR4R5J3AgPwBw3w",
        "types": [
            "secondary_school",
            "school",
            "point_of_interest",
            "establishment"
        ],
        "user_ratings_total": 8
    },
    "Megatong Primary School": {
        "formatted_address": "2984, Mapetla, Soweto, 1818, South Africa",
        "geometry": {
            "location": {
                "lat": -26.27573,
                "lng": 27.8514
            },
            "viewport": {
                "northeast": {
                    "lat": -26.27449717010728,
                    "lng": 27.85262487989272
                },
                "southwest": {
                    "lat": -26.27719682989272,
                    "lng": 27.84992522010728
                }
            }
        },
        "icon": "https://maps.gstatic.com/mapfiles/place_api/icons/school-71.png",
        "id": "8570ee248413823b199f1167d84a4b0eaeea47ae",
        "name": "Megatong Primary School",
        "photos": [
            {
                "height": 3456,
                "html_attributions": [
                    "<a href=\"https://maps.google.com/maps/contrib/106844667927800177297/photos\">A Google User</a>"
                ],
                "photo_reference": "CmRaAAAAU9TiFX49oCJa6W1VhuXxNGnqXTa449m2GTzhJ_--Hkj6m1XPeab2v6bskSvkHc68UKSLN6G7YwfW9sywU4rGMjKWdqM35vXZpPZJX01M6HSjAnHKH8uCJcdGX2VCrcqjEhBRmR2eXTR9QA0l3VP3a77XGhTvGHeuiuDpNj11MwrJgIrptvTgFQ",
                "width": 4608
            }
        ],
        "place_id": "ChIJlx6UYIymlR4ROyX2yIpFJUw",
        "plus_code": {
            "compound_code": "PVF2+PH Soweto",
            "global_code": "5G59PVF2+PH"
        },
        "rating": 4,
        "reference": "ChIJlx6UYIymlR4ROyX2yIpFJUw",
        "types": [
            "primary_school",
            "school",
            "point_of_interest",
            "establishment"
        ],
        "user_ratings_total": 1
    },
    "Daliwonga Secondary School": {
        "formatted_address": "Koma St, Dube, Soweto, 1800, South Africa",
        "geometry": {
            "location": {
                "lat": -26.2320407,
                "lng": 27.8891019
            },
            "viewport": {
                "northeast": {
                    "lat": -26.23039552010728,
                    "lng": 27.89028222989273
                },
                "southwest": {
                    "lat": -26.23309517989273,
                    "lng": 27.88758257010728
                }
            }
        },
        "icon": "https://maps.gstatic.com/mapfiles/place_api/icons/school-71.png",
        "id": "3f06e992b083a4dc5064bb1f3e20baa49e3c204d",
        "name": "Daliwonga Secondary School",
        "photos": [
            {
                "height": 1349,
                "html_attributions": [
                    "<a href=\"https://maps.google.com/maps/contrib/105211241845192848772/photos\">A Google User</a>"
                ],
                "photo_reference": "CmRaAAAAK5WH9P-k8krfpTpuxcnGtXSPyFF76XU3oCvvKSkS5wJuFneKMW7dNVyxUnoGFwx0caOXXG1jy72rwzGOO9fsca2jVOxeWUGnmmcQh6VO_K_jML8c7vo1DYqFpRpal2YAEhCdcUf7jeSgjqsNVUL0MWuZGhTURhJDSeuW9AqenaxvuPHtEUkeAw",
                "width": 1072
            }
        ],
        "place_id": "ChIJWyHcWi2nlR4RtfIbJiSs__8",
        "plus_code": {
            "compound_code": "QV9Q+5J Soweto",
            "global_code": "5G59QV9Q+5J"
        },
        "rating": 4.1,
        "reference": "ChIJWyHcWi2nlR4RtfIbJiSs__8",
        "types": [
            "secondary_school",
            "school",
            "point_of_interest",
            "establishment"
        ],
        "user_ratings_total": 8
    },
    "Curtis Nkondo School Of Specialization": {
        "formatted_address": "2362 Biyela St, Emdeni South, Soweto, 1861, South Africa",
        "geometry": {
            "location": {
                "lat": -26.2391445,
                "lng": 27.8241183
            },
            "viewport": {
                "northeast": {
                    "lat": -26.23772852010728,
                    "lng": 27.82558242989272
                },
                "southwest": {
                    "lat": -26.24042817989272,
                    "lng": 27.82288277010728
                }
            }
        },
        "icon": "https://maps.gstatic.com/mapfiles/place_api/icons/school-71.png",
        "id": "36786703ffae2761dca21ee92dc1ad46c5a31092",
        "name": "Curtis Nkondo School Of Specialization",
        "opening_hours": {
            "open_now": false
        },
        "photos": [
            {
                "height": 2560,
                "html_attributions": [
                    "<a href=\"https://maps.google.com/maps/contrib/100701837607493975396/photos\">Sithembiso Nhlapo</a>"
                ],
                "photo_reference": "CmRaAAAAM-fC9dZE0Mc_htD9XfP0-skJK8CkX-ZhugTV5tOuKwaJb1ouw3BAhpi6tdxSYapPqOWIWaQFGOAbUpR1SO5j4B3NxKx1bIgXMDex-BhIlV9zuMHFbYk4IQtwdtHWkehqEhC9psCqxTS-CuT5l36cpZmXGhSQ0Iou99ebjkJRtL5urk1byrkn7Q",
                "width": 1536
            }
        ],
        "place_id": "ChIJpcGeLfqjlR4RpyolROkrwkM",
        "plus_code": {
            "compound_code": "QR6F+8J Soweto",
            "global_code": "5G59QR6F+8J"
        },
        "rating": 4.5,
        "reference": "ChIJpcGeLfqjlR4RpyolROkrwkM",
        "types": [
            "school",
            "point_of_interest",
            "establishment"
        ],
        "user_ratings_total": 19
    },
    "St Matthews School": {
        "formatted_address": "818 Ndebele St, Moroka, Soweto, 1818, South Africa",
        "geometry": {
            "location": {
                "lat": -26.259996,
                "lng": 27.881219
            },
            "viewport": {
                "northeast": {
                    "lat": -26.25866272010727,
                    "lng": 27.88256617989272
                },
                "southwest": {
                    "lat": -26.26136237989272,
                    "lng": 27.87986652010727
                }
            }
        },
        "icon": "https://maps.gstatic.com/mapfiles/place_api/icons/school-71.png",
        "id": "f90c2da98b25e321e7f71f0981b322af8130acb9",
        "name": "St Matthews School",
        "opening_hours": {
            "open_now": false
        },
        "photos": [
            {
                "height": 360,
                "html_attributions": [
                    "<a href=\"https://maps.google.com/maps/contrib/102140616210567656442/photos\">pako Khutso</a>"
                ],
                "photo_reference": "CmRaAAAAYTk7R62J8xKNM-bZbZAGvqIpY3xG6Uv620VBO7hL0nlgtTolJPkqsGRncWUgT1nGzKvJITzLiIoODclhjex6ebzYJGzMB6pukwCSEpP_YpoJBFmTuQA9vQDo32SjLYY4EhCjm3D1e5_Rwud4BvKDorw7GhS3SLphAdKJ7d4S3wAOOenHtoJRxg",
                "width": 360
            }
        ],
        "place_id": "ChIJVatrKhynlR4RRGDfsciuTOo",
        "plus_code": {
            "compound_code": "PVRJ+2F Soweto",
            "global_code": "5G59PVRJ+2F"
        },
        "rating": 3.6,
        "reference": "ChIJVatrKhynlR4RRGDfsciuTOo",
        "types": [
            "school",
            "point_of_interest",
            "establishment"
        ],
        "user_ratings_total": 28
    },
    "Mapetla High School": {
        "formatted_address": "2189 Monotshe St, Mapetla, Soweto, 1818, South Africa",
        "geometry": {
            "location": {
                "lat": -26.273646,
                "lng": 27.8461848
            },
            "viewport": {
                "northeast": {
                    "lat": -26.27214817010728,
                    "lng": 27.84732552989272
                },
                "southwest": {
                    "lat": -26.27484782989272,
                    "lng": 27.84462587010728
                }
            }
        },
        "icon": "https://maps.gstatic.com/mapfiles/place_api/icons/school-71.png",
        "id": "5e079917c4012b85c742398d9af22dbe2241120c",
        "name": "Mapetla High School",
        "photos": [
            {
                "height": 4032,
                "html_attributions": [
                    "<a href=\"https://maps.google.com/maps/contrib/115857349996038312961/photos\">Thabiso Tlhapi</a>"
                ],
                "photo_reference": "CmRaAAAAg6P3A77KR7oEGb8ZBQq24xB_jxH3IqhIRqTWpE5fkz8bW56VqfQrF_3nZGAWo29cEeKcsqh-mFcWlwh7HE3Mm2lzO2gTBdTPuN02XkNf_825wlT2GDmi7EDzjibkjpEHEhBFvsV3cq7OKMTGkeHJ4TcxGhTaXFqHfKr76GOUetPW5eKHClQ6wA",
                "width": 3024
            }
        ],
        "place_id": "ChIJExVcMY6mlR4RL2crLYREjI4",
        "plus_code": {
            "compound_code": "PRGW+GF Soweto",
            "global_code": "5G59PRGW+GF"
        },
        "rating": 3.6,
        "reference": "ChIJExVcMY6mlR4RL2crLYREjI4",
        "types": [
            "secondary_school",
            "school",
            "point_of_interest",
            "establishment"
        ],
        "user_ratings_total": 9
    },
    "Anchor High School": {
        "formatted_address": "Rev Frederick S Modise Drive, Soweto, Johannesburg, 1803, South Africa",
        "geometry": {
            "location": {
                "lat": -26.219638,
                "lng": 27.914014
            },
            "viewport": {
                "northeast": {
                    "lat": -26.21799467010728,
                    "lng": 27.91542732989272
                },
                "southwest": {
                    "lat": -26.22069432989272,
                    "lng": 27.91272767010728
                }
            }
        },
        "icon": "https://maps.gstatic.com/mapfiles/place_api/icons/school-71.png",
        "id": "4e78747bf6b69532109a75b6fa362e8476a62ef8",
        "name": "Anchor High School",
        "photos": [
            {
                "height": 1600,
                "html_attributions": [
                    "<a href=\"https://maps.google.com/maps/contrib/102163373263874758593/photos\">A Google User</a>"
                ],
                "photo_reference": "CmRaAAAAsrzgNC-WcxJEi99oHRJNTmhsb8NZtAN8DQqYMTalsSvRAIeZ9P9Wg9gJw8Z-GP-d8T9_md79RW1zdBwXhbmMh9bMbi7t8jDTu8KWCWYscLSs1AR3wVSd7jRKXKehL5pFEhD-1JhPfRns0TCdQ7XQMgsgGhQn_uI6sZyqg___LU4xN_bdpF-Zeg",
                "width": 1200
            }
        ],
        "place_id": "ChIJU_PeD66glR4Rq0J-qSGs3k0",
        "plus_code": {
            "compound_code": "QWJ7+4J Soweto",
            "global_code": "5G59QWJ7+4J"
        },
        "rating": 3.8,
        "reference": "ChIJU_PeD66glR4Rq0J-qSGs3k0",
        "types": [
            "secondary_school",
            "school",
            "point_of_interest",
            "establishment"
        ],
        "user_ratings_total": 4
    },
    "BHUKULANI SENIOR SCONDARY SCHOOL": {
        "formatted_address": "Zondi 2, 666 Masingafi St, EET Soweto, Johannesburg, 1868, South Africa",
        "geometry": {
            "location": {
                "lat": -26.233524,
                "lng": 27.867531
            },
            "viewport": {
                "northeast": {
                    "lat": -26.23227922010728,
                    "lng": 27.86866757989272
                },
                "southwest": {
                    "lat": -26.23497887989272,
                    "lng": 27.86596792010728
                }
            }
        },
        "icon": "https://maps.gstatic.com/mapfiles/place_api/icons/school-71.png",
        "id": "09494a5c5423d6b3f7d507f540d5d5c51b3577df",
        "name": "BHUKULANI SENIOR SCONDARY SCHOOL",
        "photos": [
            {
                "height": 4096,
                "html_attributions": [
                    "<a href=\"https://maps.google.com/maps/contrib/108032274575368808580/photos\">Khudo Khumo</a>"
                ],
                "photo_reference": "CmRaAAAAH1vn45Pr7Sollf3nzPTHyz5vRIXRGiuRb03xR0ugl5mARJw2Cz99RDBw4-yy6INUxH8gKuZtNEFu9Sy_s-o0-ZbJW4RmsOMgq_Ru8Tz8bq5wqlsQn_gbuiZ9KQXoV63YEhBDlLSQ3q29yjSgTP1mZdm0GhR0EStN8QKR-4KmiT0bMoqaZXHDxw",
                "width": 2304
            }
        ],
        "place_id": "ChIJWflHDS2hlR4RN1dAJzxH5_8",
        "plus_code": {
            "compound_code": "QV89+H2 Soweto",
            "global_code": "5G59QV89+H2"
        },
        "rating": 4.8,
        "reference": "ChIJWflHDS2hlR4RN1dAJzxH5_8",
        "types": [
            "secondary_school",
            "school",
            "point_of_interest",
            "establishment"
        ],
        "user_ratings_total": 10
    },
    "Ditau Primary School": {
        "formatted_address": "6604, Klipspruit 318-Iq, Soweto, 1809, South Africa",
        "geometry": {
            "location": {
                "lat": -26.24879,
                "lng": 27.92174
            },
            "viewport": {
                "northeast": {
                    "lat": -26.24717212010728,
                    "lng": 27.92323892989272
                },
                "southwest": {
                    "lat": -26.24987177989272,
                    "lng": 27.92053927010728
                }
            }
        },
        "icon": "https://maps.gstatic.com/mapfiles/place_api/icons/school-71.png",
        "id": "409f87149ca3c1002bb70bd0f6a1b84b388e1cbb",
        "name": "Ditau Primary School",
        "place_id": "ChIJ_yK4AWGnlR4R1ImsZC4ukjg",
        "plus_code": {
            "compound_code": "QW2C+FM Soweto",
            "global_code": "5G59QW2C+FM"
        },
        "rating": 5,
        "reference": "ChIJ_yK4AWGnlR4R1ImsZC4ukjg",
        "types": [
            "primary_school",
            "school",
            "point_of_interest",
            "establishment"
        ],
        "user_ratings_total": 3
    },
    "Fundani Primary School": {
        "formatted_address": "1517, Emdeni South, Soweto, 1861, South Africa",
        "geometry": {
            "location": {
                "lat": -26.24619,
                "lng": 27.82102
            },
            "viewport": {
                "northeast": {
                    "lat": -26.24483672010728,
                    "lng": 27.82263172989272
                },
                "southwest": {
                    "lat": -26.24753637989272,
                    "lng": 27.81993207010727
                }
            }
        },
        "icon": "https://maps.gstatic.com/mapfiles/place_api/icons/school-71.png",
        "id": "92091586606b139cb6c599fd23b4dd7c2b3b635c",
        "name": "Fundani Primary School",
        "place_id": "ChIJP6WSkgeklR4Rh8lQu8IytyY",
        "plus_code": {
            "compound_code": "QR3C+GC Soweto",
            "global_code": "5G59QR3C+GC"
        },
        "rating": 4,
        "reference": "ChIJP6WSkgeklR4Rh8lQu8IytyY",
        "types": [
            "primary_school",
            "school",
            "point_of_interest",
            "establishment"
        ],
        "user_ratings_total": 1
    },
    "Protea South Primary School": {
        "formatted_address": "02016 Colman St, Protea South, Soweto, 1818, South Africa",
        "geometry": {
            "location": {
                "lat": -26.2808518,
                "lng": 27.8397972
            },
            "viewport": {
                "northeast": {
                    "lat": -26.27970117010728,
                    "lng": 27.84125422989272
                },
                "southwest": {
                    "lat": -26.28240082989272,
                    "lng": 27.83855457010728
                }
            }
        },
        "icon": "https://maps.gstatic.com/mapfiles/place_api/icons/school-71.png",
        "id": "9420c3d0e776331634fc6cd695deb0cfb7643dda",
        "name": "Protea South Primary School",
        "place_id": "ChIJc3rNioamlR4RvBa05RmIibU",
        "plus_code": {
            "compound_code": "PR9Q+MW Soweto",
            "global_code": "5G59PR9Q+MW"
        },
        "rating": 3,
        "reference": "ChIJc3rNioamlR4RvBa05RmIibU",
        "types": [
            "primary_school",
            "school",
            "point_of_interest",
            "establishment"
        ],
        "user_ratings_total": 3
    },
    "Altmont Technical High School": {
        "formatted_address": "Cnr Alekhine & Stanton Rd, Protea South, Soweto, 1818, South Africa",
        "geometry": {
            "location": {
                "lat": -26.2812357,
                "lng": 27.8424725
            },
            "viewport": {
                "northeast": {
                    "lat": -26.28005977010728,
                    "lng": 27.84363477989272
                },
                "southwest": {
                    "lat": -26.28275942989272,
                    "lng": 27.84093512010728
                }
            }
        },
        "icon": "https://maps.gstatic.com/mapfiles/place_api/icons/school-71.png",
        "id": "3b3b8b5f4a215cf50c00d620e66f8290758f2e2c",
        "name": "Altmont Technical High School",
        "photos": [
            {
                "height": 2560,
                "html_attributions": [
                    "<a href=\"https://maps.google.com/maps/contrib/118175285060388081999/photos\">A Google User</a>"
                ],
                "photo_reference": "CmRaAAAAHwjxH_Q-YBXUz5csrzkwtCkHcdt6gpI0jWmY7f2zM7FPqN8oo-g8uhBztChOg1ou0vG8GbWpO8BFG9Ilk1mpvGlfM5pCtjkKZYjthD4CfrC8fz7Zg2A-rHY4nXyVRxGaEhDZ_9H7YK_8u7rJIXjUvQcEGhR6pexRHBdsZVV-6hWGqYMPv9WUtw",
                "width": 1920
            }
        ],
        "place_id": "ChIJlXH_E7AvaAERoRQ6hFBbZTE",
        "plus_code": {
            "compound_code": "PR9R+GX Soweto",
            "global_code": "5G59PR9R+GX"
        },
        "rating": 4.7,
        "reference": "ChIJlXH_E7AvaAERoRQ6hFBbZTE",
        "types": [
            "secondary_school",
            "school",
            "point_of_interest",
            "establishment"
        ],
        "user_ratings_total": 10
    },
    "Luyolo Higher Primary School": {
        "formatted_address": "1026 A Dakamani St, Soweto, Johannesburg, 1868, South Africa",
        "geometry": {
            "location": {
                "lat": -26.2459089,
                "lng": 27.825657
            },
            "viewport": {
                "northeast": {
                    "lat": -26.24434737010728,
                    "lng": 27.82699782989272
                },
                "southwest": {
                    "lat": -26.24704702989272,
                    "lng": 27.82429817010728
                }
            }
        },
        "icon": "https://maps.gstatic.com/mapfiles/place_api/icons/school-71.png",
        "id": "de8e8f3b0c3627bfb58ce2c5c0d582d5fc26e746",
        "name": "Luyolo Higher Primary School",
        "photos": [
            {
                "height": 4160,
                "html_attributions": [
                    "<a href=\"https://maps.google.com/maps/contrib/112026365805317175186/photos\">A Google User</a>"
                ],
                "photo_reference": "CmRaAAAA37pMI1mzPEfTUZtLWc5D1FaWwAvvLJC2Sl50ELHLnTOBtE27FQC8V-dH5sg-m8hvOmytvNnS363GED9Ex_LgjfN4x2KZ_Yt1CH3CRN9KYTm5L6pvt3eKkR9fQ5Ult2sZEhCkLjLRaqbsBtrQMrR6zQBYGhTWIj0U8XkRcuYxptNJvky5oUIwNg",
                "width": 2336
            }
        ],
        "place_id": "ChIJ3ZnvygCklR4RUQy7SP4WwLA",
        "plus_code": {
            "compound_code": "QR3G+J7 Soweto",
            "global_code": "5G59QR3G+J7"
        },
        "rating": 4,
        "reference": "ChIJ3ZnvygCklR4RUQy7SP4WwLA",
        "types": [
            "primary_school",
            "school",
            "point_of_interest",
            "establishment"
        ],
        "user_ratings_total": 3
    },
    "Jabavu East Primary School": {
        "formatted_address": "819 Tshabalala St, Emdeni South, Soweto, 1861, South Africa",
        "geometry": {
            "location": {
                "lat": -26.2465804,
                "lng": 27.8294095
            },
            "viewport": {
                "northeast": {
                    "lat": -26.24523047010728,
                    "lng": 27.83072422989272
                },
                "southwest": {
                    "lat": -26.24793012989272,
                    "lng": 27.82802457010727
                }
            }
        },
        "icon": "https://maps.gstatic.com/mapfiles/place_api/icons/school-71.png",
        "id": "ea448309e32a141416461f2a7fb2687853d2b459",
        "name": "Jabavu East Primary School",
        "place_id": "ChIJacFdtAGklR4RpFPhsJllx6E",
        "plus_code": {
            "compound_code": "QR3H+9Q Soweto",
            "global_code": "5G59QR3H+9Q"
        },
        "rating": 1,
        "reference": "ChIJacFdtAGklR4RpFPhsJllx6E",
        "types": [
            "school",
            "point_of_interest",
            "establishment"
        ],
        "user_ratings_total": 1
    },
    "DSJ Primary School": {
        "formatted_address": "4057, Dobsonville, Soweto, 1863, South Africa",
        "geometry": {
            "location": {
                "lat": -26.2219648,
                "lng": 27.8563036
            },
            "viewport": {
                "northeast": {
                    "lat": -26.22059937010728,
                    "lng": 27.85788867989272
                },
                "southwest": {
                    "lat": -26.22329902989272,
                    "lng": 27.85518902010728
                }
            }
        },
        "icon": "https://maps.gstatic.com/mapfiles/place_api/icons/school-71.png",
        "id": "a39084d2dfc642abdfd8ba1348aa178583252422",
        "name": "DSJ Primary School",
        "photos": [
            {
                "height": 3024,
                "html_attributions": [
                    "<a href=\"https://maps.google.com/maps/contrib/108316958289521643916/photos\">Letlotlo La Baleti</a>"
                ],
                "photo_reference": "CmRaAAAAwfTKN2W_MpQHWBRK0A_OItoiBUOba-Jps3A7ZgfuKkIfnpRAbtgKh09F4WBFUW5QAIfgxerckNWWQZa44t97je3TsojbnXaq6-XmUYouzS8tKZxQuKuGCYNuH430yjrFEhAFc4Krk1_q59sGJB2dxOYfGhRBZx20aDC157ICQpV1Y0mVShz8lQ",
                "width": 4032
            }
        ],
        "place_id": "ChIJhciiyzihlR4RcXhCTsKb0Ls",
        "plus_code": {
            "compound_code": "QVH4+6G Soweto",
            "global_code": "5G59QVH4+6G"
        },
        "rating": 4,
        "reference": "ChIJhciiyzihlR4RcXhCTsKb0Ls",
        "types": [
            "primary_school",
            "school",
            "point_of_interest",
            "establishment"
        ],
        "user_ratings_total": 2
    },
    "Zibambele Lower Primary School": {
        "formatted_address": "388 Radebe St, Emdeni South, Soweto, 1861, South Africa",
        "geometry": {
            "location": {
                "lat": -26.24183,
                "lng": 27.82342
            },
            "viewport": {
                "northeast": {
                    "lat": -26.24066862010728,
                    "lng": 27.82477932989272
                },
                "southwest": {
                    "lat": -26.24336827989272,
                    "lng": 27.82207967010728
                }
            }
        },
        "icon": "https://maps.gstatic.com/mapfiles/place_api/icons/school-71.png",
        "id": "6c2aeff92a7223e8470cfa8cdc17e0ed96cf9d40",
        "name": "Zibambele Lower Primary School",
        "place_id": "ChIJ38HkG_mjlR4RcRwuDb3zzHs",
        "plus_code": {
            "compound_code": "QR5F+79 Soweto",
            "global_code": "5G59QR5F+79"
        },
        "rating": 5,
        "reference": "ChIJ38HkG_mjlR4RcRwuDb3zzHs",
        "types": [
            "school",
            "point_of_interest",
            "establishment"
        ],
        "user_ratings_total": 1
    },
    "Rebone Primary School": {
        "formatted_address": "50, Naledi, Soweto, 1861, South Africa",
        "geometry": {
            "location": {
                "lat": -26.25611,
                "lng": 27.81666
            },
            "viewport": {
                "northeast": {
                    "lat": -26.25493397010728,
                    "lng": 27.81784142989272
                },
                "southwest": {
                    "lat": -26.25763362989273,
                    "lng": 27.81514177010727
                }
            }
        },
        "icon": "https://maps.gstatic.com/mapfiles/place_api/icons/school-71.png",
        "id": "fc761a5349a5bd580e00b11d5ba7cf7d1a1548db",
        "name": "Rebone Primary School",
        "place_id": "ChIJ0YB2yw-klR4R5saqU-WOCZI",
        "plus_code": {
            "compound_code": "PRV8+HM Soweto",
            "global_code": "5G59PRV8+HM"
        },
        "rating": 3.5,
        "reference": "ChIJ0YB2yw-klR4R5saqU-WOCZI",
        "types": [
            "primary_school",
            "school",
            "point_of_interest",
            "establishment"
        ],
        "user_ratings_total": 4
    },
    "Emndeni Primary School": {
        "formatted_address": "Zwane St, Soweto, Johannesburg, 1861, South Africa",
        "geometry": {
            "location": {
                "lat": -26.2429169,
                "lng": 27.821562
            },
            "viewport": {
                "northeast": {
                    "lat": -26.24170312010728,
                    "lng": 27.82291572989272
                },
                "southwest": {
                    "lat": -26.24440277989272,
                    "lng": 27.82021607010728
                }
            }
        },
        "icon": "https://maps.gstatic.com/mapfiles/place_api/icons/school-71.png",
        "id": "adf9197a894f4332885e54c5a7fbad1626895a9f",
        "name": "Emndeni Primary School",
        "place_id": "ChIJC_TkTfijlR4RdlKefrtzGwc",
        "plus_code": {
            "compound_code": "QR4C+RJ Soweto",
            "global_code": "5G59QR4C+RJ"
        },
        "rating": 0,
        "reference": "ChIJC_TkTfijlR4RdlKefrtzGwc",
        "types": [
            "primary_school",
            "school",
            "point_of_interest",
            "establishment"
        ],
        "user_ratings_total": 0
    },
    "Makhoarane Primary School": {
        "formatted_address": "Vuzane St, Dobsonville, Soweto, 1863, South Africa",
        "geometry": {
            "location": {
                "lat": -26.2196359,
                "lng": 27.873228
            },
            "viewport": {
                "northeast": {
                    "lat": -26.21833842010728,
                    "lng": 27.87421847989271
                },
                "southwest": {
                    "lat": -26.22103807989273,
                    "lng": 27.87151882010727
                }
            }
        },
        "icon": "https://maps.gstatic.com/mapfiles/place_api/icons/school-71.png",
        "id": "dd58df971568896eb78115644bd6eda06985c850",
        "name": "Makhoarane Primary School",
        "opening_hours": {
            "open_now": false
        },
        "photos": [
            {
                "height": 2448,
                "html_attributions": [
                    "<a href=\"https://maps.google.com/maps/contrib/109715408517815951170/photos\">LAURENT MUSARD</a>"
                ],
                "photo_reference": "CmRaAAAAxRA2yTcqGgsia_BMt8C3g96SkOdIvOmYMDwWz-miTbrPuQ7a0OpQdg1zQL9pDlI19VWFz00F9psdQdXMcX565iIrSRCsG1oAPcV5uHD73DNoQn1SGecAf8uEggI_7zAyEhDZfv0XSzmGdWKs2tI8J8fKGhQ27y9nyLBWrWlsZTghOBs42ozijQ",
                "width": 3264
            }
        ],
        "place_id": "ChIJM1TplyahlR4R6wHOUISLR_k",
        "plus_code": {
            "compound_code": "QVJF+47 Soweto",
            "global_code": "5G59QVJF+47"
        },
        "rating": 3.8,
        "reference": "ChIJM1TplyahlR4R6wHOUISLR_k",
        "types": [
            "primary_school",
            "school",
            "point_of_interest",
            "establishment"
        ],
        "user_ratings_total": 4
    },
    "Tetelo Secondary School": {
        "formatted_address": "Letsatsi St, Soweto, Johannesburg, 1819, South Africa",
        "geometry": {
            "location": {
                "lat": -26.2689479,
                "lng": 27.829818
            },
            "viewport": {
                "northeast": {
                    "lat": -26.26753457010728,
                    "lng": 27.83119517989272
                },
                "southwest": {
                    "lat": -26.27023422989272,
                    "lng": 27.82849552010728
                }
            }
        },
        "icon": "https://maps.gstatic.com/mapfiles/place_api/icons/school-71.png",
        "id": "75bc1026b50fa4d98c2b64b13474fd43e24fbf3d",
        "name": "Tetelo Secondary School",
        "photos": [
            {
                "height": 2448,
                "html_attributions": [
                    "<a href=\"https://maps.google.com/maps/contrib/116554861849590971285/photos\">zorodzai munhumutema</a>"
                ],
                "photo_reference": "CmRaAAAA4w-iJcgnVuKhtB_ojmyAF2In0a8q5cuR4VB5odkVEOpTl1Jd2ZZzPiwIxapFh3hkFaVCJHx1nxiQbQCn2MA8DPTW7eqAXn_JzQIZ5n8hl0E5Vr1Evajl7VqAhqJLk9hNEhCrKhJMXgonxPJi7oNGHdmrGhTOz-BDMGMYUiOzBiWSx1RmDPqw0g",
                "width": 3264
            }
        ],
        "place_id": "ChIJk-hxkyCklR4RWAgyD_8KL-4",
        "plus_code": {
            "compound_code": "PRJH+CW Soweto",
            "global_code": "5G59PRJH+CW"
        },
        "rating": 3.8,
        "reference": "ChIJk-hxkyCklR4RWAgyD_8KL-4",
        "types": [
            "school",
            "point_of_interest",
            "establishment"
        ],
        "user_ratings_total": 12
    },
    "Reasoma High School": {
        "formatted_address": "Ntloko St, Soweto, Johannesburg, 1818, South Africa",
        "geometry": {
            "location": {
                "lat": -26.26877,
                "lng": 27.837396
            },
            "viewport": {
                "northeast": {
                    "lat": -26.26755752010728,
                    "lng": 27.83847332989273
                },
                "southwest": {
                    "lat": -26.27025717989272,
                    "lng": 27.83577367010728
                }
            }
        },
        "icon": "https://maps.gstatic.com/mapfiles/place_api/icons/school-71.png",
        "id": "01ddebf3b0f4cf7da66ea1ba0328331854d94991",
        "name": "Reasoma High School",
        "photos": [
            {
                "height": 774,
                "html_attributions": [
                    "<a href=\"https://maps.google.com/maps/contrib/114789876508516559397/photos\">Ntsikelelo Hlathuka</a>"
                ],
                "photo_reference": "CmRaAAAAeUmYj2Rgm3bewssyt1DXuSDeoFV0WtT0472yuMbkfe-ZEFylHHJFfjKlM_Dp0CeRrwIbZ3XxZB4LFmgmU4bvcqH4nFTO8D9_5eJ0lVgShBQG2jaGW940OmjYZ9F3enh3EhC6AtTkkexEaJt2hg3mvbSfGhT5cxdYdkLGEZ1nPK3RvbWnGao7Hg",
                "width": 456
            }
        ],
        "place_id": "ChIJYygiUZmmlR4RRy4lzPStCdA",
        "plus_code": {
            "compound_code": "PRJP+FX Soweto",
            "global_code": "5G59PRJP+FX"
        },
        "rating": 4.6,
        "reference": "ChIJYygiUZmmlR4RRy4lzPStCdA",
        "types": [
            "secondary_school",
            "school",
            "point_of_interest",
            "establishment"
        ],
        "user_ratings_total": 11
    },
    "Curro Academy Protea Glen Independent School": {
        "formatted_address": "Corner of Sagewood and, Wild Chestnut St, Protea Glen, Soweto, 1818, South Africa",
        "geometry": {
            "location": {
                "lat": -26.2694012,
                "lng": 27.8147354
            },
            "viewport": {
                "northeast": {
                    "lat": -26.26810707010727,
                    "lng": 27.81611007989272
                },
                "southwest": {
                    "lat": -26.27080672989272,
                    "lng": 27.81341042010727
                }
            }
        },
        "icon": "https://maps.gstatic.com/mapfiles/place_api/icons/school-71.png",
        "id": "86cddb9c170ecdefa55fb50e04d1a2397a86eb8f",
        "name": "Curro Academy Protea Glen Independent School",
        "opening_hours": {
            "open_now": false
        },
        "photos": [
            {
                "height": 2448,
                "html_attributions": [
                    "<a href=\"https://maps.google.com/maps/contrib/110193491021592104636/photos\">Santa Mokobodi</a>"
                ],
                "photo_reference": "CmRaAAAAiBDE2qRkRv7E8nYhNN6lAaqDapnsaOwPITR1sQ6an6e2hFMTKeUAteDfCl7yhnAJzf5AfnoEcKcqn1Il3IWa4-RSnRIbKTHpOi0LKQuPHP8meXnXaafGjnGzxQIFtK1jEhBsEoKJwbiNOUHT5DOuypyZGhRi_Y9zD_qm_Gn7Vovn7ibP35aqfw",
                "width": 3264
            }
        ],
        "place_id": "ChIJ0XYNxxOllR4Ru-AY7ZuIpwA",
        "plus_code": {
            "compound_code": "PRJ7+6V Soweto",
            "global_code": "5G59PRJ7+6V"
        },
        "rating": 4.7,
        "reference": "ChIJ0XYNxxOllR4Ru-AY7ZuIpwA",
        "types": [
            "school",
            "point_of_interest",
            "establishment"
        ],
        "user_ratings_total": 17
    },
    "Esiyalwini Junior Secondary School": {
        "formatted_address": "Gumede St, Soweto, Johannesburg, 1801, South Africa",
        "geometry": {
            "location": {
                "lat": -26.2258639,
                "lng": 27.875065
            },
            "viewport": {
                "northeast": {
                    "lat": -26.22457847010728,
                    "lng": 27.87614617989272
                },
                "southwest": {
                    "lat": -26.22727812989272,
                    "lng": 27.87344652010728
                }
            }
        },
        "icon": "https://maps.gstatic.com/mapfiles/place_api/icons/school-71.png",
        "id": "c8bf5e17be10d4a61f6eafde2a8229123295cd3d",
        "name": "Esiyalwini Junior Secondary School",
        "place_id": "ChIJEwOfVCihlR4RzbwbC918Brc",
        "plus_code": {
            "compound_code": "QVFG+M2 Soweto",
            "global_code": "5G59QVFG+M2"
        },
        "rating": 5,
        "reference": "ChIJEwOfVCihlR4RzbwbC918Brc",
        "types": [
            "secondary_school",
            "school",
            "point_of_interest",
            "establishment"
        ],
        "user_ratings_total": 1
    },
    "Aurora Girls High School": {
        "formatted_address": "1764 Zici St, Zola North, Soweto, 1868, South Africa",
        "geometry": {
            "location": {
                "lat": -26.2401746,
                "lng": 27.8470472
            },
            "viewport": {
                "northeast": {
                    "lat": -26.23882397010728,
                    "lng": 27.84843202989272
                },
                "southwest": {
                    "lat": -26.24152362989272,
                    "lng": 27.84573237010728
                }
            }
        },
        "icon": "https://maps.gstatic.com/mapfiles/place_api/icons/school-71.png",
        "id": "40ed05bacce1f42b6e29dbf5d6ad5285878bd177",
        "name": "Aurora Girls High School",
        "photos": [
            {
                "height": 2448,
                "html_attributions": [
                    "<a href=\"https://maps.google.com/maps/contrib/116554861849590971285/photos\">zorodzai munhumutema</a>"
                ],
                "photo_reference": "CmRaAAAAJkMwHb-gYmWUIeit5bNDItP49WfIJU1RuBZe50K4DPfe2j5IMjcKwEDDnDsuii4DW1YPtrZjOPr4n3F6huATLLLzzVOZNJSeXtoad2CHVf5w4w7LjGz7pUOO9ceIahOyEhB6nJIXv7lzONlPVGR9PBPwGhQlahxBCdCcgAvykhuEhgUNBT-Cwg",
                "width": 3264
            }
        ],
        "place_id": "ChIJNxtou0yhlR4RHlXGBtOKMEs",
        "plus_code": {
            "compound_code": "QR5W+WR Soweto",
            "global_code": "5G59QR5W+WR"
        },
        "rating": 4.1,
        "reference": "ChIJNxtou0yhlR4RHlXGBtOKMEs",
        "types": [
            "secondary_school",
            "school",
            "point_of_interest",
            "establishment"
        ],
        "user_ratings_total": 7
    },
    "Phafogang Secondary School": {
        "formatted_address": "2226 Gumede St, Moroka, Soweto, 1818, South Africa",
        "geometry": {
            "location": {
                "lat": -26.2673203,
                "lng": 27.8671981
            },
            "viewport": {
                "northeast": {
                    "lat": -26.26574687010728,
                    "lng": 27.86833742989272
                },
                "southwest": {
                    "lat": -26.26844652989272,
                    "lng": 27.86563777010728
                }
            }
        },
        "icon": "https://maps.gstatic.com/mapfiles/place_api/icons/school-71.png",
        "id": "0ca57a5ea62d13bed81a59febeb1fbf193cdcde3",
        "name": "Phafogang Secondary School",
        "photos": [
            {
                "height": 2448,
                "html_attributions": [
                    "<a href=\"https://maps.google.com/maps/contrib/116554861849590971285/photos\">zorodzai munhumutema</a>"
                ],
                "photo_reference": "CmRaAAAA3WcAMz8P3QttKVAYpc-0equDy8W52mVCBuTBYfC3YWFjXXN0VxMroZW1CuHuSpp5UUpsi571HkRGoZTrFgCLQRImihLRQZCFXTsbdpe6Sbhjpw0-pIKuRSyP8dmNZ6n2EhCnJgLAoY2jv7tGRRWTq4jEGhSftCBNcZK0AmWMEeg8pCX8L6w8vQ",
                "width": 3264
            }
        ],
        "place_id": "ChIJyQwvUeSmlR4R_pJQCJvyDsw",
        "plus_code": {
            "compound_code": "PVM8+3V Soweto",
            "global_code": "5G59PVM8+3V"
        },
        "rating": 2.7,
        "reference": "ChIJyQwvUeSmlR4R_pJQCJvyDsw",
        "types": [
            "secondary_school",
            "school",
            "point_of_interest",
            "establishment"
        ],
        "user_ratings_total": 3
    },
    "Entandweni Primary School": {
        "formatted_address": "672, Zondi, Soweto, 1868, South Africa",
        "geometry": {
            "location": {
                "lat": -26.2323999,
                "lng": 27.8605
            },
            "viewport": {
                "northeast": {
                    "lat": -26.23089507010728,
                    "lng": 27.86188582989272
                },
                "southwest": {
                    "lat": -26.23359472989272,
                    "lng": 27.85918617010728
                }
            }
        },
        "icon": "https://maps.gstatic.com/mapfiles/place_api/icons/school-71.png",
        "id": "d4a244983551904ea67c9c3e96a7922788f4254f",
        "name": "Entandweni Primary School",
        "place_id": "ChIJD5Qc-DOhlR4RwwjfKMv82q0",
        "plus_code": {
            "compound_code": "QV96+26 Soweto",
            "global_code": "5G59QV96+26"
        },
        "rating": 3.7,
        "reference": "ChIJD5Qc-DOhlR4RwwjfKMv82q0",
        "types": [
            "primary_school",
            "school",
            "point_of_interest",
            "establishment"
        ],
        "user_ratings_total": 3
    },
    "Thabisang Primary School": {
        "formatted_address": "11227, Orlando West, Soweto, 1804, South Africa",
        "geometry": {
            "location": {
                "lat": -26.24253,
                "lng": 27.90275
            },
            "viewport": {
                "northeast": {
                    "lat": -26.24100382010728,
                    "lng": 27.90418682989272
                },
                "southwest": {
                    "lat": -26.24370347989272,
                    "lng": 27.90148717010727
                }
            }
        },
        "icon": "https://maps.gstatic.com/mapfiles/place_api/icons/school-71.png",
        "id": "aedfdb1507062cc5f3de657ba073ee2b9a13b875",
        "name": "Thabisang Primary School",
        "photos": [
            {
                "height": 450,
                "html_attributions": [
                    "<a href=\"https://maps.google.com/maps/contrib/113685732175273787088/photos\">Thibolover Cornelius Vendula</a>"
                ],
                "photo_reference": "CmRaAAAAZtHt6wl_xRNwLh65yTJVNiRc-j9jGnRaobr6WZzTI3uWpDWevLfL59xCsRQ_sTlI-xoDllhn6Zy3sEr66g7J69T3PZbIwB_3CV8cEAW7YpHLhFgOSoxhvydjUfmm2b1UEhBj8piynAXHTcL5IeSyiI1HGhR6q8fqM_FViu449DympQgVNGszwA",
                "width": 830
            }
        ],
        "place_id": "ChIJ5-9_bUenlR4RJfe3wKAzCtA",
        "plus_code": {
            "compound_code": "QW43+X3 Soweto",
            "global_code": "5G59QW43+X3"
        },
        "rating": 5,
        "reference": "ChIJ5-9_bUenlR4RJfe3wKAzCtA",
        "types": [
            "primary_school",
            "school",
            "point_of_interest",
            "establishment"
        ],
        "user_ratings_total": 2
    },
    "Rishile Lower Primary School": {
        "formatted_address": "337 Phiri St, Meadowlands, Soweto, 1852, South Africa",
        "geometry": {
            "location": {
                "lat": -26.226479,
                "lng": 27.892697
            },
            "viewport": {
                "northeast": {
                    "lat": -26.22511697010728,
                    "lng": 27.89406972989272
                },
                "southwest": {
                    "lat": -26.22781662989272,
                    "lng": 27.89137007010728
                }
            }
        },
        "icon": "https://maps.gstatic.com/mapfiles/place_api/icons/school-71.png",
        "id": "004179ed32a27e7e04b054ed806545233a65da5f",
        "name": "Rishile Lower Primary School",
        "photos": [
            {
                "height": 4000,
                "html_attributions": [
                    "<a href=\"https://maps.google.com/maps/contrib/103693741131211323139/photos\">A Google User</a>"
                ],
                "photo_reference": "CmRaAAAAVegNGye4bDJplP9scNiIvwaj-5LShCkjlZok8m_7A9fEHF7T_rHYMWJ6iuwyq6V3Qoo0XHQtCbqg5kYb6p5cQyMfbkqa9idd1tt7iFhIrkpY8mRzUWTYeAZQAqajv0MbEhCvvb32zgpEPC2dyThEwYPpGhQErGXauG-kXtcrOPlGp20hUWTXWA",
                "width": 3000
            }
        ],
        "place_id": "ChIJdS7SSsyglR4RS-FALo4VDwU",
        "plus_code": {
            "compound_code": "QVFV+C3 Meadowlands East",
            "global_code": "5G59QVFV+C3"
        },
        "rating": 3.5,
        "reference": "ChIJdS7SSsyglR4RS-FALo4VDwU",
        "types": [
            "primary_school",
            "school",
            "point_of_interest",
            "establishment"
        ],
        "user_ratings_total": 4
    },
    "Vukazenzele Primary School": {
        "formatted_address": "999, Mofolo North, Soweto, 1801, South Africa",
        "geometry": {
            "location": {
                "lat": -26.2349599,
                "lng": 27.87812
            },
            "viewport": {
                "northeast": {
                    "lat": -26.23381492010727,
                    "lng": 27.87968827989272
                },
                "southwest": {
                    "lat": -26.23651457989272,
                    "lng": 27.87698862010728
                }
            }
        },
        "icon": "https://maps.gstatic.com/mapfiles/place_api/icons/school-71.png",
        "id": "cd7bd7bee6f6e1ffd1704ce971e1fd97a570e939",
        "name": "Vukazenzele Primary School",
        "place_id": "ChIJIyu2nyqnlR4RE0UMcBXgwlc",
        "plus_code": {
            "compound_code": "QV8H+26 Soweto",
            "global_code": "5G59QV8H+26"
        },
        "rating": 0,
        "reference": "ChIJIyu2nyqnlR4RE0UMcBXgwlc",
        "types": [
            "primary_school",
            "school",
            "point_of_interest",
            "establishment"
        ],
        "user_ratings_total": 0
    },
    "Tshilidzi Primary School": {
        "formatted_address": "Soweto, Johannesburg, 1868, South Africa",
        "geometry": {
            "location": {
                "lat": -26.253604,
                "lng": 27.85415
            },
            "viewport": {
                "northeast": {
                    "lat": -26.25223397010728,
                    "lng": 27.85562092989273
                },
                "southwest": {
                    "lat": -26.25493362989272,
                    "lng": 27.85292127010728
                }
            }
        },
        "icon": "https://maps.gstatic.com/mapfiles/place_api/icons/school-71.png",
        "id": "107a8d1536eb60bf7fa130dd7867968523875800",
        "name": "Tshilidzi Primary School",
        "place_id": "ChIJZ9bIo7imlR4RwUjrfiENxwY",
        "plus_code": {
            "compound_code": "PVW3+HM Soweto",
            "global_code": "5G59PVW3+HM"
        },
        "rating": 0,
        "reference": "ChIJZ9bIo7imlR4RwUjrfiENxwY",
        "types": [
            "primary_school",
            "school",
            "point_of_interest",
            "establishment"
        ],
        "user_ratings_total": 0
    },
    "Ibhongo Secondary School": {
        "formatted_address": "Chris Hani Rd, Soweto, Johannesburg, 1818, South Africa",
        "geometry": {
            "location": {
                "lat": -26.2725039,
                "lng": 27.874548
            },
            "viewport": {
                "northeast": {
                    "lat": -26.27093557010728,
                    "lng": 27.87552607989272
                },
                "southwest": {
                    "lat": -26.27363522989272,
                    "lng": 27.87282642010728
                }
            }
        },
        "icon": "https://maps.gstatic.com/mapfiles/place_api/icons/school-71.png",
        "id": "accf702e110d62f8a9932fac7dafd482c51bacf9",
        "name": "Ibhongo Secondary School",
        "photos": [
            {
                "height": 4128,
                "html_attributions": [
                    "<a href=\"https://maps.google.com/maps/contrib/104645070986033703258/photos\">bongani bulana</a>"
                ],
                "photo_reference": "CmRaAAAAitf-fcNZaimueGVRjhuGg_xGV9343cYJADoKEV2zlcWBLM3fdknKsdIbjBYbCCmVWF0m1g_PWLFYDsygSwFhAjGYkq_KkxR-Wr1foX1RfECtOS2HIuFyrHE0uxLslenIEhC8DAgs4YUKIzokCB8sRODzGhTnPsAHTDlOGtlkEcWtoNmPB6rvZg",
                "width": 2322
            }
        ],
        "place_id": "ChIJ6T9wgv6mlR4R7mx880xADsM",
        "plus_code": {
            "compound_code": "PVGF+XR Soweto",
            "global_code": "5G59PVGF+XR"
        },
        "rating": 4.3,
        "reference": "ChIJ6T9wgv6mlR4R7mx880xADsM",
        "types": [
            "school",
            "point_of_interest",
            "establishment"
        ],
        "user_ratings_total": 8
    },
    "St Angela's Primary School": {
        "formatted_address": "Mokhesi St, Dobsonville, Soweto, 1863, South Africa",
        "geometry": {
            "location": {
                "lat": -26.2202829,
                "lng": 27.866275
            },
            "viewport": {
                "northeast": {
                    "lat": -26.21931762010728,
                    "lng": 27.86771577989272
                },
                "southwest": {
                    "lat": -26.22201727989272,
                    "lng": 27.86501612010728
                }
            }
        },
        "icon": "https://maps.gstatic.com/mapfiles/place_api/icons/school-71.png",
        "id": "d81ba7fd53a1fd4fcd9d54517cf6021ed20ecc35",
        "name": "St Angela's Primary School",
        "place_id": "ChIJFQ17yiShlR4RFnI8zvpxVfA",
        "plus_code": {
            "compound_code": "QVH8+VG Soweto",
            "global_code": "5G59QVH8+VG"
        },
        "rating": 3,
        "reference": "ChIJFQ17yiShlR4RFnI8zvpxVfA",
        "types": [
            "primary_school",
            "school",
            "point_of_interest",
            "establishment"
        ],
        "user_ratings_total": 1
    },
    "Mveledzandivho Primary School": {
        "formatted_address": "3350, Chiawelo, Soweto, 1818, South Africa",
        "geometry": {
            "location": {
                "lat": -26.28598,
                "lng": 27.85925
            },
            "viewport": {
                "northeast": {
                    "lat": -26.28470432010728,
                    "lng": 27.86077557989272
                },
                "southwest": {
                    "lat": -26.28740397989272,
                    "lng": 27.85807592010728
                }
            }
        },
        "icon": "https://maps.gstatic.com/mapfiles/place_api/icons/school-71.png",
        "id": "1559faa1034272114c80a764475016a835b8aa30",
        "name": "Mveledzandivho Primary School",
        "photos": [
            {
                "height": 3120,
                "html_attributions": [
                    "<a href=\"https://maps.google.com/maps/contrib/106580558538670537992/photos\">magret mukwevho</a>"
                ],
                "photo_reference": "CmRaAAAAbAo1Muh-c-5ppz-b95nDblT3N6ovbuVwOoW2IaYFhLBHSylN1j5AzV9CyL10ywKrFuYX2GPsqa4HMJ49pROa9kvWBq5E6dKBtGw53fSq3PiguH_RBtMKe-e261UI1Pl1EhDyzqIdu-StSWQLIOV-HRlaGhTu8132RKyj14UcrmRyusT3oPYaJQ",
                "width": 4160
            }
        ],
        "place_id": "ChIJocMVoV6mlR4Rmf9V-cbiruE",
        "plus_code": {
            "compound_code": "PV75+JP Soweto",
            "global_code": "5G59PV75+JP"
        },
        "rating": 3.4,
        "reference": "ChIJocMVoV6mlR4Rmf9V-cbiruE",
        "types": [
            "primary_school",
            "school",
            "point_of_interest",
            "establishment"
        ],
        "user_ratings_total": 5
    },
    "Jabavu Oos Primary School": {
        "formatted_address": "Vilalazi Street, Soweto, Johannesburg, 1860, South Africa",
        "geometry": {
            "location": {
                "lat": -26.2585269,
                "lng": 27.88322
            },
            "viewport": {
                "northeast": {
                    "lat": -26.25710592010728,
                    "lng": 27.88481797989272
                },
                "southwest": {
                    "lat": -26.25980557989272,
                    "lng": 27.88211832010728
                }
            }
        },
        "icon": "https://maps.gstatic.com/mapfiles/place_api/icons/school-71.png",
        "id": "76673bb42d91537b96352086c17a827984495d1e",
        "name": "Jabavu Oos Primary School",
        "place_id": "ChIJRWLuuR6nlR4R7NPWenH5VBM",
        "plus_code": {
            "compound_code": "PVRM+H7 Soweto",
            "global_code": "5G59PVRM+H7"
        },
        "rating": 0,
        "reference": "ChIJRWLuuR6nlR4R7NPWenH5VBM",
        "types": [
            "primary_school",
            "school",
            "point_of_interest",
            "establishment"
        ],
        "user_ratings_total": 0
    },
    "Nghunghunyani Comprehensive School": {
        "formatted_address": "508 Hlaisi St, Chiawelo, Soweto, 1818, South Africa",
        "geometry": {
            "location": {
                "lat": -26.2786899,
                "lng": 27.87388
            },
            "viewport": {
                "northeast": {
                    "lat": -26.27753867010728,
                    "lng": 27.87522022989272
                },
                "southwest": {
                    "lat": -26.28023832989272,
                    "lng": 27.87252057010728
                }
            }
        },
        "icon": "https://maps.gstatic.com/mapfiles/place_api/icons/school-71.png",
        "id": "0b6e4bb981c1af8af64f14fb495dc9726b998937",
        "name": "Nghunghunyani Comprehensive School",
        "photos": [
            {
                "height": 3024,
                "html_attributions": [
                    "<a href=\"https://maps.google.com/maps/contrib/101091403525167597978/photos\">Tertius Ngobeni</a>"
                ],
                "photo_reference": "CmRaAAAAbuSf5LL7g58ApeOhQKaj5-hhnSEtVZMkZdQRRWZhc0Hg9dq49dzBZ2s94hnBvMFrBM25Ziu5dXJMUlcznhjGT3N6wPrcH-eu1uaS4-UPFevxVjVhVrYKXm8xaKCBMK8_EhAtYb5n_uMyAfC7OZOjyvbaGhQCNy6pc5oPT8twF9dmukoV88pIyA",
                "width": 4032
            }
        ],
        "place_id": "ChIJg5mRk1WmlR4R8i8p-VvydfU",
        "plus_code": {
            "compound_code": "PVCF+GH Soweto",
            "global_code": "5G59PVCF+GH"
        },
        "rating": 3.8,
        "reference": "ChIJg5mRk1WmlR4R8i8p-VvydfU",
        "types": [
            "school",
            "point_of_interest",
            "establishment"
        ],
        "user_ratings_total": 4
    },
    "Heerengracht Primary School": {
        "formatted_address": "Eldorado Park, Soweto, 1811, South Africa",
        "geometry": {
            "location": {
                "lat": -26.28988,
                "lng": 27.91602
            },
            "viewport": {
                "northeast": {
                    "lat": -26.28855902010728,
                    "lng": 27.91771047989272
                },
                "southwest": {
                    "lat": -26.29125867989272,
                    "lng": 27.91501082010728
                }
            }
        },
        "icon": "https://maps.gstatic.com/mapfiles/place_api/icons/school-71.png",
        "id": "3fe911949d352ed8e73e26b992aa29fba76a215b",
        "name": "Heerengracht Primary School",
        "place_id": "ChIJdyp1KI2nlR4R19a8696Jx3A",
        "plus_code": {
            "compound_code": "PW68+2C Soweto",
            "global_code": "5G59PW68+2C"
        },
        "rating": 4.7,
        "reference": "ChIJdyp1KI2nlR4R19a8696Jx3A",
        "types": [
            "primary_school",
            "school",
            "point_of_interest",
            "establishment"
        ],
        "user_ratings_total": 6
    },
    "Impumelelo Junior Primary School": {
        "formatted_address": "2858, Kewale Street, Emdeni Ext, Soweto, 1868, South Africa",
        "geometry": {
            "location": {
                "lat": -26.244632,
                "lng": 27.817722
            },
            "viewport": {
                "northeast": {
                    "lat": -26.24326012010728,
                    "lng": 27.81933662989272
                },
                "southwest": {
                    "lat": -26.24595977989272,
                    "lng": 27.81663697010728
                }
            }
        },
        "icon": "https://maps.gstatic.com/mapfiles/place_api/icons/school-71.png",
        "id": "67c1a378568e1679cee2bb12bad2b0bf170779c6",
        "name": "Impumelelo Junior Primary School",
        "place_id": "ChIJu8cav_ejlR4RZV6K_xmFIy8",
        "plus_code": {
            "compound_code": "QR49+43 Soweto",
            "global_code": "5G59QR49+43"
        },
        "rating": 1,
        "reference": "ChIJu8cav_ejlR4RZV6K_xmFIy8",
        "types": [
            "primary_school",
            "school",
            "point_of_interest",
            "establishment"
        ],
        "user_ratings_total": 1
    },
    "Vuwani Secondary School": {
        "formatted_address": "3346, Chiawelo, Soweto, 1818, South Africa",
        "geometry": {
            "location": {
                "lat": -26.2856525,
                "lng": 27.8559831
            },
            "viewport": {
                "northeast": {
                    "lat": -26.28460002010727,
                    "lng": 27.85727872989272
                },
                "southwest": {
                    "lat": -26.28729967989272,
                    "lng": 27.85457907010727
                }
            }
        },
        "icon": "https://maps.gstatic.com/mapfiles/place_api/icons/school-71.png",
        "id": "b4ac43738ae1844868d6f8c03bcecd236083cd37",
        "name": "Vuwani Secondary School",
        "photos": [
            {
                "height": 4208,
                "html_attributions": [
                    "<a href=\"https://maps.google.com/maps/contrib/109018525716504970993/photos\">today lunch time result Morne Coetzee</a>"
                ],
                "photo_reference": "CmRaAAAAmUinjY3oWq8nMiTBQSilXtAN2p10nMCQdXWA24l13d76QBbBmYIFhn-4QZuAS2f1d8NtzL5H_SEZ_rAq4VUTbnUM3oBKCWuoUjmPJR_RUQD81M7UBoiephn_xIPqNEhIEhAmMP4JCeLSvmH8VJY69dwXGhTaqbIoJt1rDlWB6XzAoND2HnAUSg",
                "width": 2368
            }
        ],
        "place_id": "ChIJW2FoFV6mlR4RSBOPbw_VGs8",
        "plus_code": {
            "compound_code": "PV74+P9 Soweto",
            "global_code": "5G59PV74+P9"
        },
        "rating": 4.2,
        "reference": "ChIJW2FoFV6mlR4RSBOPbw_VGs8",
        "types": [
            "secondary_school",
            "school",
            "point_of_interest",
            "establishment"
        ],
        "user_ratings_total": 11
    },
    "Welizibuko Primary School": {
        "formatted_address": "611 Makhubu St, Klipspruit, Soweto, 1809, South Africa",
        "geometry": {
            "location": {
                "lat": -26.2556385,
                "lng": 27.9114896
            },
            "viewport": {
                "northeast": {
                    "lat": -26.25412207010728,
                    "lng": 27.91281112989272
                },
                "southwest": {
                    "lat": -26.25682172989272,
                    "lng": 27.91011147010727
                }
            }
        },
        "icon": "https://maps.gstatic.com/mapfiles/place_api/icons/school-71.png",
        "id": "71e1bc07261c2d4bb484363d5d0cb14484227e4e",
        "name": "Welizibuko Primary School",
        "place_id": "ChIJxQwIEm-nlR4RQ7Z1qHWyGG8",
        "plus_code": {
            "compound_code": "PWV6+PH Soweto",
            "global_code": "5G59PWV6+PH"
        },
        "rating": 4.5,
        "reference": "ChIJxQwIEm-nlR4RQ7Z1qHWyGG8",
        "types": [
            "primary_school",
            "school",
            "point_of_interest",
            "establishment"
        ],
        "user_ratings_total": 2
    },
    "Forte Secondary School": {
        "formatted_address": "110 Christian Dube St, Mmesi Park, Soweto, 1863, South Africa",
        "geometry": {
            "location": {
                "lat": -26.2144492,
                "lng": 27.8672428
            },
            "viewport": {
                "northeast": {
                    "lat": -26.21264482010728,
                    "lng": 27.86854782989272
                },
                "southwest": {
                    "lat": -26.21534447989272,
                    "lng": 27.86584817010727
                }
            }
        },
        "icon": "https://maps.gstatic.com/mapfiles/place_api/icons/school-71.png",
        "id": "7443d6e56509a497510bcfb1d0a5af57b26ce507",
        "name": "Forte Secondary School",
        "place_id": "ChIJUZJ1BRahlR4ReRyFuA0_0N0",
        "plus_code": {
            "compound_code": "QVP8+6V Soweto",
            "global_code": "5G59QVP8+6V"
        },
        "rating": 4.1,
        "reference": "ChIJUZJ1BRahlR4ReRyFuA0_0N0",
        "types": [
            "secondary_school",
            "school",
            "point_of_interest",
            "establishment"
        ],
        "user_ratings_total": 7
    },
    "Itemogele Primary School": {
        "formatted_address": "590 Quinine St, Protea Glen, Soweto, 1819, South Africa",
        "geometry": {
            "location": {
                "lat": -26.2653818,
                "lng": 27.8113063
            },
            "viewport": {
                "northeast": {
                    "lat": -26.26416262010728,
                    "lng": 27.81225837989272
                },
                "southwest": {
                    "lat": -26.26686227989272,
                    "lng": 27.80955872010728
                }
            }
        },
        "icon": "https://maps.gstatic.com/mapfiles/place_api/icons/school-71.png",
        "id": "7d1c6378550f2e3489cf45ce70b5154ee9300455",
        "name": "Itemogele Primary School",
        "photos": [
            {
                "height": 1080,
                "html_attributions": [
                    "<a href=\"https://maps.google.com/maps/contrib/101943963124885793035/photos\">Themba Mosa Kobeli</a>"
                ],
                "photo_reference": "CmRaAAAAb13oxz0wMrDBKKkTs17OYe9BUZmfG_fR-lEAXtQ3aQlwhLBG2J5cEGDWkB-XqbzI6wu7jncHeExy9ycujIw2miTp02CAG0lpweHhCC-zbyfHt4UAEy-Mh851eyYo0LOSEhAxgb6FU-nfSo4zKoBvYz68GhQ6c3VcQ8_74L-23peLq1sxz7-Xcg",
                "width": 1920
            }
        ],
        "place_id": "ChIJZfZ6N2mklR4RZ7S0VfKapfk",
        "plus_code": {
            "compound_code": "PRM6+RG Soweto",
            "global_code": "5G59PRM6+RG"
        },
        "rating": 4.3,
        "reference": "ChIJZfZ6N2mklR4RZ7S0VfKapfk",
        "types": [
            "primary_school",
            "school",
            "point_of_interest",
            "establishment"
        ],
        "user_ratings_total": 8
    },
    "Molaetsa Primary School": {
        "formatted_address": "3130 Maliza St, Jabavu, Soweto, 1809, South Africa",
        "geometry": {
            "location": {
                "lat": -26.25536,
                "lng": 27.871275
            },
            "viewport": {
                "northeast": {
                    "lat": -26.25401032010728,
                    "lng": 27.87261562989272
                },
                "southwest": {
                    "lat": -26.25670997989272,
                    "lng": 27.86991597010728
                }
            }
        },
        "icon": "https://maps.gstatic.com/mapfiles/place_api/icons/school-71.png",
        "id": "e97748db38df49c99b9969f9dc3c5116b09dd046",
        "name": "Molaetsa Primary School",
        "place_id": "ChIJef9R6N2mlR4R3RbsWx0m2Mk",
        "plus_code": {
            "compound_code": "PVVC+VG Soweto",
            "global_code": "5G59PVVC+VG"
        },
        "rating": 3,
        "reference": "ChIJef9R6N2mlR4R3RbsWx0m2Mk",
        "types": [
            "primary_school",
            "school",
            "point_of_interest",
            "establishment"
        ],
        "user_ratings_total": 3
    },
    "Emadlelweni Primary School": {
        "formatted_address": "Soweto, Johannesburg, 1818, South Africa",
        "geometry": {
            "location": {
                "lat": -26.2767439,
                "lng": 27.875326
            },
            "viewport": {
                "northeast": {
                    "lat": -26.27537177010728,
                    "lng": 27.87644942989272
                },
                "southwest": {
                    "lat": -26.27807142989272,
                    "lng": 27.87374977010728
                }
            }
        },
        "icon": "https://maps.gstatic.com/mapfiles/place_api/icons/school-71.png",
        "id": "09933128430a107c67712146f47dc4fec5cd511f",
        "name": "Emadlelweni Primary School",
        "photos": [
            {
                "height": 347,
                "html_attributions": [
                    "<a href=\"https://maps.google.com/maps/contrib/114391670363937602560/photos\">Ubi Thomas</a>"
                ],
                "photo_reference": "CmRaAAAAcaAFo--8UvTqZAq_ugiBrqVqWi0RPTC-kxcLbCiDHdnVdfu7EyRw3N6JZBkCaoI2IWQJuqIcxmg_C77EPLcHQM8pMTwG8n6ufubgOuWiAw0fdZt7OPd3wt3t-2Osw-pLEhDwhqcKeQxg_gaup2E1_s8OGhRKASf0CAXuH5q_Fw2lWS1lw4C9eA",
                "width": 260
            }
        ],
        "place_id": "ChIJh7NDnP-mlR4RmXF4riKJhjI",
        "plus_code": {
            "compound_code": "PVFG+84 Soweto",
            "global_code": "5G59PVFG+84"
        },
        "rating": 5,
        "reference": "ChIJh7NDnP-mlR4RmXF4riKJhjI",
        "types": [
            "primary_school",
            "school",
            "point_of_interest",
            "establishment"
        ],
        "user_ratings_total": 2
    },
    "Sekwati Primary School": {
        "formatted_address": "752 Metlatoe St, Molapo, Soweto, 1818, South Africa",
        "geometry": {
            "location": {
                "lat": -26.2567378,
                "lng": 27.8628356
            },
            "viewport": {
                "northeast": {
                    "lat": -26.25539997010728,
                    "lng": 27.86417607989272
                },
                "southwest": {
                    "lat": -26.25809962989272,
                    "lng": 27.86147642010728
                }
            }
        },
        "icon": "https://maps.gstatic.com/mapfiles/place_api/icons/school-71.png",
        "id": "9bbe11defdddad95188b40aa2ad3f29f9ac32294",
        "name": "Sekwati Primary School",
        "photos": [
            {
                "height": 426,
                "html_attributions": [
                    "<a href=\"https://maps.google.com/maps/contrib/101704361806245410632/photos\">A Google User</a>"
                ],
                "photo_reference": "CmRaAAAAj7UcHCYDv3OFctI521eDppszkNDe1pPcbX6Q4GDayfZZ3W7va3s6yE5PbuwO038-SyNKJ6P721zTMDpAQXmW2QrIVIfwGmODpHRfd4ekH0F7qwI8FEUDX-655TDKcTWNEhAqdEqL9xABt5m0x_ouDJjOGhSIrt06vANDdI0Z9JfEzzyxWctsaA",
                "width": 320
            }
        ],
        "place_id": "ChIJH7NhXMKmlR4R_FdlaTRx8aA",
        "plus_code": {
            "compound_code": "PVV7+84 Soweto",
            "global_code": "5G59PVV7+84"
        },
        "rating": 5,
        "reference": "ChIJH7NhXMKmlR4R_FdlaTRx8aA",
        "types": [
            "primary_school",
            "school",
            "point_of_interest",
            "establishment"
        ],
        "user_ratings_total": 1
    },
    "Winnie Madikizela-Mandela School": {
        "formatted_address": "Limpopo St, Senaoane, Soweto, 1818, South Africa",
        "geometry": {
            "location": {
                "lat": -26.2729123,
                "lng": 27.8689629
            },
            "viewport": {
                "northeast": {
                    "lat": -26.27170357010728,
                    "lng": 27.87026322989272
                },
                "southwest": {
                    "lat": -26.27440322989272,
                    "lng": 27.86756357010728
                }
            }
        },
        "icon": "https://maps.gstatic.com/mapfiles/place_api/icons/school-71.png",
        "id": "9640f1861a979b0afa7f49c3eadf1632c37881d9",
        "name": "Winnie Madikizela-Mandela School",
        "opening_hours": {
            "open_now": false
        },
        "place_id": "ChIJIaoLLPqmlR4RAte3u5BZc1o",
        "plus_code": {
            "compound_code": "PVG9+RH Soweto",
            "global_code": "5G59PVG9+RH"
        },
        "rating": 3,
        "reference": "ChIJIaoLLPqmlR4RAte3u5BZc1o",
        "types": [
            "school",
            "point_of_interest",
            "establishment"
        ],
        "user_ratings_total": 2
    },
    "Tlholohelo Primary School": {
        "formatted_address": "154, Moletsane, Soweto, 1868, South Africa",
        "geometry": {
            "location": {
                "lat": -26.2513708,
                "lng": 27.8489937
            },
            "viewport": {
                "northeast": {
                    "lat": -26.25002042010728,
                    "lng": 27.85033902989272
                },
                "southwest": {
                    "lat": -26.25272007989272,
                    "lng": 27.84763937010728
                }
            }
        },
        "icon": "https://maps.gstatic.com/mapfiles/place_api/icons/school-71.png",
        "id": "c6d2f20d14665f59329b489a90fe5d51f96c65d1",
        "name": "Tlholohelo Primary School",
        "place_id": "ChIJ-1cYAbqmlR4ROGls8Qr3iM8",
        "plus_code": {
            "compound_code": "PRXX+FH Soweto",
            "global_code": "5G59PRXX+FH"
        },
        "rating": 4.5,
        "reference": "ChIJ-1cYAbqmlR4ROGls8Qr3iM8",
        "types": [
            "primary_school",
            "school",
            "point_of_interest",
            "establishment"
        ],
        "user_ratings_total": 2
    },
    "Mambo Primary School": {
        "formatted_address": "2324, Chiawelo, Soweto, 1818, South Africa",
        "geometry": {
            "location": {
                "lat": -26.28069,
                "lng": 27.85429
            },
            "viewport": {
                "northeast": {
                    "lat": -26.27912457010728,
                    "lng": 27.85568142989272
                },
                "southwest": {
                    "lat": -26.28182422989272,
                    "lng": 27.85298177010728
                }
            }
        },
        "icon": "https://maps.gstatic.com/mapfiles/place_api/icons/school-71.png",
        "id": "97734feb4e6af41d3738f273be0995605eae0533",
        "name": "Mambo Primary School",
        "photos": [
            {
                "height": 1728,
                "html_attributions": [
                    "<a href=\"https://maps.google.com/maps/contrib/114326081420516836114/photos\">Thili Mudau</a>"
                ],
                "photo_reference": "CmRaAAAAxIYojWFmNkHsnxKTiHS9R8vDk9lnwuDeMraHtjG3KAZFozjD-xmInSnB7azhyaqrMV_JjEQga8BP__SEn2J0fJajKM3kTvEreLM2-2wvg1FwmriSRSnyCqtMruRtR9kyEhAWwy0e2cM27lFElk7MrUIlGhSAx5-YWaSl4SSBYmIwmVlsaRtPwA",
                "width": 2592
            }
        ],
        "place_id": "ChIJb1I3tIqmlR4RCDK5RK4YroY",
        "plus_code": {
            "compound_code": "PV93+PP Soweto",
            "global_code": "5G59PV93+PP"
        },
        "rating": 4.5,
        "reference": "ChIJb1I3tIqmlR4RCDK5RK4YroY",
        "types": [
            "primary_school",
            "school",
            "point_of_interest",
            "establishment"
        ],
        "user_ratings_total": 2
    },
    "Enkolweni Primary School": {
        "formatted_address": "27 Khosa St, Dobsonville, Soweto, 1863, South Africa",
        "geometry": {
            "location": {
                "lat": -26.2266285,
                "lng": 27.8672003
            },
            "viewport": {
                "northeast": {
                    "lat": -26.22524592010728,
                    "lng": 27.86873632989272
                },
                "southwest": {
                    "lat": -26.22794557989273,
                    "lng": 27.86603667010728
                }
            }
        },
        "icon": "https://maps.gstatic.com/mapfiles/place_api/icons/school-71.png",
        "id": "8aa254490778f61f604d01debc642104aa237899",
        "name": "Enkolweni Primary School",
        "place_id": "ChIJGwKExC-hlR4RboTxPKTm38Y",
        "plus_code": {
            "compound_code": "QVF8+8V Soweto",
            "global_code": "5G59QVF8+8V"
        },
        "rating": 1,
        "reference": "ChIJGwKExC-hlR4RboTxPKTm38Y",
        "types": [
            "primary_school",
            "school",
            "point_of_interest",
            "establishment"
        ],
        "user_ratings_total": 1
    },
    "P J Simelane Secondary School": {
        "formatted_address": "Dobsonville, Soweto, 1863, South Africa",
        "geometry": {
            "location": {
                "lat": -26.2286264,
                "lng": 27.8595259
            },
            "viewport": {
                "northeast": {
                    "lat": -26.22742687010728,
                    "lng": 27.86090557989272
                },
                "southwest": {
                    "lat": -26.23012652989272,
                    "lng": 27.85820592010727
                }
            }
        },
        "icon": "https://maps.gstatic.com/mapfiles/place_api/icons/school-71.png",
        "id": "d352c708bd85b7555845c24f6db51e37cb5963b3",
        "name": "P J Simelane Secondary School",
        "place_id": "ChIJ-Qzlo_ShlR4R85gUlLX7DgE",
        "plus_code": {
            "compound_code": "QVC5+GR Soweto",
            "global_code": "5G59QVC5+GR"
        },
        "rating": 4.7,
        "reference": "ChIJ-Qzlo_ShlR4R85gUlLX7DgE",
        "types": [
            "school",
            "point_of_interest",
            "establishment"
        ],
        "user_ratings_total": 3
    },
    "Enkanyezini Primary School": {
        "formatted_address": "157, Phiri, Soweto, 1818, South Africa",
        "geometry": {
            "location": {
                "lat": -26.2679739,
                "lng": 27.8566699
            },
            "viewport": {
                "northeast": {
                    "lat": -26.26671812010728,
                    "lng": 27.85818897989272
                },
                "southwest": {
                    "lat": -26.26941777989272,
                    "lng": 27.85548932010728
                }
            }
        },
        "icon": "https://maps.gstatic.com/mapfiles/place_api/icons/school-71.png",
        "id": "316097d81c876be519d5f8a6e4d90a089b7af259",
        "name": "Enkanyezini Primary School",
        "place_id": "ChIJHy7oHO2mlR4R2RCOzCuCkkc",
        "plus_code": {
            "compound_code": "PVJ4+RM Soweto",
            "global_code": "5G59PVJ4+RM"
        },
        "rating": 0,
        "reference": "ChIJHy7oHO2mlR4R2RCOzCuCkkc",
        "types": [
            "primary_school",
            "school",
            "point_of_interest",
            "establishment"
        ],
        "user_ratings_total": 0
    },
    "Glenridge Primary School": {
        "formatted_address": "Glen Ridge, Soweto, 1818, South Africa",
        "geometry": {
            "location": {
                "lat": -26.2737423,
                "lng": 27.7893531
            },
            "viewport": {
                "northeast": {
                    "lat": -26.27231357010727,
                    "lng": 27.79076182989272
                },
                "southwest": {
                    "lat": -26.27501322989272,
                    "lng": 27.78806217010728
                }
            }
        },
        "icon": "https://maps.gstatic.com/mapfiles/place_api/icons/school-71.png",
        "id": "fa94c649098cf38d6aedbd16c8513a012d4d54d5",
        "name": "Glenridge Primary School",
        "photos": [
            {
                "height": 2358,
                "html_attributions": [
                    "<a href=\"https://maps.google.com/maps/contrib/104898076298421669571/photos\">Linda Rojie</a>"
                ],
                "photo_reference": "CmRaAAAAiy9pxLme56jjY84w4uSqUUDnfOWgwikbL_LbCJ7BvnhSILzoWz3QAhxdr36dWEyoXMB_CSb1zlf9CP0TnlpSkpPR8cXye9waoP21DDR3XdDDe5bWJKUpKndKymxVouQ5EhA1npzhhM_C73PzhZ0doFa_GhQ2Xf_8Ug1rE-xVr1Q94_Zk9ABcmQ",
                "width": 4191
            }
        ],
        "place_id": "ChIJtTL_p2CklR4RcaqSwstU_YI",
        "plus_code": {
            "compound_code": "PQGQ+GP Soweto",
            "global_code": "5G59PQGQ+GP"
        },
        "rating": 4.1,
        "reference": "ChIJtTL_p2CklR4RcaqSwstU_YI",
        "types": [
            "school",
            "point_of_interest",
            "establishment"
        ],
        "user_ratings_total": 7
    },
    "Thulare Secondary School": {
        "formatted_address": "3134, Jabavu, Soweto, 1809, South Africa",
        "geometry": {
            "location": {
                "lat": -26.24402,
                "lng": 27.87707
            },
            "viewport": {
                "northeast": {
                    "lat": -26.24266467010727,
                    "lng": 27.87869452989272
                },
                "southwest": {
                    "lat": -26.24536432989272,
                    "lng": 27.87599487010728
                }
            }
        },
        "icon": "https://maps.gstatic.com/mapfiles/place_api/icons/school-71.png",
        "id": "07ad92a91906d838a961e55a6be6f805f58ecd9f",
        "name": "Thulare Secondary School",
        "place_id": "ChIJcRyo8demlR4RDJwW4JuBYP8",
        "plus_code": {
            "compound_code": "QV4G+9R Soweto",
            "global_code": "5G59QV4G+9R"
        },
        "rating": 0,
        "reference": "ChIJcRyo8demlR4RDJwW4JuBYP8",
        "types": [
            "secondary_school",
            "school",
            "point_of_interest",
            "establishment"
        ],
        "user_ratings_total": 0
    },
    "Tlhatlogang Junior Secondary School": {
        "formatted_address": "1349 Mputhi St, Jabavu, Soweto, 1809, South Africa",
        "geometry": {
            "location": {
                "lat": -26.2450305,
                "lng": 27.8832424
            },
            "viewport": {
                "northeast": {
                    "lat": -26.24389192010728,
                    "lng": 27.88470607989272
                },
                "southwest": {
                    "lat": -26.24659157989272,
                    "lng": 27.88200642010728
                }
            }
        },
        "icon": "https://maps.gstatic.com/mapfiles/place_api/icons/school-71.png",
        "id": "e4ba80c74da866286d636140046886c3274c00fb",
        "name": "Tlhatlogang Junior Secondary School",
        "place_id": "ChIJZbYAENqmlR4Ra_j4MoxqMbA",
        "plus_code": {
            "compound_code": "QV3M+X7 Soweto",
            "global_code": "5G59QV3M+X7"
        },
        "rating": 0,
        "reference": "ChIJZbYAENqmlR4Ra_j4MoxqMbA",
        "types": [
            "secondary_school",
            "school",
            "point_of_interest",
            "establishment"
        ],
        "user_ratings_total": 0
    },
    "Tshedimosho-Mehlaleng Primary School": {
        "formatted_address": "1648, Mofolo Central, Soweto, 1801, South Africa",
        "geometry": {
            "location": {
                "lat": -26.2496271,
                "lng": 27.8873893
            },
            "viewport": {
                "northeast": {
                    "lat": -26.24807292010728,
                    "lng": 27.88853727989272
                },
                "southwest": {
                    "lat": -26.25077257989272,
                    "lng": 27.88583762010728
                }
            }
        },
        "icon": "https://maps.gstatic.com/mapfiles/place_api/icons/school-71.png",
        "id": "2e1ea6d08448140e203a08acc49f67c3a2246ba6",
        "name": "Tshedimosho-Mehlaleng Primary School",
        "photos": [
            {
                "height": 2448,
                "html_attributions": [
                    "<a href=\"https://maps.google.com/maps/contrib/114244159125447012900/photos\">tebogo tlhopane</a>"
                ],
                "photo_reference": "CmRaAAAAF3xONV3BRojCT1_0VqcMwoZsZTPCiWqY7oiq93AO9OKt8_5UCdsZjBr2kMwtAHxqu9EkCSCO9qs9R5SexV0xS7ftVvbDtoZe9j5o25mmaFgL_G3o95kdVKgBYDYtsBHAEhDXkdTrbUT9uo7pb-6dIwWwGhQ3xFdzoXFzYNR4MrG-JKs6r1RxOw",
                "width": 3264
            }
        ],
        "place_id": "ChIJqQWpDyOnlR4RnVF4r1THy6I",
        "plus_code": {
            "compound_code": "QV2P+4X Soweto",
            "global_code": "5G59QV2P+4X"
        },
        "rating": 1,
        "reference": "ChIJqQWpDyOnlR4RnVF4r1THy6I",
        "types": [
            "primary_school",
            "school",
            "point_of_interest",
            "establishment"
        ],
        "user_ratings_total": 1
    },
    "Siyabonga Secondary School": {
        "formatted_address": "10216, Bram Fischerville, Soweto, 1724, South Africa",
        "geometry": {
            "location": {
                "lat": -26.190839,
                "lng": 27.862424
            },
            "viewport": {
                "northeast": {
                    "lat": -26.18945172010728,
                    "lng": 27.86379912989272
                },
                "southwest": {
                    "lat": -26.19215137989272,
                    "lng": 27.86109947010728
                }
            }
        },
        "icon": "https://maps.gstatic.com/mapfiles/place_api/icons/school-71.png",
        "id": "1f8825841ea8ec18e63c0cb440c29ebf9c23be18",
        "name": "Siyabonga Secondary School",
        "opening_hours": {
            "open_now": true
        },
        "photos": [
            {
                "height": 1280,
                "html_attributions": [
                    "<a href=\"https://maps.google.com/maps/contrib/117173829052278520657/photos\">A Google User</a>"
                ],
                "photo_reference": "CmRaAAAAYLn1cEkbSnz0MTToXIGnLCogaBatMGPDXW-xq5QV3DdqHRWwdQseIFBB3PqXNUS7HRqjYI_OzEdHY8phhgAxMDlJMJw169Pi6V8oKXLMlT_qxFwCfzxr4rME5kOakmzkEhB_pXUCOkbbSC22XiQCIbrAGhR6vFNLh_q7sAr38iN1DhN6k_Ejdg",
                "width": 720
            }
        ],
        "place_id": "ChIJu81SHKehlR4RAFDOZXeBpa4",
        "plus_code": {
            "compound_code": "RV56+MX Soweto",
            "global_code": "5G59RV56+MX"
        },
        "rating": 4.9,
        "reference": "ChIJu81SHKehlR4RAFDOZXeBpa4",
        "types": [
            "secondary_school",
            "school",
            "point_of_interest",
            "establishment"
        ],
        "user_ratings_total": 13
    },
    "Lekang Primary School": {
        "formatted_address": "05327 Kadebe St, Jabavu, Soweto, 1809, South Africa",
        "geometry": {
            "location": {
                "lat": -26.2487667,
                "lng": 27.8704569
            },
            "viewport": {
                "northeast": {
                    "lat": -26.24739197010728,
                    "lng": 27.87207897989272
                },
                "southwest": {
                    "lat": -26.25009162989272,
                    "lng": 27.86937932010727
                }
            }
        },
        "icon": "https://maps.gstatic.com/mapfiles/place_api/icons/school-71.png",
        "id": "2de5e6b5265497347dc98b007a522c6db045c5f9",
        "name": "Lekang Primary School",
        "photos": [
            {
                "height": 3030,
                "html_attributions": [
                    "<a href=\"https://maps.google.com/maps/contrib/106687583196868602943/photos\">Masindi Mblaheni</a>"
                ],
                "photo_reference": "CmRaAAAA_ZlWYjfLx7ClFrNSxsjb9YMxMd4ubrCpgIEyASSMOHq4ITkWFYHZHF5AQ_xk1ba7DN7h-udJwpqSQi_eUBmog5p3OFT_8TvLid1a7FGPqbEyZRpzjCDsaoSyuT3RaIlQEhAicezcX86F0dN8BwjKhoIdGhTl6xYFqctHGNuJH8iky0v-VIYbEg",
                "width": 2264
            }
        ],
        "place_id": "ChIJ6wzxtNumlR4RJTCiNYFnWOw",
        "plus_code": {
            "compound_code": "QV2C+F5 Soweto",
            "global_code": "5G59QV2C+F5"
        },
        "rating": 0,
        "reference": "ChIJ6wzxtNumlR4RJTCiNYFnWOw",
        "types": [
            "school",
            "point_of_interest",
            "establishment"
        ],
        "user_ratings_total": 0
    },
    "South West College": {
        "formatted_address": "Soweto, Johannesburg, 1865, South Africa",
        "geometry": {
            "location": {
                "lat": -26.2136639,
                "lng": 27.873929
            },
            "viewport": {
                "northeast": {
                    "lat": -26.21253072010728,
                    "lng": 27.87530532989272
                },
                "southwest": {
                    "lat": -26.21523037989272,
                    "lng": 27.87260567010728
                }
            }
        },
        "icon": "https://maps.gstatic.com/mapfiles/place_api/icons/school-71.png",
        "id": "3a57a684dde997fba29f2eb6a404c879ebea68ae",
        "name": "South West College",
        "place_id": "ChIJuX7hwyGhlR4ReALQsj17-5U",
        "plus_code": {
            "compound_code": "QVPF+GH Soweto",
            "global_code": "5G59QVPF+GH"
        },
        "rating": 0,
        "reference": "ChIJuX7hwyGhlR4ReALQsj17-5U",
        "types": [
            "university",
            "point_of_interest",
            "establishment"
        ],
        "user_ratings_total": 0
    },
    "Boston City Campus & Business College - Maponya Mall": {
        "formatted_address": "406, Maponya Mall, 2127 Chris Hani Rd, Klipspruit, Soweto, 2127, South Africa",
        "geometry": {
            "location": {
                "lat": -26.2581542,
                "lng": 27.9016007
            },
            "viewport": {
                "northeast": {
                    "lat": -26.25706332010728,
                    "lng": 27.90327877989272
                },
                "southwest": {
                    "lat": -26.25976297989272,
                    "lng": 27.90057912010728
                }
            }
        },
        "icon": "https://maps.gstatic.com/mapfiles/place_api/icons/school-71.png",
        "id": "43c3b82002347700ea7ecf0759f05af84a5b0825",
        "name": "Boston City Campus & Business College - Maponya Mall",
        "photos": [
            {
                "height": 2336,
                "html_attributions": [
                    "<a href=\"https://maps.google.com/maps/contrib/110138508879647045847/photos\">Takatso Phoshoko</a>"
                ],
                "photo_reference": "CmRaAAAAuuaMqjIXnxnBgWQgzRpXmkIfGhBmAR5QAOP3Hz9ki4ly8KSJ5zij1yJTa4BVD7bWa95bkiFisYb32JjnO1gCFt2K9OpcAqhoyXNudxeU3mf_cfBGA5JPEl8ZGejfG2L2EhBXiALbdn9UWF3DkPOHR91eGhTmQxIUJFVWC3s39lCsT_ToKx9bGA",
                "width": 4160
            }
        ],
        "place_id": "ChIJ27QcQX2mlR4RB3-JGZYAzNI",
        "plus_code": {
            "compound_code": "PWR2+PJ Soweto",
            "global_code": "5G59PWR2+PJ"
        },
        "rating": 4.8,
        "reference": "ChIJ27QcQX2mlR4RB3-JGZYAzNI",
        "types": [
            "university",
            "point_of_interest",
            "establishment"
        ],
        "user_ratings_total": 5
    },
    "Pace Community College": {
        "formatted_address": "1340, Bendile St, Soweto, Johannesburg, 1868, South Africa",
        "geometry": {
            "location": {
                "lat": -26.240036,
                "lng": 27.854647
            },
            "viewport": {
                "northeast": {
                    "lat": -26.23839082010728,
                    "lng": 27.85584372989272
                },
                "southwest": {
                    "lat": -26.24109047989272,
                    "lng": 27.85314407010728
                }
            }
        },
        "icon": "https://maps.gstatic.com/mapfiles/place_api/icons/school-71.png",
        "id": "c88fa25d5999119d3c4fdee0d3e79789cb41e266",
        "name": "Pace Community College",
        "photos": [
            {
                "height": 2336,
                "html_attributions": [
                    "<a href=\"https://maps.google.com/maps/contrib/109794635243815977529/photos\">Abram Makgalemele</a>"
                ],
                "photo_reference": "CmRaAAAAnRcxBlMxcDTuqKa_hbJQChAJEEsOcT5qBSwpEa-i1MBZl5l_0ljHl023QoCegs1RCYC9exqFfDlO7ftS5CqeBDCnLxsaQOMXfGSYfKcbLt9aYzJrn77lg4Xx1dHsho4zEhC1_Z0FJlFAN_w8LE6njZ6jGhRB6Rhv5czC0GqC9tMyZ_NAcDSZig",
                "width": 4160
            }
        ],
        "place_id": "ChIJoeAVncqmlR4RC5VRWpzCRHI",
        "plus_code": {
            "compound_code": "QV53+XV Soweto",
            "global_code": "5G59QV53+XV"
        },
        "rating": 4,
        "reference": "ChIJoeAVncqmlR4RC5VRWpzCRHI",
        "types": [
            "university",
            "point_of_interest",
            "establishment"
        ],
        "user_ratings_total": 10
    },
    "Protea Glen College": {
        "formatted_address": "Crn 104 Red Current & Protea Boulevard Str, Shop 49 Sizwe Shopping Centre, Protea Glen, Soweto, 1819, South Africa",
        "geometry": {
            "location": {
                "lat": -26.276664,
                "lng": 27.821564
            },
            "viewport": {
                "northeast": {
                    "lat": -26.27530622010728,
                    "lng": 27.82293702989272
                },
                "southwest": {
                    "lat": -26.27800587989272,
                    "lng": 27.82023737010728
                }
            }
        },
        "icon": "https://maps.gstatic.com/mapfiles/place_api/icons/school-71.png",
        "id": "d71f67d431e8c9024c6837fb9915781fef921196",
        "name": "Protea Glen College",
        "opening_hours": {
            "open_now": false
        },
        "photos": [
            {
                "height": 1152,
                "html_attributions": [
                    "<a href=\"https://maps.google.com/maps/contrib/103114681070204310775/photos\">Lebo Sibi</a>"
                ],
                "photo_reference": "CmRaAAAAAGT_vVwUFaPb0_vzoMMADKIXOnKsDad3FLevn4X9H9SPhhgz1xdz5qw6nYzKl5I0uye_Q3R1fkrcb0qo-Pmj7tjf3bQxXuU2lknvHBuKlGDT6Pw_N7mX3Vb2JHY65s5lEhC-F8CsRW6SVahfO4YeCm2qGhTfKp4g-hzwtMe6jRh6NnhT9XBb3Q",
                "width": 2048
            }
        ],
        "place_id": "ChIJF8V3bSWklR4Rg53SLYSF_-M",
        "plus_code": {
            "compound_code": "PRFC+8J Soweto",
            "global_code": "5G59PRFC+8J"
        },
        "rating": 4.5,
        "reference": "ChIJF8V3bSWklR4Rg53SLYSF_-M",
        "types": [
            "university",
            "point_of_interest",
            "establishment"
        ],
        "user_ratings_total": 4
    },
    "WO BIBLE COLLEGE": {
        "formatted_address": "02065 Mampona St, Moroka, Soweto, 1818, South Africa",
        "geometry": {
            "location": {
                "lat": -26.26606,
                "lng": 27.87366
            },
            "viewport": {
                "northeast": {
                    "lat": -26.26477127010728,
                    "lng": 27.87493002989272
                },
                "southwest": {
                    "lat": -26.26747092989272,
                    "lng": 27.87223037010727
                }
            }
        },
        "icon": "https://maps.gstatic.com/mapfiles/place_api/icons/school-71.png",
        "id": "b0f6aad271fad5a2db6f89f879c34994dbaa59cb",
        "name": "WO BIBLE COLLEGE",
        "place_id": "ChIJkR6EOOOmlR4RJF8afBG9nT4",
        "plus_code": {
            "compound_code": "PVMF+HF Soweto",
            "global_code": "5G59PVMF+HF"
        },
        "rating": 5,
        "reference": "ChIJkR6EOOOmlR4RJF8afBG9nT4",
        "types": [
            "university",
            "point_of_interest",
            "establishment"
        ],
        "user_ratings_total": 1
    },
    "Izipho Zomphakathi Multiskills": {
        "formatted_address": "1378 Ingwayuma St, Senaoane, Soweto, 1818, South Africa",
        "geometry": {
            "location": {
                "lat": -26.2768671,
                "lng": 27.8648
            },
            "viewport": {
                "northeast": {
                    "lat": -26.27551757010728,
                    "lng": 27.86613317989272
                },
                "southwest": {
                    "lat": -26.27821722989273,
                    "lng": 27.86343352010728
                }
            }
        },
        "icon": "https://maps.gstatic.com/mapfiles/place_api/icons/school-71.png",
        "id": "f0c59068b4c936c682d6114378e39318d2fcaaa0",
        "name": "Izipho Zomphakathi Multiskills",
        "opening_hours": {
            "open_now": true
        },
        "photos": [
            {
                "height": 1365,
                "html_attributions": [
                    "<a href=\"https://maps.google.com/maps/contrib/109507370632718734601/photos\">Izipho Zomphakathi Multiskills</a>"
                ],
                "photo_reference": "CmRZAAAADhnTCefzeaPcF4WErb0AWY_R8L4smz84ym8W6zu90R-pYzCH9zTKQ231Lnp6ecrqLjwPXd8IvX1874egy25KgisxCXumWkVbE8MTXtehE8D6ZFE1Ai06jN4W6narpiTpEhDnLnDOQz-XsEZChDLYX1BwGhSxD1xL9FLk5ymnEL-6Uq50nn2ONQ",
                "width": 2048
            }
        ],
        "place_id": "ChIJnWKwCvemlR4ROt2-cBgVby0",
        "plus_code": {
            "compound_code": "PVF7+7W Soweto",
            "global_code": "5G59PVF7+7W"
        },
        "rating": 0,
        "reference": "ChIJnWKwCvemlR4ROt2-cBgVby0",
        "types": [
            "university",
            "point_of_interest",
            "establishment"
        ],
        "user_ratings_total": 0
    },
    "Teacher Development Centre (Central District D14)": {
        "formatted_address": "Vundla St, Moroka, Soweto, 1818, South Africa",
        "geometry": {
            "location": {
                "lat": -26.2660226,
                "lng": 27.8742959
            },
            "viewport": {
                "northeast": {
                    "lat": -26.26468217010728,
                    "lng": 27.87563347989272
                },
                "southwest": {
                    "lat": -26.26738182989273,
                    "lng": 27.87293382010728
                }
            }
        },
        "icon": "https://maps.gstatic.com/mapfiles/place_api/icons/school-71.png",
        "id": "8420e8211dea653bda0194493f3ce6a40dcbb4a1",
        "name": "Teacher Development Centre (Central District D14)",
        "place_id": "ChIJP33rKkCnlR4RzoSrHM6WI1Q",
        "plus_code": {
            "compound_code": "PVMF+HP Soweto",
            "global_code": "5G59PVMF+HP"
        },
        "rating": 0,
        "reference": "ChIJP33rKkCnlR4RzoSrHM6WI1Q",
        "types": [
            "university",
            "point_of_interest",
            "establishment"
        ],
        "user_ratings_total": 0
    },
    "Prestige College": {
        "formatted_address": "29 Key St, Protea Glen, Soweto, 1834, South Africa",
        "geometry": {
            "location": {
                "lat": -26.2719769,
                "lng": 27.7706557
            },
            "viewport": {
                "northeast": {
                    "lat": -26.27033407010727,
                    "lng": 27.77220127989272
                },
                "southwest": {
                    "lat": -26.27303372989272,
                    "lng": 27.76950162010727
                }
            }
        },
        "icon": "https://maps.gstatic.com/mapfiles/place_api/icons/school-71.png",
        "id": "a424db72feab68e73c503d82b34604ac7708e350",
        "name": "Prestige College",
        "place_id": "ChIJDft1PLGllR4RM2gBneBlR4Q",
        "plus_code": {
            "compound_code": "PQHC+67 Soweto",
            "global_code": "5G59PQHC+67"
        },
        "rating": 4.2,
        "reference": "ChIJDft1PLGllR4RM2gBneBlR4Q",
        "types": [
            "school",
            "point_of_interest",
            "establishment"
        ],
        "user_ratings_total": 5
    },
    "LechekoPowerYourMind": {
        "formatted_address": "Moliwa street, Soweto, Johannesburg, 1868, South Africa",
        "geometry": {
            "location": {
                "lat": -26.251995,
                "lng": 27.849839
            },
            "viewport": {
                "northeast": {
                    "lat": -26.25065187010728,
                    "lng": 27.85125282989272
                },
                "southwest": {
                    "lat": -26.25335152989272,
                    "lng": 27.84855317010728
                }
            }
        },
        "icon": "https://maps.gstatic.com/mapfiles/place_api/icons/school-71.png",
        "id": "f82cda8b56085c31404f955d1286caf0b7b93929",
        "name": "LechekoPowerYourMind",
        "opening_hours": {
            "open_now": true
        },
        "photos": [
            {
                "height": 3456,
                "html_attributions": [
                    "<a href=\"https://maps.google.com/maps/contrib/114152719343957482364/photos\">A Google User</a>"
                ],
                "photo_reference": "CmRaAAAAa1ec5dMehMlTnsE8i494ayEzfNbenuhnJLP0Sr5nMosjiezto-HzsLFxzo_UC2eecGVQsPRFGCJ7jX98WRb7n9-EiRtNfrmg17KPuvXRUWuVS5Gz0aK5ce_L9J8FCvbXEhCZPx138c-kNoCnxHc4qNtIGhT0v6UgvOPPBBZ6cIqMmlneuFcAMQ",
                "width": 5184
            }
        ],
        "place_id": "ChIJRYWzlrmmlR4RVL6RU-8DR4E",
        "plus_code": {
            "compound_code": "PRXX+6W Soweto",
            "global_code": "5G59PRXX+6W"
        },
        "rating": 0,
        "reference": "ChIJRYWzlrmmlR4RVL6RU-8DR4E",
        "types": [
            "university",
            "point_of_interest",
            "establishment"
        ],
        "user_ratings_total": 0
    },
    "Chris Hani Baragwanath Nursing College": {
        "formatted_address": "Diepkloof 319-Iq, Soweto, 1862, South Africa",
        "geometry": {
            "location": {
                "lat": -26.2636521,
                "lng": 27.9451106
            },
            "viewport": {
                "northeast": {
                    "lat": -26.26219902010727,
                    "lng": 27.94645207989272
                },
                "southwest": {
                    "lat": -26.26489867989272,
                    "lng": 27.94375242010728
                }
            }
        },
        "icon": "https://maps.gstatic.com/mapfiles/place_api/icons/school-71.png",
        "id": "b2745aabc6cf8c6433decf025a3280e4ab14421b",
        "name": "Chris Hani Baragwanath Nursing College",
        "place_id": "ChIJL4PxKCgJlR4RIkbSEAJ-NZQ",
        "plus_code": {
            "compound_code": "PWPW+G2 Soweto",
            "global_code": "5G59PWPW+G2"
        },