{
    "Moletsane High School": {
        "formatted_address": "1644, Moletsane, Soweto, 1868, South Africa",
        "geometry": {
            "location": {
                "lat": -26.2545499,
                "lng": 27.85119
            },
            "viewport": {
                "northeast": {
                    "lat": -26.25301487010728,
                    "lng": 27.85235747989272
                },
                "southwest": {
                    "lat": -26.25571452989272,
                    "lng": 27.84965782010728
                }
            }
        },
        "icon": "https://maps.gstatic.com/mapfiles/place_api/icons/school-71.png",
        "id": "694127120e5e5ee4d8484b15b829ecd4905040cd",
        "name": "Moletsane High School",
        "photos": [
            {
                "height": 480,
                "html_attributions": [
                    "<a href=\"https://maps.google.com/maps/contrib/115286946820380325692/photos\">A Google User</a>"
                ],
                "photo_reference": "CmRaAAAAr86sZ1j9BpKGqONjcWP62EjhfN7iZl_eI8MSZcnsLdpRd3sxrENhR6vxNo1MrOuaNGO7s40z0qA904so8ALgRImLTRAwvkegENSg9OYS7Kpoe-sQdM-YYZLJiHcFX7MhEhCym2GRGSpyEOgKoBlJX2mIGhSA-woYo9udxkjskqlI-13Pg1PPjw",
                "width": 640
            }
        ],
        "place_id": "ChIJodq1JbmmlR4RWYXr9ncwt0U",
        "plus_code": {
            "compound_code": "PVW2+5F Soweto",
            "global_code": "5G59PVW2+5F"
        },
        "rating": 5,
        "reference": "ChIJodq1JbmmlR4RWYXr9ncwt0U",
        "types": [
            "secondary_school",
            "school",
            "point_of_interest",
            "establishment"
        ],
        "user_ratings_total": 4
    },
    "Naledi High School": {
        "formatted_address": "Nyakale St, Soweto, Johannesburg, 1868, South Africa",
        "geometry": {
            "location": {
                "lat": -26.2506089,
                "lng": 27.831194
            },
            "viewport": {
                "northeast": {
                    "lat": -26.24926047010728,
                    "lng": 27.83275617989272
                },
                "southwest": {
                    "lat": -26.25196012989272,
                    "lng": 27.83005652010728
                }
            }
        },
        "icon": "https://maps.gstatic.com/mapfiles/place_api/icons/school-71.png",
        "id": "704d8d0c53006ae08865c6517b4b2b9f47b92989",
        "name": "Naledi High School",
        "photos": [
            {
                "height": 2448,
                "html_attributions": [
                    "<a href=\"https://maps.google.com/maps/contrib/116554861849590971285/photos\">zorodzai munhumutema</a>"
                ],
                "photo_reference": "CmRaAAAA2p3V2hp03UxJWxLRKIvHeEVa_cx2m9uJa1ZMPbhqlBAM1gvxZL9jMk2eJpS34NuP6SgOuVuPNGqjaPE0bhkPCfuQqlWkhSszCId2QH9Yho8APo5EPmQrWsE7ioFPGWomEhB2KYLre5_sEG1dKrglBGSgGhRKEy4FEUrHlAH5INyEjCjBfIbQHA",
                "width": 3264
            }
        ],
        "place_id": "ChIJjSHydgKklR4R5J3AgPwBw3w",
        "plus_code": {
            "compound_code": "PRXJ+QF Soweto",
            "global_code": "5G59PRXJ+QF"
        },
        "rating": 3.8,
        "reference": "ChIJjSHydgKklR4R5J3AgPwBw3w",
        "types": [
            "secondary_school",
            "school",
            "point_of_interest",
            "establishment"
        ],
        "user_ratings_total": 8
    },
    "Megatong Primary School": {
        "formatted_address": "2984, Mapetla, Soweto, 1818, South Africa",
        "geometry": {
            "location": {
                "lat": -26.27573,
                "lng": 27.8514
            },
            "viewport": {
                "northeast": {
                    "lat": -26.27449717010728,
                    "lng": 27.85262487989272
                },
                "southwest": {
                    "lat": -26.27719682989272,
                    "lng": 27.84992522010728
                }
            }
        },
        "icon": "https://maps.gstatic.com/mapfiles/place_api/icons/school-71.png",
        "id": "8570ee248413823b199f1167d84a4b0eaeea47ae",
        "name": "Megatong Primary School",
        "photos": [
            {
                "height": 3456,
                "html_attributions": [
                    "<a href=\"https://maps.google.com/maps/contrib/106844667927800177297/photos\">A Google User</a>"
                ],
                "photo_reference": "CmRaAAAAP4QXgHItIIJcYClsXgGzm3UVqVEdPARmTZu0WG_Sc9KKEgKqZ3SzQvwUPjrBh0BOYr5EXQr4jml8Zv-J17jxp03OV31Brw14fvgcnkKW5SyCsG7IhT-GliaCr5nklppmEhDjqFDFuiIBFMpDwWrlwbMFGhSjCVPXqXN3g_cHax4_yEEMnMYeEg",
                "width": 4608
            }
        ],
        "place_id": "ChIJlx6UYIymlR4ROyX2yIpFJUw",
        "plus_code": {
            "compound_code": "PVF2+PH Soweto",
            "global_code": "5G59PVF2+PH"
        },
        "rating": 4,
        "reference": "ChIJlx6UYIymlR4ROyX2yIpFJUw",
        "types": [
            "primary_school",
            "school",
            "point_of_interest",
            "establishment"
        ],
        "user_ratings_total": 1
    },
    "Daliwonga Secondary School": {
        "formatted_address": "Koma St, Dube, Soweto, 1800, South Africa",
        "geometry": {
            "location": {
                "lat": -26.2320407,
                "lng": 27.8891019
            },
            "viewport": {
                "northeast": {
                    "lat": -26.23039552010728,
                    "lng": 27.89028222989273
                },
                "southwest": {
                    "lat": -26.23309517989273,
                    "lng": 27.88758257010728
                }
            }
        },
        "icon": "https://maps.gstatic.com/mapfiles/place_api/icons/school-71.png",
        "id": "3f06e992b083a4dc5064bb1f3e20baa49e3c204d",
        "name": "Daliwonga Secondary School",
        "photos": [
            {
                "height": 1349,
                "html_attributions": [
                    "<a href=\"https://maps.google.com/maps/contrib/105211241845192848772/photos\">A Google User</a>"
                ],
                "photo_reference": "CmRaAAAABQiXP6t-DXP35KfiulFKFBFok14FfeT1NS4-dn5DV57CwUEleZT3A67CQw1WJ3nqzt2oI-tGTQvg4Yw6fCE7pqp4pORDQWc1-ZFQq64NksRDBHtxlVImnue53FP-xyITEhC6494GCo5rjTvxQ9le6VmZGhSPtgQ_uUX9VKcupLTNM0wnnReOVw",
                "width": 1072
            }
        ],
        "place_id": "ChIJWyHcWi2nlR4RtfIbJiSs__8",
        "plus_code": {
            "compound_code": "QV9Q+5J Soweto",
            "global_code": "5G59QV9Q+5J"
        },
        "rating": 4.1,
        "reference": "ChIJWyHcWi2nlR4RtfIbJiSs__8",
        "types": [
            "secondary_school",
            "school",
            "point_of_interest",
            "establishment"
        ],
        "user_ratings_total": 8
    },
    "Curtis Nkondo School Of Specialization": {
        "formatted_address": "2362 Biyela St, Emdeni South, Soweto, 1861, South Africa",
        "geometry": {
            "location": {
                "lat": -26.2391445,
                "lng": 27.8241183
            },
            "viewport": {
                "northeast": {
                    "lat": -26.23772852010728,
                    "lng": 27.82558242989272
                },
                "southwest": {
                    "lat": -26.24042817989272,
                    "lng": 27.82288277010728
                }
            }
        },
        "icon": "https://maps.gstatic.com/mapfiles/place_api/icons/school-71.png",
        "id": "36786703ffae2761dca21ee92dc1ad46c5a31092",
        "name": "Curtis Nkondo School Of Specialization",
        "opening_hours": {
            "open_now": false
        },
        "photos": [
            {
                "height": 2560,
                "html_attributions": [
                    "<a href=\"https://maps.google.com/maps/contrib/100701837607493975396/photos\">Sithembiso Nhlapo</a>"
                ],
                "photo_reference": "CmRaAAAA7tOJWK6dEx32gNXxrjItKh4HUZwuUCiU7LrgS8z_hkhIPtpMDy1DvNMh0PPrwOXJZl1ZwNJC2HeGMxmIAvW9Wc637rBp0qkCzcIowJmQnEK3FXeGBXqm8ylsdM1jKroLEhDApNNznU-NWcsppC17rI_AGhRAR-28MSKRudfo7gwcLiURKQrGXQ",
                "width": 1536
            }
        ],
        "place_id": "ChIJpcGeLfqjlR4RpyolROkrwkM",
        "plus_code": {
            "compound_code": "QR6F+8J Soweto",
            "global_code": "5G59QR6F+8J"
        },
        "rating": 4.5,
        "reference": "ChIJpcGeLfqjlR4RpyolROkrwkM",
        "types": [
            "school",
            "point_of_interest",
            "establishment"
        ],
        "user_ratings_total": 19
    },
    "St Matthews School": {
        "formatted_address": "818 Ndebele St, Moroka, Soweto, 1818, South Africa",
        "geometry": {
            "location": {
                "lat": -26.259996,
                "lng": 27.881219
            },
            "viewport": {
                "northeast": {
                    "lat": -26.25866272010727,
                    "lng": 27.88256617989272
                },
                "southwest": {
                    "lat": -26.26136237989272,
                    "lng": 27.87986652010727
                }
            }
        },
        "icon": "https://maps.gstatic.com/mapfiles/place_api/icons/school-71.png",
        "id": "f90c2da98b25e321e7f71f0981b322af8130acb9",
        "name": "St Matthews School",
        "opening_hours": {
            "open_now": false
        },
        "photos": [
            {
                "height": 360,
                "html_attributions": [
                    "<a href=\"https://maps.google.com/maps/contrib/102140616210567656442/photos\">pako Khutso</a>"
                ],
                "photo_reference": "CmRaAAAAtT-okbSF7bkDU4V0C_1Wp-lK5OiwRlL8DJVAc491w7q7vkIPX09xVYoQmfCNDtKuE2wjZb7DnwLDMsizj13wHpUQN5DuWjsWMAmRM4JE5OsGT5Rm_xLTY4QzmD4SVWaqEhBZRRs5FY8QpIE-dq6h9OVxGhROwPKn11hxZ_UEf8TSkT-Zc8bW_g",
                "width": 360
            }
        ],
        "place_id": "ChIJVatrKhynlR4RRGDfsciuTOo",
        "plus_code": {
            "compound_code": "PVRJ+2F Soweto",
            "global_code": "5G59PVRJ+2F"
        },
        "rating": 3.6,
        "reference": "ChIJVatrKhynlR4RRGDfsciuTOo",
        "types": [
            "school",
            "point_of_interest",
            "establishment"
        ],
        "user_ratings_total": 28
    },
    "Mapetla High School": {
        "formatted_address": "2189 Monotshe St, Mapetla, Soweto, 1818, South Africa",
        "geometry": {
            "location": {
                "lat": -26.273646,
                "lng": 27.8461848
            },
            "viewport": {
                "northeast": {
                    "lat": -26.27214817010728,
                    "lng": 27.84732552989272
                },
                "southwest": {
                    "lat": -26.27484782989272,
                    "lng": 27.84462587010728
                }
            }
        },
        "icon": "https://maps.gstatic.com/mapfiles/place_api/icons/school-71.png",
        "id": "5e079917c4012b85c742398d9af22dbe2241120c",
        "name": "Mapetla High School",
        "photos": [
            {
                "height": 4032,
                "html_attributions": [
                    "<a href=\"https://maps.google.com/maps/contrib/115857349996038312961/photos\">Thabiso Tlhapi</a>"
                ],
                "photo_reference": "CmRaAAAAbyToDy3hdudXv5m-IdQ33TkcWJ95lXZZu8nPhWSntEcv2RxiPH9bK-iR55PR_JFGbcoZMRxmP0mT_W8RwlzeSTAYGb7Mmqov88gv3yocKYpxIen4l7FC6tXx5mNARMsoEhDiu8F8OIK3JqWoBhU8g8mcGhSQeare0seC8kHkIzQLM7_g6XE22w",
                "width": 3024
            }
        ],
        "place_id": "ChIJExVcMY6mlR4RL2crLYREjI4",
        "plus_code": {
            "compound_code": "PRGW+GF Soweto",
            "global_code": "5G59PRGW+GF"
        },
        "rating": 3.6,
        "reference": "ChIJExVcMY6mlR4RL2crLYREjI4",
        "types": [
            "secondary_school",
            "school",
            "point_of_interest",
            "establishment"
        ],
        "user_ratings_total": 9
    },
    "Anchor High School": {
        "formatted_address": "Rev Frederick S Modise Drive, Soweto, Johannesburg, 1803, South Africa",
        "geometry": {
            "location": {
                "lat": -26.219638,
                "lng": 27.914014
            },
            "viewport": {
                "northeast": {
                    "lat": -26.21799467010728,
                    "lng": 27.91542732989272
                },
                "southwest": {
                    "lat": -26.22069432989272,
                    "lng": 27.91272767010728
                }
            }
        },
        "icon": "https://maps.gstatic.com/mapfiles/place_api/icons/school-71.png",
        "id": "4e78747bf6b69532109a75b6fa362e8476a62ef8",
        "name": "Anchor High School",
        "photos": [
            {
                "height": 1600,
                "html_attributions": [
                    "<a href=\"https://maps.google.com/maps/contrib/102163373263874758593/photos\">A Google User</a>"
                ],
                "photo_reference": "CmRaAAAA7WdK7ii1D_aW7ntb-6EARo5aKb-KUrDUeZhiyuC4Buoix1ruQ3iyERtQbhmUbnaWaCzTSAnFi0k7UjsWXf4RQOQYZhXn0ssvruPdllK1e6ihh5ph-bXc4qizbxm3ozZHEhDsBDbRupCmTr8hepDfViXBGhQuLr0ZEN9wRFUo1gY98lHogVOTsw",
                "width": 1200
            }
        ],
        "place_id": "ChIJU_PeD66glR4Rq0J-qSGs3k0",
        "plus_code": {
            "compound_code": "QWJ7+4J Soweto",
            "global_code": "5G59QWJ7+4J"
        },
        "rating": 3.8,
        "reference": "ChIJU_PeD66glR4Rq0J-qSGs3k0",
        "types": [
            "secondary_school",
            "school",
            "point_of_interest",
            "establishment"
        ],
        "user_ratings_total": 4
    },
    "Ditau Primary School": {
        "formatted_address": "6604, Klipspruit 318-Iq, Soweto, 1809, South Africa",
        "geometry": {
            "location": {
                "lat": -26.24879,
                "lng": 27.92174
            },
            "viewport": {
                "northeast": {
                    "lat": -26.24717212010728,
                    "lng": 27.92323892989272
                },
                "southwest": {
                    "lat": -26.24987177989272,
                    "lng": 27.92053927010728
                }
            }
        },
        "icon": "https://maps.gstatic.com/mapfiles/place_api/icons/school-71.png",
        "id": "409f87149ca3c1002bb70bd0f6a1b84b388e1cbb",
        "name": "Ditau Primary School",
        "place_id": "ChIJ_yK4AWGnlR4R1ImsZC4ukjg",
        "plus_code": {
            "compound_code": "QW2C+FM Soweto",
            "global_code": "5G59QW2C+FM"
        },
        "rating": 5,
        "reference": "ChIJ_yK4AWGnlR4R1ImsZC4ukjg",
        "types": [
            "primary_school",
            "school",
            "point_of_interest",
            "establishment"
        ],
        "user_ratings_total": 3
    },
    "Fundani Primary School": {
        "formatted_address": "1517, Emdeni South, Soweto, 1861, South Africa",
        "geometry": {
            "location": {
                "lat": -26.24619,
                "lng": 27.82102
            },
            "viewport": {
                "northeast": {
                    "lat": -26.24483672010728,
                    "lng": 27.82263172989272
                },
                "southwest": {
                    "lat": -26.24753637989272,
                    "lng": 27.81993207010727
                }
            }
        },
        "icon": "https://maps.gstatic.com/mapfiles/place_api/icons/school-71.png",
        "id": "92091586606b139cb6c599fd23b4dd7c2b3b635c",
        "name": "Fundani Primary School",
        "place_id": "ChIJP6WSkgeklR4Rh8lQu8IytyY",
        "plus_code": {
            "compound_code": "QR3C+GC Soweto",
            "global_code": "5G59QR3C+GC"
        },
        "rating": 4,
        "reference": "ChIJP6WSkgeklR4Rh8lQu8IytyY",
        "types": [
            "primary_school",
            "school",
            "point_of_interest",
            "establishment"
        ],
        "user_ratings_total": 1
    },
    "BHUKULANI SENIOR SCONDARY SCHOOL": {
        "formatted_address": "Zondi 2, 666 Masingafi St, EET Soweto, Johannesburg, 1868, South Africa",
        "geometry": {
            "location": {
                "lat": -26.233524,
                "lng": 27.867531
            },
            "viewport": {
                "northeast": {
                    "lat": -26.23227922010728,
                    "lng": 27.86866757989272
                },
                "southwest": {
                    "lat": -26.23497887989272,
                    "lng": 27.86596792010728
                }
            }
        },
        "icon": "https://maps.gstatic.com/mapfiles/place_api/icons/school-71.png",
        "id": "09494a5c5423d6b3f7d507f540d5d5c51b3577df",
        "name": "BHUKULANI SENIOR SCONDARY SCHOOL",
        "photos": [
            {
                "height": 4096,
                "html_attributions": [
                    "<a href=\"https://maps.google.com/maps/contrib/108032274575368808580/photos\">Khudo Khumo</a>"
                ],
                "photo_reference": "CmRaAAAAXX3Afn1IugkcBo_SVbcOppylfrO6dsj9BXqkCDGS9DbEKyb6l5OiX0RETKBxFVOpUp3bPWtk-qssNARGkYaBWuXguPlr9blIZ-Mzf6A9ccPiM4YXnoQ7sjnNGJ7T2Mw2EhDsPm1N0KjLA_nlTlNYhbA4GhQiFTMwx1A042le-k3v_gxHg5R75A",
                "width": 2304
            }
        ],
        "place_id": "ChIJWflHDS2hlR4RN1dAJzxH5_8",
        "plus_code": {
            "compound_code": "QV89+H2 Soweto",
            "global_code": "5G59QV89+H2"
        },
        "rating": 4.8,
        "reference": "ChIJWflHDS2hlR4RN1dAJzxH5_8",
        "types": [
            "secondary_school",
            "school",
            "point_of_interest",
            "establishment"
        ],
        "user_ratings_total": 10
    },
    "Protea South Primary School": {
        "formatted_address": "02016 Colman St, Protea South, Soweto, 1818, South Africa",
        "geometry": {
            "location": {
                "lat": -26.2808518,
                "lng": 27.8397972
            },
            "viewport": {
                "northeast": {
                    "lat": -26.27970117010728,
                    "lng": 27.84125422989272
                },
                "southwest": {
                    "lat": -26.28240082989272,
                    "lng": 27.83855457010728
                }
            }
        },
        "icon": "https://maps.gstatic.com/mapfiles/place_api/icons/school-71.png",
        "id": "9420c3d0e776331634fc6cd695deb0cfb7643dda",
        "name": "Protea South Primary School",
        "place_id": "ChIJc3rNioamlR4RvBa05RmIibU",
        "plus_code": {
            "compound_code": "PR9Q+MW Soweto",
            "global_code": "5G59PR9Q+MW"
        },
        "rating": 3,
        "reference": "ChIJc3rNioamlR4RvBa05RmIibU",
        "types": [
            "primary_school",
            "school",
            "point_of_interest",
            "establishment"
        ],
        "user_ratings_total": 3
    },
    "Luyolo Higher Primary School": {
        "formatted_address": "1026 A Dakamani St, Soweto, Johannesburg, 1868, South Africa",
        "geometry": {
            "location": {
                "lat": -26.2459089,
                "lng": 27.825657
            },
            "viewport": {
                "northeast": {
                    "lat": -26.24434737010728,
                    "lng": 27.82699782989272
                },
                "southwest": {
                    "lat": -26.24704702989272,
                    "lng": 27.82429817010728
                }
            }
        },
        "icon": "https://maps.gstatic.com/mapfiles/place_api/icons/school-71.png",
        "id": "de8e8f3b0c3627bfb58ce2c5c0d582d5fc26e746",
        "name": "Luyolo Higher Primary School",
        "photos": [
            {
                "height": 4160,
                "html_attributions": [
                    "<a href=\"https://maps.google.com/maps/contrib/112026365805317175186/photos\">A Google User</a>"
                ],
                "photo_reference": "CmRaAAAA50iuuk5gR_g6Iy4OtheBeY0pAbS77Ug3TqcRZaOejaLEEa2xoQUBAi6B9722JcHd3SvxPywlNcLwzW1kFzIK_LOypwEGV_-irpa9h_QejZOTSCusw2eB--vBrOE3Psj6EhDQfZCTnADJ5ejxReNFRG3UGhSYwmOcG6Vms46CRyPEAlbqnvtAJA",
                "width": 2336
            }
        ],
        "place_id": "ChIJ3ZnvygCklR4RUQy7SP4WwLA",
        "plus_code": {
            "compound_code": "QR3G+J7 Soweto",
            "global_code": "5G59QR3G+J7"
        },
        "rating": 4,
        "reference": "ChIJ3ZnvygCklR4RUQy7SP4WwLA",
        "types": [
            "primary_school",
            "school",
            "point_of_interest",
            "establishment"
        ],
        "user_ratings_total": 3
    },
    "Jabavu East Primary School": {
        "formatted_address": "819 Tshabalala St, Emdeni South, Soweto, 1861, South Africa",
        "geometry": {
            "location": {
                "lat": -26.2465804,
                "lng": 27.8294095
            },
            "viewport": {
                "northeast": {
                    "lat": -26.24523047010728,
                    "lng": 27.83072422989272
                },
                "southwest": {
                    "lat": -26.24793012989272,
                    "lng": 27.82802457010727
                }
            }
        },
        "icon": "https://maps.gstatic.com/mapfiles/place_api/icons/school-71.png",
        "id": "ea448309e32a141416461f2a7fb2687853d2b459",
        "name": "Jabavu East Primary School",
        "place_id": "ChIJacFdtAGklR4RpFPhsJllx6E",
        "plus_code": {
            "compound_code": "QR3H+9Q Soweto",
            "global_code": "5G59QR3H+9Q"
        },
        "rating": 1,
        "reference": "ChIJacFdtAGklR4RpFPhsJllx6E",
        "types": [
            "school",
            "point_of_interest",
            "establishment"
        ],
        "user_ratings_total": 1
    },
    "DSJ Primary School": {
        "formatted_address": "4057, Dobsonville, Soweto, 1863, South Africa",
        "geometry": {
            "location": {
                "lat": -26.2219648,
                "lng": 27.8563036
            },
            "viewport": {
                "northeast": {
                    "lat": -26.22059937010728,
                    "lng": 27.85788867989272
                },
                "southwest": {
                    "lat": -26.22329902989272,
                    "lng": 27.85518902010728
                }
            }
        },
        "icon": "https://maps.gstatic.com/mapfiles/place_api/icons/school-71.png",
        "id": "a39084d2dfc642abdfd8ba1348aa178583252422",
        "name": "DSJ Primary School",
        "photos": [
            {
                "height": 3024,
                "html_attributions": [
                    "<a href=\"https://maps.google.com/maps/contrib/108316958289521643916/photos\">Letlotlo La Baleti</a>"
                ],
                "photo_reference": "CmRaAAAAkNnydN4cG0imhIAcaF-S15BWI5zrBXd-txbiuT1DWcsp9ztJO604UfFBjpLU4xNaUlvz2xljMwosQb5WWEpZ89ylSAXoaW6wq7j80xprODmrpec57MyR7KVPfQKwiRUqEhAqfZHSGamngUs6LRrn03_aGhSWAvvI6Ik1fU9oFCYq1EtImVTt6Q",
                "width": 4032
            }
        ],
        "place_id": "ChIJhciiyzihlR4RcXhCTsKb0Ls",
        "plus_code": {
            "compound_code": "QVH4+6G Soweto",
            "global_code": "5G59QVH4+6G"
        },
        "rating": 4,
        "reference": "ChIJhciiyzihlR4RcXhCTsKb0Ls",
        "types": [
            "primary_school",
            "school",
            "point_of_interest",
            "establishment"
        ],
        "user_ratings_total": 2
    },
    "Zibambele Lower Primary School": {
        "formatted_address": "388 Radebe St, Emdeni South, Soweto, 1861, South Africa",
        "geometry": {
            "location": {
                "lat": -26.24183,
                "lng": 27.82342
            },
            "viewport": {
                "northeast": {
                    "lat": -26.24066862010728,
                    "lng": 27.82477932989272
                },
                "southwest": {
                    "lat": -26.24336827989272,
                    "lng": 27.82207967010728
                }
            }
        },
        "icon": "https://maps.gstatic.com/mapfiles/place_api/icons/school-71.png",
        "id": "6c2aeff92a7223e8470cfa8cdc17e0ed96cf9d40",
        "name": "Zibambele Lower Primary School",
        "place_id": "ChIJ38HkG_mjlR4RcRwuDb3zzHs",
        "plus_code": {
            "compound_code": "QR5F+79 Soweto",
            "global_code": "5G59QR5F+79"
        },
        "rating": 5,
        "reference": "ChIJ38HkG_mjlR4RcRwuDb3zzHs",
        "types": [
            "school",
            "point_of_interest",
            "establishment"
        ],
        "user_ratings_total": 1
    },
    "Rebone Primary School": {
        "formatted_address": "50, Naledi, Soweto, 1861, South Africa",
        "geometry": {
            "location": {
                "lat": -26.25611,
                "lng": 27.81666
            },
            "viewport": {
                "northeast": {
                    "lat": -26.25493397010728,
                    "lng": 27.81784142989272
                },
                "southwest": {
                    "lat": -26.25763362989273,
                    "lng": 27.81514177010727
                }
            }
        },
        "icon": "https://maps.gstatic.com/mapfiles/place_api/icons/school-71.png",
        "id": "fc761a5349a5bd580e00b11d5ba7cf7d1a1548db",
        "name": "Rebone Primary School",
        "place_id": "ChIJ0YB2yw-klR4R5saqU-WOCZI",
        "plus_code": {
            "compound_code": "PRV8+HM Soweto",
            "global_code": "5G59PRV8+HM"
        },
        "rating": 3.5,
        "reference": "ChIJ0YB2yw-klR4R5saqU-WOCZI",
        "types": [
            "primary_school",
            "school",
            "point_of_interest",
            "establishment"
        ],
        "user_ratings_total": 4
    },
    "Emndeni Primary School": {
        "formatted_address": "Zwane St, Soweto, Johannesburg, 1861, South Africa",
        "geometry": {
            "location": {
                "lat": -26.2429169,
                "lng": 27.821562
            },
            "viewport": {
                "northeast": {
                    "lat": -26.24170312010728,
                    "lng": 27.82291572989272
                },
                "southwest": {
                    "lat": -26.24440277989272,
                    "lng": 27.82021607010728
                }
            }
        },
        "icon": "https://maps.gstatic.com/mapfiles/place_api/icons/school-71.png",
        "id": "adf9197a894f4332885e54c5a7fbad1626895a9f",
        "name": "Emndeni Primary School",
        "place_id": "ChIJC_TkTfijlR4RdlKefrtzGwc",
        "plus_code": {
            "compound_code": "QR4C+RJ Soweto",
            "global_code": "5G59QR4C+RJ"
        },
        "rating": 0,
        "reference": "ChIJC_TkTfijlR4RdlKefrtzGwc",
        "types": [
            "primary_school",
            "school",
            "point_of_interest",
            "establishment"
        ],
        "user_ratings_total": 0
    },
    "Tetelo Secondary School": {
        "formatted_address": "Letsatsi St, Soweto, Johannesburg, 1819, South Africa",
        "geometry": {
            "location": {
                "lat": -26.2689479,
                "lng": 27.829818
            },
            "viewport": {
                "northeast": {
                    "lat": -26.26753457010728,
                    "lng": 27.83119517989272
                },
                "southwest": {
                    "lat": -26.27023422989272,
                    "lng": 27.82849552010728
                }
            }
        },
        "icon": "https://maps.gstatic.com/mapfiles/place_api/icons/school-71.png",
        "id": "75bc1026b50fa4d98c2b64b13474fd43e24fbf3d",
        "name": "Tetelo Secondary School",
        "photos": [
            {
                "height": 2448,
                "html_attributions": [
                    "<a href=\"https://maps.google.com/maps/contrib/116554861849590971285/photos\">zorodzai munhumutema</a>"
                ],
                "photo_reference": "CmRaAAAApJ0Ui9pKDH9hqm3IvJ4glyVrHmcLbz0fLZfF385wOsIp5u1hGSID43ZMLEsHHlCTrnXwQpwkL3txJSl0_ylxUKpzLJx6dT52Ypcz3HFSlrZCN6vH3dj89yFbA2r4AoiqEhDlyFuY4XFUnHfr4Rm9c9FZGhTIcvQnZ3NE9PByCoUYRKiE7URwBw",
                "width": 3264
            }
        ],
        "place_id": "ChIJk-hxkyCklR4RWAgyD_8KL-4",
        "plus_code": {
            "compound_code": "PRJH+CW Soweto",
            "global_code": "5G59PRJH+CW"
        },
        "rating": 3.8,
        "reference": "ChIJk-hxkyCklR4RWAgyD_8KL-4",
        "types": [
            "school",
            "point_of_interest",
            "establishment"
        ],
        "user_ratings_total": 12
    },
    "Enkanyezini Primary School": {
        "formatted_address": "157, Phiri, Soweto, 1818, South Africa",
        "geometry": {
            "location": {
                "lat": -26.2679739,
                "lng": 27.8566699
            },
            "viewport": {
                "northeast": {
                    "lat": -26.26671812010728,
                    "lng": 27.85818897989272
                },
                "southwest": {
                    "lat": -26.26941777989272,
                    "lng": 27.85548932010728
                }
            }
        },
        "icon": "https://maps.gstatic.com/mapfiles/place_api/icons/school-71.png",
        "id": "316097d81c876be519d5f8a6e4d90a089b7af259",
        "name": "Enkanyezini Primary School",
        "place_id": "ChIJHy7oHO2mlR4R2RCOzCuCkkc",
        "plus_code": {
            "compound_code": "PVJ4+RM Soweto",
            "global_code": "5G59PVJ4+RM"
        },
        "rating": 0,
        "reference": "ChIJHy7oHO2mlR4R2RCOzCuCkkc",
        "types": [
            "primary_school",
            "school",
            "point_of_interest",
            "establishment"
        ],
        "user_ratings_total": 0
    },
    "Curro Academy Protea Glen Independent School": {
        "formatted_address": "Corner of Sagewood and, Wild Chestnut St, Protea Glen, Soweto, 1818, South Africa",
        "geometry": {
            "location": {
                "lat": -26.2694012,
                "lng": 27.8147354
            },
            "viewport": {
                "northeast": {
                    "lat": -26.26810707010727,
                    "lng": 27.81611007989272
                },
                "southwest": {
                    "lat": -26.27080672989272,
                    "lng": 27.81341042010727
                }
            }
        },
        "icon": "https://maps.gstatic.com/mapfiles/place_api/icons/school-71.png",
        "id": "86cddb9c170ecdefa55fb50e04d1a2397a86eb8f",
        "name": "Curro Academy Protea Glen Independent School",
        "opening_hours": {
            "open_now": false
        },
        "photos": [
            {
                "height": 2448,
                "html_attributions": [
                    "<a href=\"https://maps.google.com/maps/contrib/110193491021592104636/photos\">Santa Mokobodi</a>"
                ],
                "photo_reference": "CmRaAAAATvzBt5pEtO8XFJy6CpUgBopJA7WTXqAuLYkmeaAgi0I2Ve-HZL9tP130aLN3UFXxFntpmRa5EnPbJC-3W9so_WhKaOFmnfdwmywxmy4Uam0hBGQgCZXnFPLC_ReS0esGEhDurbhPes4cb9nr-wIKxO5mGhTJudESbqXORrzjY01b1azd3gpyJw",
                "width": 3264
            }
        ],
        "place_id": "ChIJ0XYNxxOllR4Ru-AY7ZuIpwA",
        "plus_code": {
            "compound_code": "PRJ7+6V Soweto",
            "global_code": "5G59PRJ7+6V"
        },
        "rating": 4.7,
        "reference": "ChIJ0XYNxxOllR4Ru-AY7ZuIpwA",
        "types": [
            "school",
            "point_of_interest",
            "establishment"
        ],
        "user_ratings_total": 17
    },
    "Esiyalwini Junior Secondary School": {
        "formatted_address": "Gumede St, Soweto, Johannesburg, 1801, South Africa",
        "geometry": {
            "location": {
                "lat": -26.2258639,
                "lng": 27.875065
            },
            "viewport": {
                "northeast": {
                    "lat": -26.22457847010728,
                    "lng": 27.87614617989272
                },
                "southwest": {
                    "lat": -26.22727812989272,
                    "lng": 27.87344652010728
                }
            }
        },
        "icon": "https://maps.gstatic.com/mapfiles/place_api/icons/school-71.png",
        "id": "c8bf5e17be10d4a61f6eafde2a8229123295cd3d",
        "name": "Esiyalwini Junior Secondary School",
        "place_id": "ChIJEwOfVCihlR4RzbwbC918Brc",
        "plus_code": {
            "compound_code": "QVFG+M2 Soweto",
            "global_code": "5G59QVFG+M2"
        },
        "rating": 5,
        "reference": "ChIJEwOfVCihlR4RzbwbC918Brc",
        "types": [
            "secondary_school",
            "school",
            "point_of_interest",
            "establishment"
        ],
        "user_ratings_total": 1
    },
    "Makhoarane Primary School": {
        "formatted_address": "Vuzane St, Dobsonville, Soweto, 1863, South Africa",
        "geometry": {
            "location": {
                "lat": -26.2196359,
                "lng": 27.873228
            },
            "viewport": {
                "northeast": {
                    "lat": -26.21833842010728,
                    "lng": 27.87421847989271
                },
                "southwest": {
                    "lat": -26.22103807989273,
                    "lng": 27.87151882010727
                }
            }
        },
        "icon": "https://maps.gstatic.com/mapfiles/place_api/icons/school-71.png",
        "id": "dd58df971568896eb78115644bd6eda06985c850",
        "name": "Makhoarane Primary School",
        "opening_hours": {
            "open_now": false
        },
        "photos": [
            {
                "height": 2448,
                "html_attributions": [
                    "<a href=\"https://maps.google.com/maps/contrib/109715408517815951170/photos\">LAURENT MUSARD</a>"
                ],
                "photo_reference": "CmRaAAAAGVD4m7Ea3B3Ky4mi150TgZmMmeEIOpcjyob6FjjfwBKGRF4xOlOOHTIb3yrhbnu2-zE9MWYojaxUfqNTXPsSFO6Ho4wTN5XJhzxcD8E4d7xA5WnyMQ35puTKESxNaMPbEhA4DAKPznUZ2dMnAzgGScwGGhRBUpaFSqjcwE984wcmfcqVoiCRPA",
                "width": 3264
            }
        ],
        "place_id": "ChIJM1TplyahlR4R6wHOUISLR_k",
        "plus_code": {
            "compound_code": "QVJF+47 Soweto",
            "global_code": "5G59QVJF+47"
        },
        "rating": 3.8,
        "reference": "ChIJM1TplyahlR4R6wHOUISLR_k",
        "types": [
            "primary_school",
            "school",
            "point_of_interest",
            "establishment"
        ],
        "user_ratings_total": 4
    },
    "Phafogang Secondary School": {
        "formatted_address": "2226 Gumede St, Moroka, Soweto, 1818, South Africa",
        "geometry": {
            "location": {
                "lat": -26.2673203,
                "lng": 27.8671981
            },
            "viewport": {
                "northeast": {
                    "lat": -26.26574687010728,
                    "lng": 27.86833742989272
                },
                "southwest": {
                    "lat": -26.26844652989272,
                    "lng": 27.86563777010728
                }
            }
        },
        "icon": "https://maps.gstatic.com/mapfiles/place_api/icons/school-71.png",
        "id": "0ca57a5ea62d13bed81a59febeb1fbf193cdcde3",
        "name": "Phafogang Secondary School",
        "photos": [
            {
                "height": 2448,
                "html_attributions": [
                    "<a href=\"https://maps.google.com/maps/contrib/116554861849590971285/photos\">zorodzai munhumutema</a>"
                ],
                "photo_reference": "CmRaAAAACJ1jQ4a0keHP7bZl9ebohYgwLhwulpEDAaZtEkKIovj9WEsrhiczDYRBfESSe1OyVcPT9v2yjW_Ml3sbWgqfSVqr-RVq6JxIb81G12vSf4YXTHW7N5klPFkVc4P51cT6EhD8DMjOcoLnMWKg6YTgJHj2GhRfiH7oFbbMCTqk0mdxQLkh1dKlBg",
                "width": 3264
            }
        ],
        "place_id": "ChIJyQwvUeSmlR4R_pJQCJvyDsw",
        "plus_code": {
            "compound_code": "PVM8+3V Soweto",
            "global_code": "5G59PVM8+3V"
        },
        "rating": 2.7,
        "reference": "ChIJyQwvUeSmlR4R_pJQCJvyDsw",
        "types": [
            "secondary_school",
            "school",
            "point_of_interest",
            "establishment"
        ],
        "user_ratings_total": 3
    },
    "Entandweni Primary School": {
        "formatted_address": "672, Zondi, Soweto, 1868, South Africa",
        "geometry": {
            "location": {
                "lat": -26.2323999,
                "lng": 27.8605
            },
            "viewport": {
                "northeast": {
                    "lat": -26.23089507010728,
                    "lng": 27.86188582989272
                },
                "southwest": {
                    "lat": -26.23359472989272,
                    "lng": 27.85918617010728
                }
            }
        },
        "icon": "https://maps.gstatic.com/mapfiles/place_api/icons/school-71.png",
        "id": "d4a244983551904ea67c9c3e96a7922788f4254f",
        "name": "Entandweni Primary School",
        "place_id": "ChIJD5Qc-DOhlR4RwwjfKMv82q0",
        "plus_code": {
            "compound_code": "QV96+26 Soweto",
            "global_code": "5G59QV96+26"
        },
        "rating": 3.7,
        "reference": "ChIJD5Qc-DOhlR4RwwjfKMv82q0",
        "types": [
            "primary_school",
            "school",
            "point_of_interest",
            "establishment"
        ],
        "user_ratings_total": 3
    },
    "Rishile Lower Primary School": {
        "formatted_address": "337 Phiri St, Meadowlands, Soweto, 1852, South Africa",
        "geometry": {
            "location": {
                "lat": -26.226479,
                "lng": 27.892697
            },
            "viewport": {
                "northeast": {
                    "lat": -26.22511697010728,
                    "lng": 27.89406972989272
                },
                "southwest": {
                    "lat": -26.22781662989272,
                    "lng": 27.89137007010728
                }
            }
        },
        "icon": "https://maps.gstatic.com/mapfiles/place_api/icons/school-71.png",
        "id": "004179ed32a27e7e04b054ed806545233a65da5f",
        "name": "Rishile Lower Primary School",
        "photos": [
            {
                "height": 4000,
                "html_attributions": [
                    "<a href=\"https://maps.google.com/maps/contrib/103693741131211323139/photos\">A Google User</a>"
                ],
                "photo_reference": "CmRaAAAAa_hOybPSwhEyuIlFa61RdXZL6mLdnODng4lbJP0Jsyyq7HMeJ5Qi0Lc4_I9gvPJ7OZnTOJ_pP2JaYN5UTMrJRdCfL2pLGY_MLvRaG6U18Po3sppDqujWMUTMuOZvNWl9EhCSCCdUcKQG1bgG4MItWM5lGhTeoSDBh1zMemB7cniN0QFluc1q2A",
                "width": 3000
            }
        ],
        "place_id": "ChIJdS7SSsyglR4RS-FALo4VDwU",
        "plus_code": {
            "compound_code": "QVFV+C3 Meadowlands East",
            "global_code": "5G59QVFV+C3"
        },
        "rating": 3.5,
        "reference": "ChIJdS7SSsyglR4RS-FALo4VDwU",
        "types": [
            "primary_school",
            "school",
            "point_of_interest",
            "establishment"
        ],
        "user_ratings_total": 4
    },
    "Vukazenzele Primary School": {
        "formatted_address": "999, Mofolo North, Soweto, 1801, South Africa",
        "geometry": {
            "location": {
                "lat": -26.2349599,
                "lng": 27.87812
            },
            "viewport": {
                "northeast": {
                    "lat": -26.23381492010727,
                    "lng": 27.87968827989272
                },
                "southwest": {
                    "lat": -26.23651457989272,
                    "lng": 27.87698862010728
                }
            }
        },
        "icon": "https://maps.gstatic.com/mapfiles/place_api/icons/school-71.png",
        "id": "cd7bd7bee6f6e1ffd1704ce971e1fd97a570e939",
        "name": "Vukazenzele Primary School",
        "place_id": "ChIJIyu2nyqnlR4RE0UMcBXgwlc",
        "plus_code": {
            "compound_code": "QV8H+26 Soweto",
            "global_code": "5G59QV8H+26"
        },
        "rating": 0,
        "reference": "ChIJIyu2nyqnlR4RE0UMcBXgwlc",
        "types": [
            "primary_school",
            "school",
            "point_of_interest",
            "establishment"
        ],
        "user_ratings_total": 0
    },
    "Bopasenatla Secondary School": {
        "formatted_address": "2063B Sono St, Soweto, Johannesburg, 1864, South Africa",
        "geometry": {
            "location": {
                "lat": -26.251199,
                "lng": 27.943039
            },
            "viewport": {
                "northeast": {
                    "lat": -26.24948917010728,
                    "lng": 27.94455232989272
                },
                "southwest": {
                    "lat": -26.25218882989272,
                    "lng": 27.94185267010727
                }
            }
        },
        "icon": "https://maps.gstatic.com/mapfiles/place_api/icons/school-71.png",
        "id": "86e4f71f09769d8509d6f0f635c0666d01521912",
        "name": "Bopasenatla Secondary School",
        "place_id": "ChIJ9xzfDcYJlR4RoydtP-eSnqs",
        "plus_code": {
            "compound_code": "PWXV+G6 Diepmeadow",
            "global_code": "5G59PWXV+G6"
        },
        "rating": 0,
        "reference": "ChIJ9xzfDcYJlR4RoydtP-eSnqs",
        "types": [
            "secondary_school",
            "school",
            "point_of_interest",
            "establishment"
        ],
        "user_ratings_total": 0
    },
    "St Angela's Primary School": {
        "formatted_address": "Mokhesi St, Dobsonville, Soweto, 1863, South Africa",
        "geometry": {
            "location": {
                "lat": -26.2202829,
                "lng": 27.866275
            },
            "viewport": {
                "northeast": {
                    "lat": -26.21931762010728,
                    "lng": 27.86771577989272
                },
                "southwest": {
                    "lat": -26.22201727989272,
                    "lng": 27.86501612010728
                }
            }
        },
        "icon": "https://maps.gstatic.com/mapfiles/place_api/icons/school-71.png",
        "id": "d81ba7fd53a1fd4fcd9d54517cf6021ed20ecc35",
        "name": "St Angela's Primary School",
        "place_id": "ChIJFQ17yiShlR4RFnI8zvpxVfA",
        "plus_code": {
            "compound_code": "QVH8+VG Soweto",
            "global_code": "5G59QVH8+VG"
        },
        "rating": 3,
        "reference": "ChIJFQ17yiShlR4RFnI8zvpxVfA",
        "types": [
            "primary_school",
            "school",
            "point_of_interest",
            "establishment"
        ],
        "user_ratings_total": 1
    },
    "Ibhongo Secondary School": {
        "formatted_address": "Chris Hani Rd, Soweto, Johannesburg, 1818, South Africa",
        "geometry": {
            "location": {
                "lat": -26.2725039,
                "lng": 27.874548
            },
            "viewport": {
                "northeast": {
                    "lat": -26.27093557010728,
                    "lng": 27.87552607989272
                },
                "southwest": {
                    "lat": -26.27363522989272,
                    "lng": 27.87282642010728
                }
            }
        },
        "icon": "https://maps.gstatic.com/mapfiles/place_api/icons/school-71.png",
        "id": "accf702e110d62f8a9932fac7dafd482c51bacf9",
        "name": "Ibhongo Secondary School",
        "photos": [
            {
                "height": 4128,
                "html_attributions": [
                    "<a href=\"https://maps.google.com/maps/contrib/104645070986033703258/photos\">bongani bulana</a>"
                ],
                "photo_reference": "CmRaAAAA-S-jSFWDxQLH_4a2A2R03GC5PdlS9mfDWAyebIPlbaOH49wpJF7eKtu0NKG3hQjSUcPEZzBNKCI3dDZnGbnFUQJIgw192JiBN9cIXKFduz_LHQeP_PszXBe1EMNSynJ2EhCk_365pWirfT-I_R3qdOl0GhTVwL_6m7aMBxnugP9KSc8pirUq8g",
                "width": 2322
            }
        ],
        "place_id": "ChIJ6T9wgv6mlR4R7mx880xADsM",
        "plus_code": {
            "compound_code": "PVGF+XR Soweto",
            "global_code": "5G59PVGF+XR"
        },
        "rating": 4.3,
        "reference": "ChIJ6T9wgv6mlR4R7mx880xADsM",
        "types": [
            "school",
            "point_of_interest",
            "establishment"
        ],
        "user_ratings_total": 8
    },
    "Thabisang Primary School": {
        "formatted_address": "11227, Orlando West, Soweto, 1804, South Africa",
        "geometry": {
            "location": {
                "lat": -26.24253,
                "lng": 27.90275
            },
            "viewport": {
                "northeast": {
                    "lat": -26.24100382010728,
                    "lng": 27.90418682989272
                },
                "southwest": {
                    "lat": -26.24370347989272,
                    "lng": 27.90148717010727
                }
            }
        },
        "icon": "https://maps.gstatic.com/mapfiles/place_api/icons/school-71.png",
        "id": "aedfdb1507062cc5f3de657ba073ee2b9a13b875",
        "name": "Thabisang Primary School",
        "photos": [
            {
                "height": 450,
                "html_attributions": [
                    "<a href=\"https://maps.google.com/maps/contrib/113685732175273787088/photos\">Thibolover Cornelius Vendula</a>"
                ],
                "photo_reference": "CmRaAAAAFQxtHb2YTJBxnc90OQmCopuIzAEhLnctutxDhFKYUjhyHfh7vWkKNEFe-q3px1y5bSjXL_LPaeCT9sNxwQV5Sm0oIMLAHJkQtpZOAyfkBPHOPnDTdop1TUQ1AxMdDeoNEhBNvn2sliLLI7leHdnmD9lAGhTT7YA0SVoiFyPTBCWjKQa5LV5XoA",
                "width": 830
            }
        ],
        "place_id": "ChIJ5-9_bUenlR4RJfe3wKAzCtA",
        "plus_code": {
            "compound_code": "QW43+X3 Soweto",
            "global_code": "5G59QW43+X3"
        },
        "rating": 5,
        "reference": "ChIJ5-9_bUenlR4RJfe3wKAzCtA",
        "types": [
            "primary_school",
            "school",
            "point_of_interest",
            "establishment"
        ],
        "user_ratings_total": 2
    },
    "Mveledzandivho Primary School": {
        "formatted_address": "3350, Chiawelo, Soweto, 1818, South Africa",
        "geometry": {
            "location": {
                "lat": -26.28598,
                "lng": 27.85925
            },
            "viewport": {
                "northeast": {
                    "lat": -26.28470432010728,
                    "lng": 27.86077557989272
                },
                "southwest": {
                    "lat": -26.28740397989272,
                    "lng": 27.85807592010728
                }
            }
        },
        "icon": "https://maps.gstatic.com/mapfiles/place_api/icons/school-71.png",
        "id": "1559faa1034272114c80a764475016a835b8aa30",
        "name": "Mveledzandivho Primary School",
        "photos": [
            {
                "height": 3120,
                "html_attributions": [
                    "<a href=\"https://maps.google.com/maps/contrib/106580558538670537992/photos\">magret mukwevho</a>"
                ],
                "photo_reference": "CmRaAAAAk97DsYtR8y2CQd3uAsbWtDwcow0KRD41RskodlBElnyFR3Vk7NzwojxjD8SKSFzlmDSmmyJibyHtZUy-RS02UjBmaGZnIGc6cdaTkspsRibLkx-jWCodenm_45_0I4WKEhBd0wOP4fMCxSM6DVH8csfIGhSOD8cAsKOlKwZu-w-ODVQ-jxIfJQ",
                "width": 4160
            }
        ],
        "place_id": "ChIJocMVoV6mlR4Rmf9V-cbiruE",
        "plus_code": {
            "compound_code": "PV75+JP Soweto",
            "global_code": "5G59PV75+JP"
        },
        "rating": 3.4,
        "reference": "ChIJocMVoV6mlR4Rmf9V-cbiruE",
        "types": [
            "primary_school",
            "school",
            "point_of_interest",
            "establishment"
        ],
        "user_ratings_total": 5
    },
    "Jabavu Oos Primary School": {
        "formatted_address": "Vilalazi Street, Soweto, Johannesburg, 1860, South Africa",
        "geometry": {
            "location": {
                "lat": -26.2585269,
                "lng": 27.88322
            },
            "viewport": {
                "northeast": {
                    "lat": -26.25710592010728,
                    "lng": 27.88481797989272
                },
                "southwest": {
                    "lat": -26.25980557989272,
                    "lng": 27.88211832010728
                }
            }
        },
        "icon": "https://maps.gstatic.com/mapfiles/place_api/icons/school-71.png",
        "id": "76673bb42d91537b96352086c17a827984495d1e",
        "name": "Jabavu Oos Primary School",
        "place_id": "ChIJRWLuuR6nlR4R7NPWenH5VBM",
        "plus_code": {
            "compound_code": "PVRM+H7 Soweto",
            "global_code": "5G59PVRM+H7"
        },
        "rating": 0,
        "reference": "ChIJRWLuuR6nlR4R7NPWenH5VBM",
        "types": [
            "primary_school",
            "school",
            "point_of_interest",
            "establishment"
        ],
        "user_ratings_total": 0
    },
    "Nghunghunyani Comprehensive School": {
        "formatted_address": "508 Hlaisi St, Chiawelo, Soweto, 1818, South Africa",
        "geometry": {
            "location": {
                "lat": -26.2786899,
                "lng": 27.87388
            },
            "viewport": {
                "northeast": {
                    "lat": -26.27753867010728,
                    "lng": 27.87522022989272
                },
                "southwest": {
                    "lat": -26.28023832989272,
                    "lng": 27.87252057010728
                }
            }
        },
        "icon": "https://maps.gstatic.com/mapfiles/place_api/icons/school-71.png",
        "id": "0b6e4bb981c1af8af64f14fb495dc9726b998937",
        "name": "Nghunghunyani Comprehensive School",
        "photos": [
            {
                "height": 3024,
                "html_attributions": [
                    "<a href=\"https://maps.google.com/maps/contrib/101091403525167597978/photos\">Tertius Ngobeni</a>"
                ],
                "photo_reference": "CmRaAAAAb7PEnkORHACyfOxqafTM7nMcuAkqAJTeeHy9eUP5r804rU_nwQ8VUdur1Ei7Zi3BBnl0pQhqzFuYPOsC0-v6FXb7XtTdWQ_mcllEd1qvs1Okjs-x1XNX-uA9ihecxkiqEhChCxPArhY7I3j4u6OvfS0EGhQ9QulmjG2jU_jIldJyvHp9sw8r3Q",
                "width": 4032
            }
        ],
        "place_id": "ChIJg5mRk1WmlR4R8i8p-VvydfU",
        "plus_code": {
            "compound_code": "PVCF+GH Soweto",
            "global_code": "5G59PVCF+GH"
        },
        "rating": 3.8,
        "reference": "ChIJg5mRk1WmlR4R8i8p-VvydfU",
        "types": [
            "school",
            "point_of_interest",
            "establishment"
        ],
        "user_ratings_total": 4
    },
    "Reasoma High School": {
        "formatted_address": "Ntloko St, Soweto, Johannesburg, 1818, South Africa",
        "geometry": {
            "location": {
                "lat": -26.26877,
                "lng": 27.837396
            },
            "viewport": {
                "northeast": {
                    "lat": -26.26755752010728,
                    "lng": 27.83847332989273
                },
                "southwest": {
                    "lat": -26.27025717989272,
                    "lng": 27.83577367010728
                }
            }
        },
        "icon": "https://maps.gstatic.com/mapfiles/place_api/icons/school-71.png",
        "id": "01ddebf3b0f4cf7da66ea1ba0328331854d94991",
        "name": "Reasoma High School",
        "photos": [
            {
                "height": 774,
                "html_attributions": [
                    "<a href=\"https://maps.google.com/maps/contrib/114789876508516559397/photos\">Ntsikelelo Hlathuka</a>"
                ],
                "photo_reference": "CmRaAAAAFeEjdCA3nvHNfY7iVrUVufirwSdIdzB6wA1lGBTc8KejnILrDOo2ttsCRVW6Oghyt40lWOECsUoitMyENzc81M5vvA8o1y-ZBCRuIh2da5KI8wYU107tXXoEuSmgPGkfEhCTlwlvGupE6TfaN5w33F2nGhRnV9UGm1pebSXshpwO3A2LP1H6FA",
                "width": 456
            }
        ],
        "place_id": "ChIJYygiUZmmlR4RRy4lzPStCdA",
        "plus_code": {
            "compound_code": "PRJP+FX Soweto",
            "global_code": "5G59PRJP+FX"
        },
        "rating": 4.6,
        "reference": "ChIJYygiUZmmlR4RRy4lzPStCdA",
        "types": [
            "secondary_school",
            "school",
            "point_of_interest",
            "establishment"
        ],
        "user_ratings_total": 11
    },
    "Impumelelo Junior Primary School": {
        "formatted_address": "2858, Kewale Street, Emdeni Ext, Soweto, 1868, South Africa",
        "geometry": {
            "location": {
                "lat": -26.244632,
                "lng": 27.817722
            },
            "viewport": {
                "northeast": {
                    "lat": -26.24326012010728,
                    "lng": 27.81933662989272
                },
                "southwest": {
                    "lat": -26.24595977989272,
                    "lng": 27.81663697010728
                }
            }
        },
        "icon": "https://maps.gstatic.com/mapfiles/place_api/icons/school-71.png",
        "id": "67c1a378568e1679cee2bb12bad2b0bf170779c6",
        "name": "Impumelelo Junior Primary School",
        "place_id": "ChIJu8cav_ejlR4RZV6K_xmFIy8",
        "plus_code": {
            "compound_code": "QR49+43 Soweto",
            "global_code": "5G59QR49+43"
        },
        "rating": 1,
        "reference": "ChIJu8cav_ejlR4RZV6K_xmFIy8",
        "types": [
            "primary_school",
            "school",
            "point_of_interest",
            "establishment"
        ],
        "user_ratings_total": 1
    },
    "Heerengracht Primary School": {
        "formatted_address": "Eldorado Park, Soweto, 1811, South Africa",
        "geometry": {
            "location": {
                "lat": -26.28988,
                "lng": 27.91602
            },
            "viewport": {
                "northeast": {
                    "lat": -26.28855902010728,
                    "lng": 27.91771047989272
                },
                "southwest": {
                    "lat": -26.29125867989272,
                    "lng": 27.91501082010728
                }
            }
        },
        "icon": "https://maps.gstatic.com/mapfiles/place_api/icons/school-71.png",
        "id": "3fe911949d352ed8e73e26b992aa29fba76a215b",
        "name": "Heerengracht Primary School",
        "place_id": "ChIJdyp1KI2nlR4R19a8696Jx3A",
        "plus_code": {
            "compound_code": "PW68+2C Soweto",
            "global_code": "5G59PW68+2C"
        },
        "rating": 4.7,
        "reference": "ChIJdyp1KI2nlR4R19a8696Jx3A",
        "types": [
            "primary_school",
            "school",
            "point_of_interest",
            "establishment"
        ],
        "user_ratings_total": 6
    },
    "Vuwani Secondary School": {
        "formatted_address": "3346, Chiawelo, Soweto, 1818, South Africa",
        "geometry": {
            "location": {
                "lat": -26.2856525,
                "lng": 27.8559831
            },
            "viewport": {
                "northeast": {
                    "lat": -26.28460002010727,
                    "lng": 27.85727872989272
                },
                "southwest": {
                    "lat": -26.28729967989272,
                    "lng": 27.85457907010727
                }
            }
        },
        "icon": "https://maps.gstatic.com/mapfiles/place_api/icons/school-71.png",
        "id": "b4ac43738ae1844868d6f8c03bcecd236083cd37",
        "name": "Vuwani Secondary School",
        "photos": [
            {
                "height": 4208,
                "html_attributions": [
                    "<a href=\"https://maps.google.com/maps/contrib/109018525716504970993/photos\">today lunch time result Morne Coetzee</a>"
                ],
                "photo_reference": "CmRaAAAAdI0Y844UFkt9RBhT4dAuODWegTOwZ55jixmzj-xkrJOFFXx96h5_UIa3M3oqdp86o-Nj_DBtiP-00wSTmTSyHU09zdWioZYNlzFMvu6wQyzWwZqmJA9anYVP5vxzgMbXEhD207i04Qlvb5mw2IZj6TiKGhSz1d9AjnVi4Ik9qBmcQvVHcp7dCA",
                "width": 2368
            }
        ],
        "place_id": "ChIJW2FoFV6mlR4RSBOPbw_VGs8",
        "plus_code": {
            "compound_code": "PV74+P9 Soweto",
            "global_code": "5G59PV74+P9"
        },
        "rating": 4.2,
        "reference": "ChIJW2FoFV6mlR4RSBOPbw_VGs8",
        "types": [
            "secondary_school",
            "school",
            "point_of_interest",
            "establishment"
        ],
        "user_ratings_total": 11
    },
    "Tshilidzi Primary School": {
        "formatted_address": "Soweto, Johannesburg, 1868, South Africa",
        "geometry": {
            "location": {
                "lat": -26.253604,
                "lng": 27.85415
            },
            "viewport": {
                "northeast": {
                    "lat": -26.25223397010728,
                    "lng": 27.85562092989273
                },
                "southwest": {
                    "lat": -26.25493362989272,
                    "lng": 27.85292127010728
                }
            }
        },
        "icon": "https://maps.gstatic.com/mapfiles/place_api/icons/school-71.png",
        "id": "107a8d1536eb60bf7fa130dd7867968523875800",
        "name": "Tshilidzi Primary School",
        "place_id": "ChIJZ9bIo7imlR4RwUjrfiENxwY",
        "plus_code": {
            "compound_code": "PVW3+HM Soweto",
            "global_code": "5G59PVW3+HM"
        },
        "rating": 0,
        "reference": "ChIJZ9bIo7imlR4RwUjrfiENxwY",
        "types": [
            "primary_school",
            "school",
            "point_of_interest",
            "establishment"
        ],
        "user_ratings_total": 0
    },
    "Molaetsa Primary School": {
        "formatted_address": "3130 Maliza St, Jabavu, Soweto, 1809, South Africa",
        "geometry": {
            "location": {
                "lat": -26.25536,
                "lng": 27.871275
            },
            "viewport": {
                "northeast": {
                    "lat": -26.25401032010728,
                    "lng": 27.87261562989272
                },
                "southwest": {
                    "lat": -26.25670997989272,
                    "lng": 27.86991597010728
                }
            }
        },
        "icon": "https://maps.gstatic.com/mapfiles/place_api/icons/school-71.png",
        "id": "e97748db38df49c99b9969f9dc3c5116b09dd046",
        "name": "Molaetsa Primary School",
        "place_id": "ChIJef9R6N2mlR4R3RbsWx0m2Mk",
        "plus_code": {
            "compound_code": "PVVC+VG Soweto",
            "global_code": "5G59PVVC+VG"
        },
        "rating": 3,
        "reference": "ChIJef9R6N2mlR4R3RbsWx0m2Mk",
        "types": [
            "primary_school",
            "school",
            "point_of_interest",
            "establishment"
        ],
        "user_ratings_total": 3
    },
    "Emadlelweni Primary School": {
        "formatted_address": "Soweto, Johannesburg, 1818, South Africa",
        "geometry": {
            "location": {
                "lat": -26.2767439,
                "lng": 27.875326
            },
            "viewport": {
                "northeast": {
                    "lat": -26.27537177010728,
                    "lng": 27.87644942989272
                },
                "southwest": {
                    "lat": -26.27807142989272,
                    "lng": 27.87374977010728
                }
            }
        },
        "icon": "https://maps.gstatic.com/mapfiles/place_api/icons/school-71.png",
        "id": "09933128430a107c67712146f47dc4fec5cd511f",
        "name": "Emadlelweni Primary School",
        "photos": [
            {
                "height": 347,
                "html_attributions": [
                    "<a href=\"https://maps.google.com/maps/contrib/114391670363937602560/photos\">Ubi Thomas</a>"
                ],
                "photo_reference": "CmRaAAAA3nO5XC1hnsUUaOLv5CRBlQGw4Qv1mCBp4UoqfzOcvykUa7GFlmgPZZzN9YpoZC1pwp1NMxQR3gxiJ2Pt_sUsbPhSc6wzeY6_SKNFgS5cHESjCQLTKFIoSRjNUFg3DztFEhDwvDFSTdG5TEF-wCtBh1O4GhQjdqkkFW9PMMNeEkzmdTXblTI8WQ",
                "width": 260
            }
        ],
        "place_id": "ChIJh7NDnP-mlR4RmXF4riKJhjI",
        "plus_code": {
            "compound_code": "PVFG+84 Soweto",
            "global_code": "5G59PVFG+84"
        },
        "rating": 5,
        "reference": "ChIJh7NDnP-mlR4RmXF4riKJhjI",
        "types": [
            "primary_school",
            "school",
            "point_of_interest",
            "establishment"
        ],
        "user_ratings_total": 2
    },
    "Sekwati Primary School": {
        "formatted_address": "752 Metlatoe St, Molapo, Soweto, 1818, South Africa",
        "geometry": {
            "location": {
                "lat": -26.2567378,
                "lng": 27.8628356
            },
            "viewport": {
                "northeast": {
                    "lat": -26.25539997010728,
                    "lng": 27.86417607989272
                },
                "southwest": {
                    "lat": -26.25809962989272,
                    "lng": 27.86147642010728
                }
            }
        },
        "icon": "https://maps.gstatic.com/mapfiles/place_api/icons/school-71.png",
        "id": "9bbe11defdddad95188b40aa2ad3f29f9ac32294",
        "name": "Sekwati Primary School",
        "photos": [
            {
                "height": 426,
                "html_attributions": [
                    "<a href=\"https://maps.google.com/maps/contrib/101704361806245410632/photos\">A Google User</a>"
                ],
                "photo_reference": "CmRaAAAA9HqQTzs6xQEht61ndtWnbkt0BOqbUF23dUyn8pgGpZS-7AhdmIndgtxrsHX1FMJH0f53MPlZLiPhDV6dljTG-ZnDYB5fFQ1CYdjbFswwtfL6LvRUMM68UCUzNYqH3htQEhCpX59fVx4JNN54iVnme2QJGhTZVAUaE433XBtcIKE-5qIadEd34A",
                "width": 320
            }
        ],
        "place_id": "ChIJH7NhXMKmlR4R_FdlaTRx8aA",
        "plus_code": {
            "compound_code": "PVV7+84 Soweto",
            "global_code": "5G59PVV7+84"
        },
        "rating": 5,
        "reference": "ChIJH7NhXMKmlR4R_FdlaTRx8aA",
        "types": [
            "primary_school",
            "school",
            "point_of_interest",
            "establishment"
        ],
        "user_ratings_total": 1
    },
    "Winnie Madikizela-Mandela School": {
        "formatted_address": "Limpopo St, Senaoane, Soweto, 1818, South Africa",
        "geometry": {
            "location": {
                "lat": -26.2729123,
                "lng": 27.8689629
            },
            "viewport": {
                "northeast": {
                    "lat": -26.27170357010728,
                    "lng": 27.87026322989272
                },
                "southwest": {
                    "lat": -26.27440322989272,
                    "lng": 27.86756357010728
                }
            }
        },
        "icon": "https://maps.gstatic.com/mapfiles/place_api/icons/school-71.png",
        "id": "9640f1861a979b0afa7f49c3eadf1632c37881d9",
        "name": "Winnie Madikizela-Mandela School",
        "opening_hours": {
            "open_now": false
        },
        "place_id": "ChIJIaoLLPqmlR4RAte3u5BZc1o",
        "plus_code": {
            "compound_code": "PVG9+RH Soweto",
            "global_code": "5G59PVG9+RH"
        },
        "rating": 3,
        "reference": "ChIJIaoLLPqmlR4RAte3u5BZc1o",
        "types": [
            "school",
            "point_of_interest",
            "establishment"
        ],
        "user_ratings_total": 2
    },
    "Enkolweni Primary School": {
        "formatted_address": "27 Khosa St, Dobsonville, Soweto, 1863, South Africa",
        "geometry": {
            "location": {
                "lat": -26.2266285,
                "lng": 27.8672003
            },
            "viewport": {
                "northeast": {
                    "lat": -26.22524592010728,
                    "lng": 27.86873632989272
                },
                "southwest": {
                    "lat": -26.22794557989273,
                    "lng": 27.86603667010728
                }
            }
        },
        "icon": "https://maps.gstatic.com/mapfiles/place_api/icons/school-71.png",
        "id": "8aa254490778f61f604d01debc642104aa237899",
        "name": "Enkolweni Primary School",
        "place_id": "ChIJGwKExC-hlR4RboTxPKTm38Y",
        "plus_code": {
            "compound_code": "QVF8+8V Soweto",
            "global_code": "5G59QVF8+8V"
        },
        "rating": 1,
        "reference": "ChIJGwKExC-hlR4RboTxPKTm38Y",
        "types": [
            "primary_school",
            "school",
            "point_of_interest",
            "establishment"
        ],
        "user_ratings_total": 1
    },
    "Lekang Primary School": {
        "formatted_address": "05327 Kadebe St, Jabavu, Soweto, 1809, South Africa",
        "geometry": {
            "location": {
                "lat": -26.2487667,
                "lng": 27.8704569
            },
            "viewport": {
                "northeast": {
                    "lat": -26.24739197010728,
                    "lng": 27.87207897989272
                },
                "southwest": {
                    "lat": -26.25009162989272,
                    "lng": 27.86937932010727
                }
            }
        },
        "icon": "https://maps.gstatic.com/mapfiles/place_api/icons/school-71.png",
        "id": "2de5e6b5265497347dc98b007a522c6db045c5f9",
        "name": "Lekang Primary School",
        "photos": [
            {
                "height": 3030,
                "html_attributions": [
                    "<a href=\"https://maps.google.com/maps/contrib/106687583196868602943/photos\">Masindi Mblaheni</a>"
                ],
                "photo_reference": "CmRaAAAAywPRc009fWyLcITZK0PRckzwhdpU2daQk3IC_cRftEhPtaxA2IqC-XgP8Zll6et4Bu9QatGTY7-OEcPqbaYSQRCiULWMI_Ct-aOyBEyez7SPtQfSY3OToGRUikjKwpxuEhCEppjTQ0PeL4Y4eo3SNpc5GhS25ZmQWPWjKoKt5wrGKOqTCYkkYw",
                "width": 2264
            }
        ],
        "place_id": "ChIJ6wzxtNumlR4RJTCiNYFnWOw",
        "plus_code": {
            "compound_code": "QV2C+F5 Soweto",
            "global_code": "5G59QV2C+F5"
        },
        "rating": 0,
        "reference": "ChIJ6wzxtNumlR4RJTCiNYFnWOw",
        "types": [
            "school",
            "point_of_interest",
            "establishment"
        ],
        "user_ratings_total": 0
    },
    "Itemogele Primary School": {
        "formatted_address": "590 Quinine St, Protea Glen, Soweto, 1819, South Africa",
        "geometry": {
            "location": {
                "lat": -26.2653818,
                "lng": 27.8113063
            },
            "viewport": {
                "northeast": {
                    "lat": -26.26416262010728,
                    "lng": 27.81225837989272
                },
                "southwest": {
                    "lat": -26.26686227989272,
                    "lng": 27.80955872010728
                }
            }
        },
        "icon": "https://maps.gstatic.com/mapfiles/place_api/icons/school-71.png",
        "id": "7d1c6378550f2e3489cf45ce70b5154ee9300455",
        "name": "Itemogele Primary School",
        "photos": [
            {
                "height": 1080,
                "html_attributions": [
                    "<a href=\"https://maps.google.com/maps/contrib/101943963124885793035/photos\">Themba Mosa Kobeli</a>"
                ],
                "photo_reference": "CmRaAAAAyWAOOXSEMmuz4PM_r0D73wzm-Uf03m-fkYA5VRvZfu5Frbv0AO47BbETvBRRxJBy7tXmNLPKjoL4uKKKaUOar2pcam0PEhm7XfUQhgpo5eAqEEsjGv_ZzwJX1TOYZZ3IEhBa5Tf-c1VquEiDdWq5-IPDGhQshFdBWStm6WqhjDLS-fbcEuKRIA",
                "width": 1920
            }
        ],
        "place_id": "ChIJZfZ6N2mklR4RZ7S0VfKapfk",
        "plus_code": {
            "compound_code": "PRM6+RG Soweto",
            "global_code": "5G59PRM6+RG"
        },
        "rating": 4.3,
        "reference": "ChIJZfZ6N2mklR4RZ7S0VfKapfk",
        "types": [
            "primary_school",
            "school",
            "point_of_interest",
            "establishment"
        ],
        "user_ratings_total": 8
    },
    "Mambo Primary School": {
        "formatted_address": "2324, Chiawelo, Soweto, 1818, South Africa",
        "geometry": {
            "location": {
                "lat": -26.28069,
                "lng": 27.85429
            },
            "viewport": {
                "northeast": {
                    "lat": -26.27912457010728,
                    "lng": 27.85568142989272
                },
                "southwest": {
                    "lat": -26.28182422989272,
                    "lng": 27.85298177010728
                }
            }
        },
        "icon": "https://maps.gstatic.com/mapfiles/place_api/icons/school-71.png",
        "id": "97734feb4e6af41d3738f273be0995605eae0533",
        "name": "Mambo Primary School",
        "photos": [
            {
                "height": 1728,
                "html_attributions": [
                    "<a href=\"https://maps.google.com/maps/contrib/114326081420516836114/photos\">Thili Mudau</a>"
                ],
                "photo_reference": "CmRaAAAAZPZa0-yzYaOxChUwp7GNw73L3H_E1YbANGaYLfrUzudt-kIwrPdozws42jJoJqY7D2AdtAuTg4bt0-lVbU0LDvnbBv4YrIRVnxVVrdGwjT0Xd-fyqc3Jj4_fv4XmxZD6EhAyaA-R3VIOJEaj-owvvdC1GhQVoh9iBsN251_rN7iqG2Zku-wSOA",
                "width": 2592
            }
        ],
        "place_id": "ChIJb1I3tIqmlR4RCDK5RK4YroY",
        "plus_code": {
            "compound_code": "PV93+PP Soweto",
            "global_code": "5G59PV93+PP"
        },
        "rating": 4.5,
        "reference": "ChIJb1I3tIqmlR4RCDK5RK4YroY",
        "types": [
            "primary_school",
            "school",
            "point_of_interest",
            "establishment"
        ],
        "user_ratings_total": 2
    },
    "P J Simelane Secondary School": {
        "formatted_address": "Dobsonville, Soweto, 1863, South Africa",
        "geometry": {
            "location": {
                "lat": -26.2286264,
                "lng": 27.8595259
            },
            "viewport": {
                "northeast": {
                    "lat": -26.22742687010728,
                    "lng": 27.86090557989272
                },
                "southwest": {
                    "lat": -26.23012652989272,
                    "lng": 27.85820592010727
                }
            }
        },
        "icon": "https://maps.gstatic.com/mapfiles/place_api/icons/school-71.png",
        "id": "d352c708bd85b7555845c24f6db51e37cb5963b3",
        "name": "P J Simelane Secondary School",
        "place_id": "ChIJ-Qzlo_ShlR4R85gUlLX7DgE",
        "plus_code": {
            "compound_code": "QVC5+GR Soweto",
            "global_code": "5G59QVC5+GR"
        },
        "rating": 4.7,
        "reference": "ChIJ-Qzlo_ShlR4R85gUlLX7DgE",
        "types": [
            "school",
            "point_of_interest",
            "establishment"
        ],
        "user_ratings_total": 3
    },
    "Thulare Secondary School": {
        "formatted_address": "3134, Jabavu, Soweto, 1809, South Africa",
        "geometry": {
            "location": {
                "lat": -26.24402,
                "lng": 27.87707
            },
            "viewport": {
                "northeast": {
                    "lat": -26.24266467010727,
                    "lng": 27.87869452989272
                },
                "southwest": {
                    "lat": -26.24536432989272,
                    "lng": 27.87599487010728
                }
            }
        },
        "icon": "https://maps.gstatic.com/mapfiles/place_api/icons/school-71.png",
        "id": "07ad92a91906d838a961e55a6be6f805f58ecd9f",
        "name": "Thulare Secondary School",
        "place_id": "ChIJcRyo8demlR4RDJwW4JuBYP8",
        "plus_code": {
            "compound_code": "QV4G+9R Soweto",
            "global_code": "5G59QV4G+9R"
        },
        "rating": 0,
        "reference": "ChIJcRyo8demlR4RDJwW4JuBYP8",
        "types": [
            "secondary_school",
            "school",
            "point_of_interest",
            "establishment"
        ],
        "user_ratings_total": 0
    },
    "Tlhatlogang Junior Secondary School": {
        "formatted_address": "1349 Mputhi St, Jabavu, Soweto, 1809, South Africa",
        "geometry": {
            "location": {
                "lat": -26.2450305,
                "lng": 27.8832424
            },
            "viewport": {
                "northeast": {
                    "lat": -26.24389192010728,
                    "lng": 27.88470607989272
                },
                "southwest": {
                    "lat": -26.24659157989272,
                    "lng": 27.88200642010728
                }
            }
        },
        "icon": "https://maps.gstatic.com/mapfiles/place_api/icons/school-71.png",
        "id": "e4ba80c74da866286d636140046886c3274c00fb",
        "name": "Tlhatlogang Junior Secondary School",
        "place_id": "ChIJZbYAENqmlR4Ra_j4MoxqMbA",
        "plus_code": {
            "compound_code": "QV3M+X7 Soweto",
            "global_code": "5G59QV3M+X7"
        },
        "rating": 0,
        "reference": "ChIJZbYAENqmlR4Ra_j4MoxqMbA",
        "types": [
            "secondary_school",
            "school",
            "point_of_interest",
            "establishment"
        ],
        "user_ratings_total": 0
    },
    "Moriting Primary School": {
        "formatted_address": "2942 Soma St, Mapetla, Soweto, 6201, South Africa",
        "geometry": {
            "location": {
                "lat": -26.2711114,
                "lng": 27.842893
            },
            "viewport": {
                "northeast": {
                    "lat": -26.26974722010728,
                    "lng": 27.84424767989272
                },
                "southwest": {
                    "lat": -26.27244687989272,
                    "lng": 27.84154802010728
                }
            }
        },
        "icon": "https://maps.gstatic.com/mapfiles/place_api/icons/school-71.png",
        "id": "b0bebde00c2518a76f3097e3f04f3684d1b6c318",
        "name": "Moriting Primary School",
        "place_id": "ChIJdT-ZeJCmlR4REtCbxXLQPD8",
        "plus_code": {
            "compound_code": "PRHV+H5 Soweto",
            "global_code": "5G59PRHV+H5"
        },
        "rating": 5,
        "reference": "ChIJdT-ZeJCmlR4REtCbxXLQPD8",
        "types": [
            "primary_school",
            "school",
            "point_of_interest",
            "establishment"
        ],
        "user_ratings_total": 1
    },
    "Tlholohelo Primary School": {
        "formatted_address": "154, Moletsane, Soweto, 1868, South Africa",
        "geometry": {
            "location": {
                "lat": -26.2513708,
                "lng": 27.8489937
            },
            "viewport": {
                "northeast": {
                    "lat": -26.25002042010728,
                    "lng": 27.85033902989272
                },
                "southwest": {
                    "lat": -26.25272007989272,
                    "lng": 27.84763937010728
                }
            }
        },
        "icon": "https://maps.gstatic.com/mapfiles/place_api/icons/school-71.png",
        "id": "c6d2f20d14665f59329b489a90fe5d51f96c65d1",
        "name": "Tlholohelo Primary School",
        "place_id": "ChIJ-1cYAbqmlR4ROGls8Qr3iM8",
        "plus_code": {
            "compound_code": "PRXX+FH Soweto",
            "global_code": "5G59PRXX+FH"
        },
        "rating": 4.5,
        "reference": "ChIJ-1cYAbqmlR4ROGls8Qr3iM8",
        "types": [
            "primary_school",
            "school",
            "point_of_interest",
            "establishment"
        ],
        "user_ratings_total": 2
    },
    "Forte Secondary School": {
        "formatted_address": "110 Christian Dube St, Mmesi Park, Soweto, 1863, South Africa",
        "geometry": {
            "location": {
                "lat": -26.2144492,
                "lng": 27.8672428
            },
            "viewport": {
                "northeast": {
                    "lat": -26.21264482010728,
                    "lng": 27.86854782989272
                },
                "southwest": {
                    "lat": -26.21534447989272,
                    "lng": 27.86584817010727
                }
            }
        },
        "icon": "https://maps.gstatic.com/mapfiles/place_api/icons/school-71.png",
        "id": "7443d6e56509a497510bcfb1d0a5af57b26ce507",
        "name": "Forte Secondary School",
        "place_id": "ChIJUZJ1BRahlR4ReRyFuA0_0N0",
        "plus_code": {
            "compound_code": "QVP8+6V Soweto",
            "global_code": "5G59QVP8+6V"
        },
        "rating": 4.1,
        "reference": "ChIJUZJ1BRahlR4ReRyFuA0_0N0",
        "types": [
            "secondary_school",
            "school",
            "point_of_interest",
            "establishment"
        ],
        "user_ratings_total": 7
    },
    "Adelaide Tambo School for the Physically Challenged": {
        "formatted_address": "Diokane St, Jabavu, Soweto, 1809, South Africa",
        "geometry": {
            "location": {
                "lat": -26.2496042,
                "lng": 27.8760558
            },
            "viewport": {
                "northeast": {
                    "lat": -26.24818437010728,
                    "lng": 27.87732152989272
                },
                "southwest": {
                    "lat": -26.25088402989272,
                    "lng": 27.87462187010728
                }
            }
        },
        "icon": "https://maps.gstatic.com/mapfiles/place_api/icons/school-71.png",
        "id": "004e91902b01017f9728064e4ea080a3ff5635c8",
        "name": "Adelaide Tambo School for the Physically Challenged",
        "place_id": "ChIJy88Pz9imlR4RQTLLeyO3DOc",
        "plus_code": {
            "compound_code": "QV2G+5C Soweto",
            "global_code": "5G59QV2G+5C"
        },
        "rating": 0,
        "reference": "ChIJy88Pz9imlR4RQTLLeyO3DOc",
        "types": [
            "school",
            "point_of_interest",
            "establishment"
        ],
        "user_ratings_total": 0
    },
    "Isipho Lower Primary School": {
        "formatted_address": "144 Inqulube St, Moroka, Soweto, 1818, South Africa",
        "geometry": {
            "location": {
                "lat": -26.2628691,
                "lng": 27.8736326
            },
            "viewport": {
                "northeast": {
                    "lat": -26.26143282010728,
                    "lng": 27.87490267989272
                },
                "southwest": {
                    "lat": -26.26413247989272,
                    "lng": 27.87220302010728
                }
            }
        },
        "icon": "https://maps.gstatic.com/mapfiles/place_api/icons/school-71.png",
        "id": "27f64d79eecaaf261bf3ade3aeeda29e32f98df1",
        "name": "Isipho Lower Primary School",
        "place_id": "ChIJq6qq6uOmlR4Rf-wSzL0eKs4",
        "rating": 0,
        "reference": "ChIJq6qq6uOmlR4Rf-wSzL0eKs4",
        "types": [
            "primary_school",
            "school",
            "point_of_interest",
            "establishment"
        ],
        "user_ratings_total": 0
    },
    "South West College": {
        "formatted_address": "Mncube Dr, Dube, Soweto, 1801, South Africa",
        "geometry": {
            "location": {
                "lat": -26.247705,
                "lng": 27.8926677
            },
            "viewport": {
                "northeast": {
                    "lat": -26.24628552010728,
                    "lng": 27.89387047989272
                },
                "southwest": {
                    "lat": -26.24898517989272,
                    "lng": 27.89117082010728
                }
            }
        },
        "icon": "https://maps.gstatic.com/mapfiles/place_api/icons/school-71.png",
        "id": "371c4e8b7ec453e1344c126bc7f8ffa74582d611",
        "name": "South West College",
        "place_id": "ChIJZSVPYDynlR4RYYpmZEMmtwA",
        "plus_code": {
            "compound_code": "QV2V+W3 Soweto",
            "global_code": "5G59QV2V+W3"
        },
        "rating": 4.5,
        "reference": "ChIJZSVPYDynlR4RYYpmZEMmtwA",
        "types": [
            "university",
            "point_of_interest",
            "establishment"
        ],
        "user_ratings_total": 2
    },
    "Boston City Campus & Business College - Maponya Mall": {
        "formatted_address": "406, Maponya Mall, 2127 Chris Hani Rd, Klipspruit, Soweto, 2127, South Africa",
        "geometry": {
            "location": {
                "lat": -26.2581542,
                "lng": 27.9016007
            },
            "viewport": {
                "northeast": {
                    "lat": -26.25706332010728,
                    "lng": 27.90327877989272
                },
                "southwest": {
                    "lat": -26.25976297989272,
                    "lng": 27.90057912010728
                }
            }
        },
        "icon": "https://maps.gstatic.com/mapfiles/place_api/icons/school-71.png",
        "id": "43c3b82002347700ea7ecf0759f05af84a5b0825",
        "name": "Boston City Campus & Business College - Maponya Mall",
        "photos": [
            {
                "height": 2336,
                "html_attributions": [
                    "<a href=\"https://maps.google.com/maps/contrib/110138508879647045847/photos\">Takatso Phoshoko</a>"
                ],
                "photo_reference": "CmRaAAAAo9EamW78TmCou4X7Ez2hDt8WTIFtqT26Pd58i2hMQscPzu7XL-xJRVKA9WXbl4Ja15HcpGLT9QPOM1NnyG3mMcX4v7yhUbnC9JxWpdeSI7ij9rA9Iic61XLooz0aaUuXEhBQmxBKctiKCaDOkJsdl3VXGhR_UmxxzjgdcZoAnYovqmLm5Kp5-w",
                "width": 4160
            }
        ],
        "place_id": "ChIJ27QcQX2mlR4RB3-JGZYAzNI",
        "plus_code": {
            "compound_code": "PWR2+PJ Soweto",
            "global_code": "5G59PWR2+PJ"
        },
        "rating": 4.8,
        "reference": "ChIJ27QcQX2mlR4RB3-JGZYAzNI",
        "types": [
            "university",
            "point_of_interest",
            "establishment"
        ],
        "user_ratings_total": 5
    },
    "Pace Community College": {
        "formatted_address": "1340, Bendile St, Soweto, Johannesburg, 1868, South Africa",
        "geometry": {
            "location": {
                "lat": -26.240036,
                "lng": 27.854647
            },
            "viewport": {
                "northeast": {
                    "lat": -26.23839082010728,
                    "lng": 27.85584372989272
                },
                "southwest": {
                    "lat": -26.24109047989272,
                    "lng": 27.85314407010728
                }
            }
        },
        "icon": "https://maps.gstatic.com/mapfiles/place_api/icons/school-71.png",
        "id": "c88fa25d5999119d3c4fdee0d3e79789cb41e266",
        "name": "Pace Community College",
        "photos": [
            {
                "height": 2336,
                "html_attributions": [
                    "<a href=\"https://maps.google.com/maps/contrib/109794635243815977529/photos\">Abram Makgalemele</a>"
                ],
                "photo_reference": "CmRaAAAAEofxKZf8DGaqHfMfcKEVsoOfzMeVRUibZCfWZyBt3lySou9uS2BgzUxeqx8hipASGiNlpiDcY5o7fA4EuUfgbGi_RoFllim81nQ4f2jZ5iz8Fu5ponn7hopZe6reuAzoEhCG9SmKqGhPJwDKfp91Pf8yGhSfcwDocJ_4v2bmPzw5zUAJBgP7kg",
                "width": 4160
            }
        ],
        "place_id": "ChIJoeAVncqmlR4RC5VRWpzCRHI",
        "plus_code": {
            "compound_code": "QV53+XV Soweto",
            "global_code": "5G59QV53+XV"
        },
        "rating": 4,
        "reference": "ChIJoeAVncqmlR4RC5VRWpzCRHI",
        "types": [
            "university",
            "point_of_interest",
            "establishment"
        ],
        "user_ratings_total": 10
    },
    "WO BIBLE COLLEGE": {
        "formatted_address": "02065 Mampona St, Moroka, Soweto, 1818, South Africa",
        "geometry": {
            "location": {
                "lat": -26.26606,
                "lng": 27.87366
            },
            "viewport": {
                "northeast": {
                    "lat": -26.26477127010728,
                    "lng": 27.87493002989272
                },
                "southwest": {
                    "lat": -26.26747092989272,
                    "lng": 27.87223037010727
                }
            }
        },
        "icon": "https://maps.gstatic.com/mapfiles/place_api/icons/school-71.png",
        "id": "b0f6aad271fad5a2db6f89f879c34994dbaa59cb",
        "name": "WO BIBLE COLLEGE",
        "place_id": "ChIJkR6EOOOmlR4RJF8afBG9nT4",
        "plus_code": {
            "compound_code": "PVMF+HF Soweto",
            "global_code": "5G59PVMF+HF"
        },
        "rating": 5,
        "reference": "ChIJkR6EOOOmlR4RJF8afBG9nT4",
        "types": [
            "university",
            "point_of_interest",
            "establishment"
        ],
        "user_ratings_total": 1
    },
    "Protea Glen College": {
        "formatted_address": "Crn 104 Red Current & Protea Boulevard Str, Shop 49 Sizwe Shopping Centre, Protea Glen, Soweto, 1819, South Africa",
        "geometry": {
            "location": {
                "lat": -26.276664,
                "lng": 27.821564
            },
            "viewport": {
                "northeast": {
                    "lat": -26.27530622010728,
                    "lng": 27.82293702989272
                },
                "southwest": {
                    "lat": -26.27800587989272,
                    "lng": 27.82023737010728
                }
            }
        },
        "icon": "https://maps.gstatic.com/mapfiles/place_api/icons/school-71.png",
        "id": "d71f67d431e8c9024c6837fb9915781fef921196",
        "name": "Protea Glen College",
        "opening_hours": {
            "open_now": false
        },
        "photos": [
            {
                "height": 1152,
                "html_attributions": [
                    "<a href=\"https://maps.google.com/maps/contrib/103114681070204310775/photos\">Lebo Sibi</a>"
                ],
                "photo_reference": "CmRaAAAAx-iXQ53aoQMmc55rzD40WbSZVn16mfVKA_-g8yOKg4n4n5NT630q613MUqOcqqbg6TDuJzgCj20ZPDdDEccbdAi8MuyFr3FeJc8rFMRbelhO1IUQLV66WD0d4-nCQEMnEhA45F3q2y0x3BBAFOgOlwLqGhQjNi6qU3AElzRqCNZTu6qeRmjj4g",
                "width": 2048
            }
        ],
        "place_id": "ChIJF8V3bSWklR4Rg53SLYSF_-M",
        "plus_code": {
            "compound_code": "PRFC+8J Soweto",
            "global_code": "5G59PRFC+8J"
        },
        "rating": 4.5,
        "reference": "ChIJF8V3bSWklR4Rg53SLYSF_-M",
        "types": [
            "university",
            "point_of_interest",
            "establishment"
        ],
        "user_ratings_total": 4
    },
    "Izipho Zomphakathi Multiskills": {
        "formatted_address": "1378 Ingwayuma St, Senaoane, Soweto, 1818, South Africa",
        "geometry": {
            "location": {
                "lat": -26.2768671,
                "lng": 27.8648
            },
            "viewport": {
                "northeast": {
                    "lat": -26.27551757010728,
                    "lng": 27.86613317989272
                },
                "southwest": {
                    "lat": -26.27821722989273,
                    "lng": 27.86343352010728
                }
            }
        },
        "icon": "https://maps.gstatic.com/mapfiles/place_api/icons/school-71.png",
        "id": "f0c59068b4c936c682d6114378e39318d2fcaaa0",
        "name": "Izipho Zomphakathi Multiskills",
        "opening_hours": {
            "open_now": true
        },
        "photos": [
            {
                "height": 1365,
                "html_attributions": [
                    "<a href=\"https://maps.google.com/maps/contrib/109507370632718734601/photos\">Izipho Zomphakathi Multiskills</a>"
                ],
                "photo_reference": "CmRZAAAAxGEBd4UCOOdErSj4wJnJD8FM6nBzVonIiHnZs2HxcyXEeX3uRo-usr6E6tLyw7kRyCN67SILxQsA1istPWL24p4EtGRN708_YKC2RV6goKDOP2LkWW7wL1Ze4cXSFXq4EhCNcuz086aVJHfXiYQxanO0GhQsfOq5RjqQoZAi7gzAzUQfgkLQfA",
                "width": 2048
            }
        ],
        "place_id": "ChIJnWKwCvemlR4ROt2-cBgVby0",
        "plus_code": {
            "compound_code": "PVF7+7W Soweto",
            "global_code": "5G59PVF7+7W"
        },
        "rating": 0,
        "reference": "ChIJnWKwCvemlR4ROt2-cBgVby0",
        "types": [
            "university",
            "point_of_interest",
            "establishment"
        ],
        "user_ratings_total": 0
    },
    "Teacher Development Centre (Central District D14)": {
        "formatted_address": "Vundla St, Moroka, Soweto, 1818, South Africa",
        "geometry": {
            "location": {
                "lat": -26.2660226,
                "lng": 27.8742959
            },
            "viewport": {
                "northeast": {
                    "lat": -26.26468217010728,
                    "lng": 27.87563347989272
                },
                "southwest": {
                    "lat": -26.26738182989273,
                    "lng": 27.87293382010728
                }
            }
        },
        "icon": "https://maps.gstatic.com/mapfiles/place_api/icons/school-71.png",
        "id": "8420e8211dea653bda0194493f3ce6a40dcbb4a1",
        "name": "Teacher Development Centre (Central District D14)",
        "place_id": "ChIJP33rKkCnlR4RzoSrHM6WI1Q",
        "plus_code": {
            "compound_code": "PVMF+HP Soweto",
            "global_code": "5G59PVMF+HP"
        },
        "rating": 0,
        "reference": "ChIJP33rKkCnlR4RzoSrHM6WI1Q",
        "types": [
            "university",
            "point_of_interest",
            "establishment"
        ],
        "user_ratings_total": 0
    },
    "Prestige College": {
        "formatted_address": "29 Key St, Protea Glen, Soweto, 1834, South Africa",
        "geometry": {
            "location": {
                "lat": -26.2719769,
                "lng": 27.7706557
            },
            "viewport": {
                "northeast": {
                    "lat": -26.27033407010727,
                    "lng": 27.77220127989272
                },
                "southwest": {
                    "lat": -26.27303372989272,
                    "lng": 27.76950162010727
                }
            }
        },
        "icon": "https://maps.gstatic.com/mapfiles/place_api/icons/school-71.png",
        "id": "a424db72feab68e73c503d82b34604ac7708e350",
        "name": "Prestige College",
        "place_id": "ChIJDft1PLGllR4RM2gBneBlR4Q",
        "plus_code": {
            "compound_code": "PQHC+67 Soweto",
            "global_code": "5G59PQHC+67"
        },
        "rating": 4.2,
        "reference": "ChIJDft1PLGllR4RM2gBneBlR4Q",
        "types": [
            "school",
            "point_of_interest",
            "establishment"
        ],
        "user_ratings_total": 5
    },
    "LechekoPowerYourMind": {
        "formatted_address": "Moliwa street, Soweto, Johannesburg, 1868, South Africa",
        "geometry": {
            "location": {
                "lat": -26.251995,
                "lng": 27.849839
            },
            "viewport": {
                "northeast": {
                    "lat": -26.25065187010728,
                    "lng": 27.85125282989272
                },
                "southwest": {
                    "lat": -26.25335152989272,
                    "lng": 27.84855317010728
                }
            }
        },
        "icon": "https://maps.gstatic.com/mapfiles/place_api/icons/school-71.png",
        "id": "f82cda8b56085c31404f955d1286caf0b7b93929",
        "name": "LechekoPowerYourMind",
        "opening_hours": {
            "open_now": false
        },
        "photos": [
            {
                "height": 3456,
                "html_attributions": [
                    "<a href=\"https://maps.google.com/maps/contrib/114152719343957482364/photos\">A Google User</a>"
                ],
                "photo_reference": "CmRaAAAAAAiZn5YPs7m6TYZoEDbua9JeHArr1VsKJhmKVV3tsEjB5T3ufUfn0pfnFkHqLVsX0R1Qp91oVZxA9vWJEbwtaf2_zSOsheM_X4_ceMlL0MSXUgSo32naBFnxRm1uMQbbEhA41y8PuGGr5nf89UnItI8TGhS-k9DcV3j2ect4wqY3S6Pm02PvOg",
                "width": 5184
            }
        ],
        "place_id": "ChIJRYWzlrmmlR4RVL6RU-8DR4E",
        "plus_code": {
            "compound_code": "PRXX+6W Soweto",
            "global_code": "5G59PRXX+6W"
        },
        "rating": 0,
        "reference": "ChIJRYWzlrmmlR4RVL6RU-8DR4E",
        "types": [
            "university",
            "point_of_interest",
            "establishment"
        ],
        "user_ratings_total": 0
    },
    "Chris Hani Baragwanath Nursing College": {
        "formatted_address": "Diepkloof 319-Iq, Soweto, 1862, South Africa",
        "geometry": {
            "location": {
                "lat": -26.2636521,
                "lng": 27.9451106
            },
            "viewport": {
                "northeast": {
                    "lat": -26.26219902010727,
                    "lng": 27.94645207989272
                },
                "southwest": {
                    "lat": -26.26489867989272,
                    "lng": 27.94375242010728
                }
            }
        },
        "icon": "https://maps.gstatic.com/mapfiles/place_api/icons/school-71.png",
        "id": "b2745aabc6cf8c6433decf025a3280e4ab14421b",
        "name": "Chris Hani Baragwanath Nursing College",
        "place_id": "ChIJL4PxKCgJlR4RIkbSEAJ-NZQ",
        "plus_code": {
            "compound_code": "PWPW+G2 Soweto",
            "global_code": "5G59PWPW+G2"
        },
        "rating": 4,
        "reference": "ChIJL4PxKCgJlR4RIkbSEAJ-NZQ",
        "types": [
            "university",
            "school",
            "point_of_interest",
            "establishment"
        ],
        "user_ratings_total": 1
    },
    "South West Gauteng College Head Office": {
        "formatted_address": "1822 Molele St, Molapo, Soweto, 1818, South Africa",
        "geometry": {
            "location": {
                "lat": -26.2643485,
                "lng": 27.8604166
            },
            "viewport": {
                "northeast": {
                    "lat": -26.26300087010728,
                    "lng": 27.86171687989272
                },
                "southwest": {
                    "lat": -26.26570052989272,
                    "lng": 27.85901722010728
                }
            }
        },
        "icon": "https://maps.gstatic.com/mapfiles/place_api/icons/school-71.png",
        "id": "c24ae83a0a137a3e9dafada5105211351bffa920",
        "name": "South West Gauteng College Head Office",
        "place_id": "ChIJc8ddCJSnlR4RXkdsl_MFfOA",
        "plus_code": {
            "compound_code": "PVP6+75 Soweto",
            "global_code": "5G59PVP6+75"
        },
        "rating": 3,
        "reference": "ChIJc8ddCJSnlR4RXkdsl_MFfOA",
        "types": [
            "university",
            "point_of_interest",
            "establishment"
        ],
        "user_ratings_total": 1
    },
    "Lebo Sibi": {
        "formatted_address": "251 12,, Absalome Protea Glen Extension 16, Soweto, South Africa",
        "geometry": {
            "location": {
                "lat": -26.2757141,
                "lng": 27.8117332
            },
            "viewport": {
                "northeast": {
                    "lat": -26.27436377010727,
                    "lng": 27.81340272989272
                },
                "southwest": {
                    "lat": -26.27706342989272,
                    "lng": 27.81070307010728
                }
            }
        },
        "icon": "https://maps.gstatic.com/mapfiles/place_api/icons/school-71.png",
        "id": "a80711040f460b4af83b3943173bd39bfd1efad4",
        "name": "Lebo Sibi",
        "opening_hours": {
            "open_now": false
        },
        "place_id": "ChIJATx4PjmklR4R8htWBTvFMGg",
        "plus_code": {
            "compound_code": "PRF6+PM Soweto",
            "global_code": "5G59PRF6+PM"
        },
        "rating": 0,
        "reference": "ChIJATx4PjmklR4R8htWBTvFMGg",
        "types": [
            "university",
            "point_of_interest",
            "establishment"
        ],
        "user_ratings_total": 0
    },
    "Nurses Home": {
        "formatted_address": "Nurses home Rd, Diepkloof 319-Iq, Soweto, 1862, South Africa",
        "geometry": {
            "location": {
                "lat": -26.2600717,
                "lng": 27.9385268
            },
            "viewport": {
                "northeast": {
                    "lat": -26.25869067010727,
                    "lng": 27.93987607989272
                },
                "southwest": {
                    "lat": -26.26139032989272,
                    "lng": 27.93717642010728
                }
            }
        },
        "icon": "https://maps.gstatic.com/mapfiles/place_api/icons/school-71.png",
        "id": "81d0d238cda14b4d7a7f3ac25c0ab6eccd65a36c",
        "name": "Nurses Home",
        "photos": [
            {
                "height": 2322,
                "html_attributions": [
                    "<a href=\"https://maps.google.com/maps/contrib/113815646908624762887/photos\">Joy Thebekwana</a>"
                ],
                "photo_reference": "CmRaAAAAYfxKG8nsP7G0rGCcwZsJhcgVkAuuyGyTciWRjnqm30t3px7KJOxMTDnSGSeI26XsQaAYdyVNc_7kFHLnv_Gg8pR6gvpRrRjURqVzN2CLPJ1EzWGjvivx3wGGBRCm1CCgEhBOKRyvEa-KC4oG8llQZUSjGhQ2I6d5N0rFhn0_x0t8_CLDYAVA_g",
                "width": 4128
            }
        ],
        "place_id": "ChIJIeDAXSUJlR4RqY8kaUAVrhk",
        "plus_code": {
            "compound_code": "PWQQ+XC Soweto",
            "global_code": "5G59PWQQ+XC"
        },
        "rating": 5,
        "reference": "ChIJIeDAXSUJlR4RqY8kaUAVrhk",
        "types": [
            "university",
            "point_of_interest",
            "establishment"
        ],
        "user_ratings_total": 1
    },
    "BTC-Soweto": {
        "formatted_address": "752 Elias Motsoaledi Rd, Mofolo South, Soweto, 1801, South Africa",
        "geometry": {
            "location": {
                "lat": -26.2591331,
                "lng": 27.8855981
            },
            "viewport": {
                "northeast": {
                    "lat": -26.25778782010728,
                    "lng": 27.88698267989272
                },
                "southwest": {
                    "lat": -26.26048747989272,
                    "lng": 27.88428302010728
                }
            }
        },
        "icon": "https://maps.gstatic.com/mapfiles/place_api/icons/school-71.png",
        "id": "ee829085fc355b30f9160d0d0d1258231f305029",
        "name": "BTC-Soweto",
        "place_id": "ChIJsWwa3xunlR4RKQF0rHESP8o",
        "plus_code": {
            "compound_code": "PVRP+86 Soweto",
            "global_code": "5G59PVRP+86"
        },