{
    "1": {
        "formatted_address": "3541 John Dube Street, Duduza, Brakpan, 1496, South Africa",
        "geometry": {
            "location": {
                "lat": -26.385185,
                "lng": 28.414867
            },
            "viewport": {
                "northeast": {
                    "lat": -26.38383517010728,
                    "lng": 28.41621682989272
                },
                "southwest": {
                    "lat": -26.38653482989272,
                    "lng": 28.41351717010728
                }
            }
        },
        "icon": "https://maps.gstatic.com/mapfiles/place_api/icons/generic_business-71.png",
        "id": "a8ef9d2668640b587c1d70363fabe2dd4498a797",
        "name": "Lucky Mkhwanazi Clinic",
        "opening_hours": {
            "open_now": false
        },
        "place_id": "ChIJLVCrxaPYlB4RepVi7YwEpjE",
        "plus_code": {
            "compound_code": "JC77+WW Brakpan, South Africa",
            "global_code": "5G5CJC77+WW"
        },
        "rating": 4,
        "reference": "ChIJLVCrxaPYlB4RepVi7YwEpjE",
        "types": [
            "health",
            "point_of_interest",
            "establishment"
        ]
    },
    "2": {
        "formatted_address": "Honeysuckle St, Duduza, Brakpan, 1496, South Africa",
        "geometry": {
            "location": {
                "lat": -26.383622,
                "lng": 28.395284
            },
            "viewport": {
                "northeast": {
                    "lat": -26.38247682010728,
                    "lng": 28.39668972989272
                },
                "southwest": {
                    "lat": -26.38517647989272,
                    "lng": 28.39399007010728
                }
            }
        },
        "icon": "https://maps.gstatic.com/mapfiles/place_api/icons/generic_business-71.png",
        "id": "d5c152a3bf6994ec64b6b0d71336423807a6e5ec",
        "name": "Sonto Thobela Primary Health Care Clinic",
        "place_id": "ChIJt7p7g6rYlB4Rae40Uj4xjGo",
        "plus_code": {
            "compound_code": "J98W+H4 Brakpan, South Africa",
            "global_code": "5G5CJ98W+H4"
        },
        "rating": 1,
        "reference": "ChIJt7p7g6rYlB4Rae40Uj4xjGo",
        "types": [
            "health",
            "point_of_interest",
            "establishment"
        ]
    },
    "3": {
        "formatted_address": "983 Mandela Drive, Bluegum View, Brakpan, 1469, South Africa",
        "geometry": {
            "location": {
                "lat": -26.3833309,
                "lng": 28.394218
            },
            "viewport": {
                "northeast": {
                    "lat": -26.38198107010728,
                    "lng": 28.39556782989272
                },
                "southwest": {
                    "lat": -26.38468072989272,
                    "lng": 28.39286817010728
                }
            }
        },
        "icon": "https://maps.gstatic.com/mapfiles/place_api/icons/generic_business-71.png",
        "id": "1aa930f3f210bf071229a89c7844758e3d4f6120",
        "name": "Dr S. S. Mosheledi",
        "place_id": "ChIJI_n3XlUnlR4R1BEewJhdO0o",
        "plus_code": {
            "compound_code": "J98V+MM Brakpan, South Africa",
            "global_code": "5G5CJ98V+MM"
        },
        "rating": 0,
        "reference": "ChIJI_n3XlUnlR4R1BEewJhdO0o",
        "types": [
            "health",
            "point_of_interest",
            "establishment"
        ]
    },
    "4": {
        "formatted_address": "13811 Mashele St, Tsakane, Brakpan, 1548, South Africa",
        "geometry": {
            "location": {
                "lat": -26.3841136,
                "lng": 28.3789475
            },
            "viewport": {
                "northeast": {
                    "lat": -26.38273267010728,
                    "lng": 28.38026332989272
                },
                "southwest": {
                    "lat": -26.38543232989272,
                    "lng": 28.37756367010727
                }
            }
        },
        "icon": "https://maps.gstatic.com/mapfiles/place_api/icons/generic_business-71.png",
        "id": "a8edcfcdb055b0d6dec0c8641c3f8472eab5eef0",
        "name": "Tsakane clinic Ext 10",
        "place_id": "ChIJpW_MUqYglR4RvK223GmKZcc",
        "plus_code": {
            "compound_code": "J98H+9H Brakpan, South Africa",
            "global_code": "5G5CJ98H+9H"
        },
        "rating": 0,
        "reference": "ChIJpW_MUqYglR4RvK223GmKZcc",
        "types": [
            "health",
            "point_of_interest",
            "establishment"
        ]
    },
    "5": {
        "formatted_address": "Sparaxis St, Bluegum View, Nigel, 1499, South Africa",
        "geometry": {
            "location": {
                "lat": -26.3836499,
                "lng": 28.4173229
            },
            "viewport": {
                "northeast": {
                    "lat": -26.38218792010727,
                    "lng": 28.41864297989272
                },
                "southwest": {
                    "lat": -26.38488757989272,
                    "lng": 28.41594332010728
                }
            }
        },
        "icon": "https://maps.gstatic.com/mapfiles/place_api/icons/generic_business-71.png",
        "id": "a6f95408048c4106679ab9c801eedd91278f614a",
        "name": "Clinic Lucky Mkhwanazi",
        "place_id": "ChIJ1S8fTJ_YlB4RqaZAlGqGvd4",
        "plus_code": {
            "compound_code": "JC88+GW Brakpan, South Africa",
            "global_code": "5G5CJC88+GW"
        },
        "rating": 3,
        "reference": "ChIJ1S8fTJ_YlB4RqaZAlGqGvd4",
        "types": [
            "health",
            "point_of_interest",
            "establishment"
        ]
    },
    "6": {
        "formatted_address": "Lekobe St, Bluegum View, Nigel, 1496, South Africa",
        "geometry": {
            "location": {
                "lat": -26.3871526,
                "lng": 28.4018392
            },
            "viewport": {
                "northeast": {
                    "lat": -26.38580567010728,
                    "lng": 28.40319377989272
                },
                "southwest": {
                    "lat": -26.38850532989272,
                    "lng": 28.40049412010728
                }
            }
        },
        "icon": "https://maps.gstatic.com/mapfiles/place_api/icons/generic_business-71.png",
        "id": "40f268d96a605d7aea4fa58b15d9bc71a612b516",
        "name": "Lucky Mkhwanazi",
        "place_id": "ChIJG7AI1ajYlB4RnCjr_8vpiNc",
        "plus_code": {
            "compound_code": "JC72+4P Brakpan, South Africa",
            "global_code": "5G5CJC72+4P"
        },
        "rating": 1,
        "reference": "ChIJG7AI1ajYlB4RnCjr_8vpiNc",
        "types": [
            "health",
            "point_of_interest",
            "establishment"
        ]
    },
    "7": {
        "formatted_address": "5241 Maisela St, Duduza, Brakpan, 1496, South Africa",
        "geometry": {
            "location": {
                "lat": -26.373607,
                "lng": 28.401803
            },
            "viewport": {
                "northeast": {
                    "lat": -26.37209542010728,
                    "lng": 28.40294642989272
                },
                "southwest": {
                    "lat": -26.37479507989272,
                    "lng": 28.40024677010728
                }
            }
        },
        "icon": "https://maps.gstatic.com/mapfiles/place_api/icons/generic_business-71.png",
        "id": "c1ed04abc34dfc158f426f295fb2d25a5bf78223",
        "name": "Duduza Medical Centre",
        "place_id": "ChIJ_6LnVFAnlR4RjnS680Pmtgc",
        "plus_code": {
            "compound_code": "JCG2+HP Brakpan, South Africa",
            "global_code": "5G5CJCG2+HP"
        },
        "rating": 0,
        "reference": "ChIJ_6LnVFAnlR4RjnS680Pmtgc",
        "types": [
            "hospital",
            "doctor",
            "health",
            "point_of_interest",
            "establishment"
        ]
    },
    "8": {
        "formatted_address": "3 Nala St, Duduza, Nigel, 1496, South Africa",
        "geometry": {
            "location": {
                "lat": -26.3752736,
                "lng": 28.4123867
            },
            "viewport": {
                "northeast": {
                    "lat": -26.37400217010728,
                    "lng": 28.41372892989272
                },
                "southwest": {
                    "lat": -26.37670182989272,
                    "lng": 28.41102927010728
                }
            }
        },
        "icon": "https://maps.gstatic.com/mapfiles/place_api/icons/generic_business-71.png",
        "id": "e147a8509e01c2b0f397cc5f7be34957baad6b55",
        "name": "Duduza Clinic",
        "opening_hours": {
            "open_now": false
        },
        "photos": [
            {
                "height": 2322,
                "html_attributions": [
                    "<a href=\"https://maps.google.com/maps/contrib/101924741544580855106/photos\">nthabeleng sebotsa</a>"
                ],
                "photo_reference": "CmRaAAAAtsaSqWHDXTOwXP52c4bAfieNBp5_q0PVe9IxXpF-jmx5QIqdylE0VADzbaI2JzIXfaWMfyuZzF0rbJJ-yrKa-_8NBNQHe2Y-gsYpXo8h6WlbLuhUGKmaZKX8jaqMgAdiEhAU32ha23jW1EhFAYGVxuOYGhTxQ9aPGC-dnvWZPGtn6PIQ4NLaFQ",
                "width": 4128
            }
        ],
        "place_id": "ChIJkc_ck14nlR4RNIT_ggW46n8",
        "plus_code": {
            "compound_code": "JCF6+VX Brakpan, South Africa",
            "global_code": "5G5CJCF6+VX"
        },
        "rating": 3.3,
        "reference": "ChIJkc_ck14nlR4RNIT_ggW46n8",
        "types": [
            "point_of_interest",
            "establishment"
        ]
    },
    "9": {
        "formatted_address": "4395 Ngcobo St, Tsakane, Brakpan, 1548, South Africa",
        "geometry": {
            "location": {
                "lat": -26.3522167,
                "lng": 28.3799817
            },
            "viewport": {
                "northeast": {
                    "lat": -26.35081717010728,
                    "lng": 28.38140122989272
                },
                "southwest": {
                    "lat": -26.35351682989272,
                    "lng": 28.37870157010728
                }
            }
        },
        "icon": "https://maps.gstatic.com/mapfiles/place_api/icons/generic_business-71.png",
        "id": "5b6ce5923b936698450af855021bc930444db031",
        "name": "Tsakane Clinic",
        "opening_hours": {
            "open_now": false
        },
        "place_id": "ChIJX7piktoglR4RlWOXPtT9Mo4",
        "plus_code": {
            "compound_code": "J9XH+4X Brakpan, South Africa",
            "global_code": "5G5CJ9XH+4X"
        },
        "rating": 3,
        "reference": "ChIJX7piktoglR4RlWOXPtT9Mo4",
        "types": [
            "health",
            "point_of_interest",
            "establishment"
        ]
    },
    "10": {
        "formatted_address": "7522 Kgaga St, Tsakane, Brakpan, 1548, South Africa",
        "geometry": {
            "location": {
                "lat": -26.3583828,
                "lng": 28.3749431
            },
            "viewport": {
                "northeast": {
                    "lat": -26.35704747010728,
                    "lng": 28.37629582989272
                },
                "southwest": {
                    "lat": -26.35974712989272,
                    "lng": 28.37359617010727
                }
            }
        },
        "icon": "https://maps.gstatic.com/mapfiles/place_api/icons/generic_business-71.png",
        "id": "e06d65497d0d02b577a0959c59c554e08208e40f",
        "name": "Phutanang Municipal Clinic",
        "place_id": "ChIJT4RrhMMglR4ROJTjyP1n-MY",
        "plus_code": {
            "compound_code": "J9RF+JX Brakpan, South Africa",
            "global_code": "5G5CJ9RF+JX"
        },
        "rating": 0,
        "reference": "ChIJT4RrhMMglR4ROJTjyP1n-MY",
        "types": [
            "health",
            "point_of_interest",
            "establishment"
        ]
    },
    "11": {
        "formatted_address": "10890 Zulu St, Tsakane, Brakpan, 1548, South Africa",
        "geometry": {
            "location": {
                "lat": -26.3477876,
                "lng": 28.3729059
            },
            "viewport": {
                "northeast": {
                    "lat": -26.34662852010728,
                    "lng": 28.37416727989272
                },
                "southwest": {
                    "lat": -26.34932817989272,
                    "lng": 28.37146762010728
                }
            }
        },
        "icon": "https://maps.gstatic.com/mapfiles/place_api/icons/generic_business-71.png",
        "id": "7da8ca722cc45345d69eaefbc83a2313acad1cfd",
        "name": "Tsakane New Start Clinic",
        "opening_hours": {
            "open_now": false
        },
        "place_id": "ChIJn8o4494glR4RZz4BsxwTEZo",
        "plus_code": {
            "compound_code": "M92F+V5 Brakpan, South Africa",
            "global_code": "5G5CM92F+V5"
        },
        "rating": 5,
        "reference": "ChIJn8o4494glR4RZz4BsxwTEZo",
        "types": [
            "health",
            "point_of_interest",
            "establishment"
        ]
    },
    "12": {
        "formatted_address": "Izilwane Blvd, Langaville, Brakpan, 1550, South Africa",
        "geometry": {
            "location": {
                "lat": -26.3317477,
                "lng": 28.3868731
            },
            "viewport": {
                "northeast": {
                    "lat": -26.33039952010728,
                    "lng": 28.38822007989272
                },
                "southwest": {
                    "lat": -26.33309917989272,
                    "lng": 28.38552042010728
                }
            }
        },
        "icon": "https://maps.gstatic.com/mapfiles/place_api/icons/generic_business-71.png",
        "id": "817863fcd2859963b31df5f73a6438b2be3e9ae5",
        "name": "Andries Raditsela Clinic",
        "place_id": "ChIJLY0vBi4hlR4Rya7Ib5lEYio",
        "plus_code": {
            "compound_code": "M99P+8P Brakpan, South Africa",
            "global_code": "5G5CM99P+8P"
        },
        "rating": 3,
        "reference": "ChIJLY0vBi4hlR4Rya7Ib5lEYio",
        "types": [
            "health",
            "point_of_interest",
            "establishment"
        ]
    },
    "13": {
        "formatted_address": "465 Motsweni St, Duduza, Johannesburg, 1496, South Africa",
        "geometry": {
            "location": {
                "lat": -26.368014,
                "lng": 28.41031
            },
            "viewport": {
                "northeast": {
                    "lat": -26.36662422010728,
                    "lng": 28.41163557989272
                },
                "southwest": {
                    "lat": -26.36932387989272,
                    "lng": 28.40893592010728
                }
            }
        },
        "icon": "https://maps.gstatic.com/mapfiles/place_api/icons/generic_business-71.png",
        "id": "d316fdb22186884308a048cfd2f962c53ea13627",
        "name": "Dr W. Nkosi",
        "place_id": "ChIJaxId4EQnlR4RRBXVsvWxRyo",
        "plus_code": {
            "compound_code": "JCJ6+Q4 Brakpan, South Africa",
            "global_code": "5G5CJCJ6+Q4"
        },
        "rating": 0,
        "reference": "ChIJaxId4EQnlR4RRBXVsvWxRyo",
        "types": [
            "local_government_office",
            "doctor",
            "health",
            "point_of_interest",
            "establishment"
        ]
    },
    "14": {
        "formatted_address": "Vlakfontein 161-Ir, Brakpan, South Africa",
        "geometry": {
            "location": {
                "lat": -26.3925049,
                "lng": 28.3493903
            },
            "viewport": {
                "northeast": {
                    "lat": -26.39115507010728,
                    "lng": 28.35074012989272
                },
                "southwest": {
                    "lat": -26.39385472989272,
                    "lng": 28.34804047010728
                }
            }
        },
        "icon": "https://maps.gstatic.com/mapfiles/place_api/icons/generic_business-71.png",
        "id": "7497d0aeae98fcd7974c296fad4db2508749cd13",
        "name": "Tsakane Ext 10 Clinic",
        "opening_hours": {
            "open_now": false
        },
        "place_id": "ChIJhayKzYEglR4RIhNAY7YqSJA",
        "plus_code": {
            "compound_code": "J84X+XQ Brakpan, South Africa",
            "global_code": "5G5CJ84X+XQ"
        },
        "rating": 0,
        "reference": "ChIJhayKzYEglR4RIhNAY7YqSJA",
        "types": [
            "health",
            "point_of_interest",
            "establishment"
        ]
    },
    "15": {
        "formatted_address": "794 Lekobe St, Duduza, Brakpan, 1496, South Africa",
        "geometry": {
            "location": {
                "lat": -26.3858769,
                "lng": 28.403177
            },
            "viewport": {
                "northeast": {
                    "lat": -26.38446922010728,
                    "lng": 28.40444302989272
                },
                "southwest": {
                    "lat": -26.38716887989272,
                    "lng": 28.40174337010728
                }
            }
        },
        "icon": "https://maps.gstatic.com/mapfiles/place_api/icons/generic_business-71.png",
        "id": "92089deffb8be46ff515f07a4c43c170a2926d69",
        "name": "General Practitioner Dr Bosama",
        "place_id": "ChIJCdZiv6jYlB4RGF96WM8SA8E",
        "plus_code": {
            "compound_code": "JC73+J7 Brakpan, South Africa",
            "global_code": "5G5CJC73+J7"
        },
        "rating": 0,
        "reference": "ChIJCdZiv6jYlB4RGF96WM8SA8E",
        "types": [
            "doctor",
            "health",
            "point_of_interest",
            "establishment"
        ]
    },
    "16": {
        "formatted_address": "29 Court St, Nigel, 1490, South Africa",
        "geometry": {
            "location": {
                "lat": -26.4191186,
                "lng": 28.4678239
            },
            "viewport": {
                "northeast": {
                    "lat": -26.41768492010728,
                    "lng": 28.46922447989272
                },
                "southwest": {
                    "lat": -26.42038457989272,
                    "lng": 28.46652482010727
                }
            }
        },
        "icon": "https://maps.gstatic.com/mapfiles/place_api/icons/generic_business-71.png",
        "id": "9e68464695c5168103da0caef3ff0238c2d060ef",
        "name": "Nigel Clinic",
        "opening_hours": {
            "open_now": false
        },
        "place_id": "ChIJA3TX2MjZlB4R5zi7tDX8CDQ",
        "plus_code": {
            "compound_code": "HFJ9+94 Nigel, South Africa",
            "global_code": "5G5CHFJ9+94"
        },
        "rating": 3,
        "reference": "ChIJA3TX2MjZlB4R5zi7tDX8CDQ",
        "types": [
            "health",
            "point_of_interest",
            "establishment"
        ]
    },
    "17": {
        "formatted_address": "25529 Njoko Street, Springs, 1567, 25529 Njoko St, Kwa-Thema Phase 3, Springs, 1567, South Africa",
        "geometry": {
            "location": {
                "lat": -26.3145116,
                "lng": 28.4242172
            },
            "viewport": {
                "northeast": {
                    "lat": -26.31306792010728,
                    "lng": 28.42564862989272
                },
                "southwest": {
                    "lat": -26.31576757989273,
                    "lng": 28.42294897010727
                }
            }
        },
        "icon": "https://maps.gstatic.com/mapfiles/place_api/icons/generic_business-71.png",
        "id": "d2084f7eab3e8e566226b9f568ddc484c9bd8871",
        "name": "Selope Thema Clinix",
        "place_id": "ChIJOcvx8OwmlR4RMjY1KXDcH78",
        "plus_code": {
            "compound_code": "MCPF+5M Springs, South Africa",
            "global_code": "5G5CMCPF+5M"
        },
        "rating": 0,
        "reference": "ChIJOcvx8OwmlR4RMjY1KXDcH78",
        "types": [
            "health",
            "point_of_interest",
            "establishment"
        ]
    },
    "18": {
        "formatted_address": "4073 Antherium, Duduza, Nigel, 1496, South Africa",
        "geometry": {
            "location": {
                "lat": -26.3725731,
                "lng": 28.4075474
            },
            "viewport": {
                "northeast": {
                    "lat": -26.37122327010728,
                    "lng": 28.40889722989272
                },
                "southwest": {
                    "lat": -26.37392292989272,
                    "lng": 28.40619757010727
                }
            }
        },
        "icon": "https://maps.gstatic.com/mapfiles/place_api/icons/generic_business-71.png",
        "id": "d0e1996441b4aa1d1c682737b7fb03f11501fbc0",
        "name": "Lucky Mkhwanazi Clinic",
        "place_id": "ChIJVVVVVVonlR4Rp5KBmsltplE",
        "plus_code": {
            "compound_code": "JCG5+X2 Brakpan, South Africa",
            "global_code": "5G5CJCG5+X2"
        },
        "rating": 0,
        "reference": "ChIJVVVVVVonlR4Rp5KBmsltplE",
        "types": [
            "point_of_interest",
            "establishment"
        ]
    },
    "19": {
        "formatted_address": "Bophelong Medical Centre, 18069 Ngungunyane St, Kwa-Thema, Springs, 1575, South Africa",
        "geometry": {
            "location": {
                "lat": -26.296204,
                "lng": 28.391594
            },
            "viewport": {
                "northeast": {
                    "lat": -26.29495392010728,
                    "lng": 28.39315702989272
                },
                "southwest": {
                    "lat": -26.29765357989272,
                    "lng": 28.39045737010728
                }
            }
        },
        "icon": "https://maps.gstatic.com/mapfiles/place_api/icons/generic_business-71.png",
        "id": "7a3f0f71b96b0104b27623c36a05cfef4db47657",
        "name": "Family Planning Immunisation Physiotherapy Specialists",
        "place_id": "ChIJE_wNlf8jlR4RMTYK-FCib2E",
        "plus_code": {
            "compound_code": "P93R+GJ Springs, South Africa",
            "global_code": "5G5CP93R+GJ"
        },
        "rating": 0,
        "reference": "ChIJE_wNlf8jlR4RMTYK-FCib2E",
        "types": [
            "health",
            "point_of_interest",
            "establishment"
        ]
    },
    "20": {
        "formatted_address": "24500 Nkosi St, Kwa-Thema, Springs, 1575, South Africa",
        "geometry": {
            "location": {
                "lat": -26.2959299,
                "lng": 28.3919
            },
            "viewport": {
                "northeast": {
                    "lat": -26.29458007010728,
                    "lng": 28.39324982989272
                },
                "southwest": {
                    "lat": -26.29727972989272,
                    "lng": 28.39055017010728
                }
            }
        },
        "icon": "https://maps.gstatic.com/mapfiles/place_api/icons/generic_business-71.png",
        "id": "7c9e969c8be932bf9312725f23247e03f4ef3030",
        "name": "Clinic - Kwa Thema X3",
        "place_id": "ChIJ65zik_8jlR4RaeHFylVY5gE",
        "plus_code": {
            "compound_code": "P93R+JQ Springs, South Africa",
            "global_code": "5G5CP93R+JQ"
        },
        "rating": 1,
        "reference": "ChIJ65zik_8jlR4RaeHFylVY5gE",
        "types": [
            "health",
            "point_of_interest",
            "establishment"
        ]
    },
    "21": {
        "formatted_address": "19 7th St, Springs New, Springs, 1560, South Africa",
        "geometry": {
            "location": {
                "lat": -26.2528599,
                "lng": 28.44292
            },
            "viewport": {
                "northeast": {
                    "lat": -26.25156042010728,
                    "lng": 28.44415532989272
                },
                "southwest": {
                    "lat": -26.25426007989272,
                    "lng": 28.44145567010727
                }
            }
        },
        "icon": "https://maps.gstatic.com/mapfiles/place_api/icons/generic_business-71.png",
        "id": "835de601ec163a065c0c1a960954da83bc985ffd",
        "name": "Mens Clinic International - Springs",
        "place_id": "ChIJx9x8ZLIllR4RscQBp7WC5UE",
        "plus_code": {
            "compound_code": "PCWV+V5 Springs, South Africa",
            "global_code": "5G5CPCWV+V5"
        },
        "rating": 0,
        "reference": "ChIJx9x8ZLIllR4RscQBp7WC5UE",
        "types": [
            "health",
            "point_of_interest",
            "establishment"
        ]
    },
    "22": {
        "formatted_address": "Ottawa Street, Fulcrum, Springs, 1559, South Africa",
        "geometry": {
            "location": {
                "lat": -26.2649267,
                "lng": 28.3908319
            },
            "viewport": {
                "northeast": {
                    "lat": -26.26360142010728,
                    "lng": 28.39215972989272
                },
                "southwest": {
                    "lat": -26.26630107989272,
                    "lng": 28.38946007010728
                }
            }
        },
        "icon": "https://maps.gstatic.com/mapfiles/place_api/icons/generic_business-71.png",
        "id": "de80e8f52a94b21a29cbedf5262cb930a561b1df",
        "name": "Reedville Clinic",
        "photos": [
            {
                "height": 4160,
                "html_attributions": [
                    "<a href=\"https://maps.google.com/maps/contrib/108436789231542207452/photos\">A Google User</a>"
                ],
                "photo_reference": "CmRaAAAAXfO3hspiT4U9p97wLn_neR3fSh9Ks5U3ZYgBSHKw6VbsrCA2uRczxzGFR53wLPcJrfHOjZLHeLoU4_IqOHMwbL-Fe9Udn8WNxatf3EMpVoyVXzcW9PTuxp_iURgaFhJsEhBVAVZ43cM7-zGTbuYBV438GhQzAjUgw3ScO75hT5ILwtmi320g1w",
                "width": 3120
            }
        ],
        "place_id": "ChIJBTJg2ocjlR4R1pPV4mNnLEI",
        "plus_code": {
            "compound_code": "P9PR+28 Springs, South Africa",
            "global_code": "5G5CP9PR+28"
        },
        "rating": 5,
        "reference": "ChIJBTJg2ocjlR4R1pPV4mNnLEI",
        "types": [
            "health",
            "point_of_interest",
            "establishment"
        ]
    },
    "23": {
        "formatted_address": "ERF1818 Plantation Rd, Springs Central, Springs, 1559, South Africa",
        "geometry": {
            "location": {
                "lat": -26.2576197,
                "lng": 28.4314682
            },
            "viewport": {
                "northeast": {
                    "lat": -26.25626522010728,
                    "lng": 28.43286357989273
                },
                "southwest": {
                    "lat": -26.25896487989272,
                    "lng": 28.43016392010728
                }
            }
        },
        "icon": "https://maps.gstatic.com/mapfiles/place_api/icons/generic_business-71.png",
        "id": "a2753af3a9ea29049e9cb519a6fdb31491007245",
        "name": "Springs Clinic",
        "place_id": "ChIJQ5ThME4klR4RDYgFG92_JHQ",
        "plus_code": {
            "compound_code": "PCRJ+XH Springs, South Africa",
            "global_code": "5G5CPCRJ+XH"
        },
        "rating": 0,
        "reference": "ChIJQ5ThME4klR4RDYgFG92_JHQ",
        "types": [
            "health",
            "point_of_interest",
            "establishment"
        ]
    },
    "24": {
        "formatted_address": "1 Nigel Road, Selection Park, Springs, 1559, South Africa",
        "geometry": {
            "location": {
                "lat": -26.2627099,
                "lng": 28.4396749
            },
            "viewport": {
                "northeast": {
                    "lat": -26.26136007010727,
                    "lng": 28.44102472989272
                },
                "southwest": {
                    "lat": -26.26405972989271,
                    "lng": 28.43832507010728
                }
            }
        },
        "icon": "https://maps.gstatic.com/mapfiles/place_api/icons/generic_business-71.png",
        "id": "8dbd14533a412a873e15a102d946ee2cb0aee97d",
        "name": "Medicross Springs",
        "opening_hours": {
            "open_now": false
        },
        "place_id": "ChIJCQ1Q6NUllR4RZ3go-IgvSN4",
        "plus_code": {
            "compound_code": "PCPQ+WV Springs, South Africa",
            "global_code": "5G5CPCPQ+WV"
        },
        "rating": 4.2,
        "reference": "ChIJCQ1Q6NUllR4RZ3go-IgvSN4",
        "types": [
            "health",
            "point_of_interest",
            "establishment"
        ]
    },
    "25": {
        "formatted_address": "163 Leeuwpoort St, Boksburg, Johannesburg, 1460, South Africa",
        "geometry": {
            "location": {
                "lat": -26.224611,
                "lng": 28.260391
            },
            "viewport": {
                "northeast": {
                    "lat": -26.22314017010728,
                    "lng": 28.26174552989272
                },
                "southwest": {
                    "lat": -26.22583982989272,
                    "lng": 28.25904587010728
                }
            }
        },
        "icon": "https://maps.gstatic.com/mapfiles/place_api/icons/generic_business-71.png",
        "id": "183f25a0c7e6f8367402524e79c04d0cba322a0a",
        "name": "SANCA",
        "photos": [
            {
                "height": 2560,
                "html_attributions": [
                    "<a href=\"https://maps.google.com/maps/contrib/102837954072260025025/photos\">NF N</a>"
                ],
                "photo_reference": "CmRZAAAA1aL-yAPGKKcn8ls22t7pXhb9preGMSvPCYZNtEGmPGVhFqv-JO2PxujjTc_MYj-2qSf-H8165rvYHzIqCDHHJTw7mBhYFROrS8Ilex71SdDwWHF2v0zODi4u6JOqQRTuEhDyG8ehcC9AlCGLCeci_Ks3GhRl18ZfyyX_GxuSdA7mhE8vDHM2zA",
                "width": 1440
            }
        ],
        "place_id": "ChIJS8M6uZsXlR4RTHttxBZ2LLI",
        "plus_code": {
            "compound_code": "Q7G6+55 Boksburg, South Africa",
            "global_code": "5G5CQ7G6+55"
        },
        "rating": 4,
        "reference": "ChIJS8M6uZsXlR4RTHttxBZ2LLI",
        "types": [
            "health",
            "point_of_interest",
            "establishment"
        ]
    },
    "26": {
        "formatted_address": "20069 Nhlangwini St, Tsakane, Brakpan, 1550, South Africa",
        "geometry": {
            "location": {
                "lat": -26.3677145,
                "lng": 28.3578116
            },
            "viewport": {
                "northeast": {
                    "lat": -26.36634972010728,
                    "lng": 28.35916052989272
                },
                "southwest": {
                    "lat": -26.36904937989272,
                    "lng": 28.35646087010727
                }
            }
        },
        "icon": "https://maps.gstatic.com/mapfiles/place_api/icons/doctor-71.png",
        "id": "aaf65b1d6031537246d193da824bd8586f3fefab",
        "name": "Simunye Clinic",
        "photos": [
            {
                "height": 3264,
                "html_attributions": [
                    "<a href=\"https://maps.google.com/maps/contrib/108265886800468147153/photos\">A Google User</a>"
                ],
                "photo_reference": "CmRaAAAAoFh1tDLnexh4vS-iOQMNDTrVGfe88fEY-9e9Txxh1LcRpUkWe7_0udAHhIxQy5XOA6f-b5SkM0hXSFEPb6SfM5duaWEiOVuZ78_iCiOlHTRWHZcooFDD1b1-iHJ46FhCEhDw1syyU8N64Vko_SrLqbggGhRoFD7va3nBiW2Jjje3bSVv4mAtmw",
                "width": 2448
            }
        ],
        "place_id": "ChIJBbC2gvIglR4RZtoql7Hr25M",
        "plus_code": {
            "compound_code": "J9J5+W4 Brakpan, South Africa",
            "global_code": "5G5CJ9J5+W4"
        },
        "rating": 2.4,
        "reference": "ChIJBbC2gvIglR4RZtoql7Hr25M",
        "types": [
            "hospital",
            "point_of_interest",
            "establishment"
        ]
    },
    "27": {
        "formatted_address": "9538 Zimus St, Duduza, Johannesburg, 1494, South Africa",
        "geometry": {
            "location": {
                "lat": -26.3713899,
                "lng": 28.3980249
            },
            "viewport": {
                "northeast": {
                    "lat": -26.37027597010728,
                    "lng": 28.39961702989272
                },
                "southwest": {
                    "lat": -26.37297562989272,
                    "lng": 28.39691737010728
                }
            }
        },
        "icon": "https://maps.gstatic.com/mapfiles/place_api/icons/generic_business-71.png",
        "id": "b74cee51dee396cc508f30eaf3653fe27487c797",
        "name": "Emmaus Community Centre",
        "photos": [
            {
                "height": 3264,
                "html_attributions": [
                    "<a href=\"https://maps.google.com/maps/contrib/101837200992869532860/photos\">A Google User</a>"
                ],
                "photo_reference": "CmRaAAAABlHcX-Ju0BrEPne_1VpbQy8iB_iwP_oIpRotZzhtS3oGFAQw1onXY2_UVAZZMrSNyYQHrPQJqFgpnqVowfiVrRlrFMJEsD8hAhjtF3YAqtN3c7dgTQM53JSFgH2XAeaKEhD-EIxUjEn4hUxjO7yOMtFcGhSXix-zkAX0mmF94HOfy7FpyX_X0Q",
                "width": 2448
            }
        ],
        "place_id": "ChIJ_7FI8E0nlR4RkpfvHih7N6k",
        "plus_code": {
            "compound_code": "J9HX+C6 Brakpan, South Africa",
            "global_code": "5G5CJ9HX+C6"
        },
        "rating": 3.9,
        "reference": "ChIJ_7FI8E0nlR4RkpfvHih7N6k",
        "types": [
            "point_of_interest",
            "establishment"
        ]
    },
    "28": {
        "formatted_address": "Letsapa St, Duduza, Nigel, 1494, South Africa",
        "geometry": {
            "location": {
                "lat": -26.3759888,
                "lng": 28.404175
            },
            "viewport": {
                "northeast": {
                    "lat": -26.37468372010729,
                    "lng": 28.40542072989272
                },
                "southwest": {
                    "lat": -26.37738337989273,
                    "lng": 28.40272107010728
                }
            }
        },
        "icon": "https://maps.gstatic.com/mapfiles/place_api/icons/generic_business-71.png",
        "id": "6b157ee7c3b313a3f85633de592fa08ef16d7cbd",
        "name": "Ekurhuleni Reconciliation Park",
        "opening_hours": {
            "open_now": false
        },
        "place_id": "ChIJd3W1rFAnlR4Rp40XFWWNwno",
        "plus_code": {
            "compound_code": "JCF3+JM Brakpan, South Africa",
            "global_code": "5G5CJCF3+JM"
        },
        "rating": 0,
        "reference": "ChIJd3W1rFAnlR4Rp40XFWWNwno",
        "types": [
            "point_of_interest",
            "establishment"
        ]
    },
    "29": {
        "formatted_address": "73 Sastri Dr, Greater Nigel, Nigel, 1495, South Africa",
        "geometry": {
            "location": {
                "lat": -26.445972,
                "lng": 28.513012
            },
            "viewport": {
                "northeast": {
                    "lat": -26.44447622010728,
                    "lng": 28.51436377989273
                },
                "southwest": {
                    "lat": -26.44717587989272,
                    "lng": 28.51166412010728
                }
            }
        },
        "icon": "https://maps.gstatic.com/mapfiles/place_api/icons/generic_business-71.png",
        "id": "aae9d9d32d1a84aa06dfca97f9ee25b822aa403d",
        "name": "Arla Park Clinic",
        "place_id": "ChIJxRwEHMvQlB4RNWwEG5gO8R4",
        "plus_code": {
            "compound_code": "HG37+J6 Nigel, South Africa",
            "global_code": "5G5CHG37+J6"
        },
        "rating": 0,
        "reference": "ChIJxRwEHMvQlB4RNWwEG5gO8R4",
        "types": [
            "health",
            "point_of_interest",
            "establishment"
        ]
    },
    "30": {
        "formatted_address": "Nala St, Duduza, Nigel, 1494, South Africa",
        "geometry": {
            "location": {
                "lat": -26.3755779,
                "lng": 28.4156934
            },
            "viewport": {
                "northeast": {
                    "lat": -26.37429267010728,
                    "lng": 28.41703737989272
                },
                "southwest": {
                    "lat": -26.37699232989272,
                    "lng": 28.41433772010728
                }
            }
        },
        "icon": "https://maps.gstatic.com/mapfiles/place_api/icons/generic_business-71.png",
        "id": "09603930f849fed3bf72c8fe8b79810ee2acfb98",
        "name": "Clinic - Vduduza",
        "place_id": "ChIJ7SX7JF4nlR4RClCJurpABMI",
        "plus_code": {
            "compound_code": "JCF8+Q7 Brakpan, South Africa",
            "global_code": "5G5CJCF8+Q7"
        },
        "rating": 0,
        "reference": "ChIJ7SX7JF4nlR4RClCJurpABMI",
        "types": [
            "health",
            "point_of_interest",
            "establishment"
        ]
    },
    "31": {
        "formatted_address": "Nala St, Duduza, Nigel, 1494, South Africa",
        "geometry": {
            "location": {
                "lat": -26.3754406,
                "lng": 28.4141542
            },
            "viewport": {
                "northeast": {
                    "lat": -26.37415742010727,
                    "lng": 28.41549977989272
                },
                "southwest": {
                    "lat": -26.37685707989272,
                    "lng": 28.41280012010727
                }
            }
        },
        "icon": "https://maps.gstatic.com/mapfiles/place_api/icons/generic_business-71.png",
        "id": "d15edf7a8a0dc48e7d7728bd91aaaedfcc6a5de4",
        "name": "Duduza Resource Centre",
        "place_id": "ChIJQdwuwD8nlR4RgFg2re_bfBg",
        "plus_code": {
            "compound_code": "JCF7+RM Brakpan, South Africa",
            "global_code": "5G5CJCF7+RM"
        },
        "rating": 0,
        "reference": "ChIJQdwuwD8nlR4RgFg2re_bfBg",
        "types": [
            "point_of_interest",
            "establishment"
        ]
    },
    "32": {
        "formatted_address": "8469 Makhubo St, Duduza, Nigel, 1494, South Africa",
        "geometry": {
            "location": {
                "lat": -26.3748324,
                "lng": 28.4144422
            },
            "viewport": {
                "northeast": {
                    "lat": -26.37371122010727,
                    "lng": 28.41595802989272
                },
                "southwest": {
                    "lat": -26.37641087989272,
                    "lng": 28.41325837010728
                }
            }
        },
        "icon": "https://maps.gstatic.com/mapfiles/place_api/icons/generic_business-71.png",
        "id": "1357d897d3fd8b62bd76fa686493436417a6ccdf",
        "name": "Fab Lab Duduza",
        "place_id": "ChIJdc1RaV4nlR4RQnuoS91cyBM",
        "plus_code": {
            "compound_code": "JCG7+3Q Brakpan, South Africa",
            "global_code": "5G5CJCG7+3Q"
        },
        "rating": 3.2,
        "reference": "ChIJdc1RaV4nlR4RQnuoS91cyBM",
        "types": [
            "point_of_interest",
            "establishment"
        ]
    },
    "33": {
        "formatted_address": "4,2nd Floor, Caray House, Off 1st Avenue, 8 8th St, Springs, 1559, South Africa",
        "geometry": {
            "location": {
                "lat": -26.2509549,
                "lng": 28.443971
            },
            "viewport": {
                "northeast": {
                    "lat": -26.24962897010728,
                    "lng": 28.44540557989272
                },
                "southwest": {
                    "lat": -26.25232862989272,
                    "lng": 28.44270592010728
                }
            }
        },
        "icon": "https://maps.gstatic.com/mapfiles/place_api/icons/generic_business-71.png",
        "id": "d6d97b794d71cb66723776533f3679396da889d1",
        "name": "ithemba HOPE",
        "place_id": "ChIJvxfzSawllR4RAl9U9fL8KMM",
        "plus_code": {
            "compound_code": "PCXV+JH Springs, South Africa",
            "global_code": "5G5CPCXV+JH"
        },
        "rating": 0,
        "reference": "ChIJvxfzSawllR4RAl9U9fL8KMM",
        "types": [
            "health",
            "point_of_interest",
            "establishment"
        ]
    },
    "34": {
        "formatted_address": "24659 MasibeniStreet, Kwa-Thema Phase 3, Springs, 1575, South Africa",
        "geometry": {
            "location": {
                "lat": -26.3127183,
                "lng": 28.4176773
            },
            "viewport": {
                "northeast": {
                    "lat": -26.31136847010728,
                    "lng": 28.41902712989272
                },
                "southwest": {
                    "lat": -26.31406812989272,
                    "lng": 28.41632747010728
                }
            }
        },
        "icon": "https://maps.gstatic.com/mapfiles/place_api/icons/doctor-71.png",
        "id": "9bd7617fd12433016ac7b259129bec6da108f774",
        "name": "Selope Thema clinic",
        "opening_hours": {
            "open_now": false
        },
        "place_id": "ChIJkfFHR5UmlR4RS5hHhQX-w5Y",
        "plus_code": {
            "compound_code": "MCP9+W3 Springs, South Africa",
            "global_code": "5G5CMCP9+W3"
        },
        "rating": 0,
        "reference": "ChIJkfFHR5UmlR4RS5hHhQX-w5Y",
        "types": [
            "hospital",
            "point_of_interest",
            "establishment"
        ]
    },
    "35": {
        "formatted_address": "Northern Province Rd, Langaville, Brakpan, 1550, South Africa",
        "geometry": {
            "location": {
                "lat": -26.314756,
                "lng": 28.383631
            },
            "viewport": {
                "northeast": {
                    "lat": -26.31337287010728,
                    "lng": 28.38493597989272
                },
                "southwest": {
                    "lat": -26.31607252989272,
                    "lng": 28.38223632010727
                }
            }
        },
        "icon": "https://maps.gstatic.com/mapfiles/place_api/icons/generic_business-71.png",
        "id": "88e506d63c06ade34cf25ce8782b729ea1682bbc",
        "name": "Unjani Clinic Langaville",
        "opening_hours": {
            "open_now": false
        },
        "place_id": "ChIJn6uqJU8hlR4RXxkny0XejZE",
        "plus_code": {
            "compound_code": "M9PM+3F Brakpan, South Africa",
            "global_code": "5G5CM9PM+3F"
        },
        "rating": 0,
        "reference": "ChIJn6uqJU8hlR4RXxkny0XejZE",
        "types": [
            "doctor",
            "health",
            "point_of_interest",
            "establishment"
        ]
    },
    "36": {
        "formatted_address": "18069 Ngungunyane St, Kwa-Thema, Springs, 1563, South Africa",
        "geometry": {
            "location": {
                "lat": -26.2948446,
                "lng": 28.3929487
            },
            "viewport": {
                "northeast": {
                    "lat": -26.29350172010728,
                    "lng": 28.39431337989273
                },
                "southwest": {
                    "lat": -26.29620137989272,
                    "lng": 28.39161372010728
                }
            }
        },
        "icon": "https://maps.gstatic.com/mapfiles/place_api/icons/generic_business-71.png",
        "id": "f2d1a93c239ac08d201f28b8c93385c3f5ee73f6",
        "name": "Dr S Leketi",
        "place_id": "ChIJsdeBfwAklR4Rf1RISS6i6_E",
        "plus_code": {
            "compound_code": "P94V+35 Springs, South Africa",
            "global_code": "5G5CP94V+35"
        },
        "rating": 5,
        "reference": "ChIJsdeBfwAklR4Rf1RISS6i6_E",
        "types": [
            "doctor",
            "health",
            "point_of_interest",
            "establishment"
        ]
    },
    "37": {
        "formatted_address": "Nala St & Cnr Maisela Street, Duduza, Brakpan, 1496, South Africa",
        "geometry": {
            "location": {
                "lat": -26.373607,
                "lng": 28.401803
            },
            "viewport": {
                "northeast": {
                    "lat": -26.37225717010728,
                    "lng": 28.40315282989272
                },
                "southwest": {
                    "lat": -26.37495682989272,
                    "lng": 28.40045317010728
                }
            }
        },
        "icon": "https://maps.gstatic.com/mapfiles/place_api/icons/generic_business-71.png",
        "id": "7cdf0f69e85d29e46538b7346752c92ef4e779a9",
        "name": "N.W.Z Health Centre",
        "place_id": "ChIJ_6LnVFAnlR4RczGy2NziveQ",
        "plus_code": {
            "compound_code": "JCG2+HP Brakpan, South Africa",
            "global_code": "5G5CJCG2+HP"
        },
        "rating": 0,
        "reference": "ChIJ_6LnVFAnlR4RczGy2NziveQ",
        "types": [
            "dentist",
            "health",
            "point_of_interest",
            "establishment"
        ]
    },
    "38": {
        "formatted_address": "Anthirium St, Bluegum View, Nigel, 1491, South Africa",
        "geometry": {
            "location": {
                "lat": -26.3830285,
                "lng": 28.4142628
            },
            "viewport": {
                "northeast": {
                    "lat": -26.38164752010728,
                    "lng": 28.41560727989272
                },
                "southwest": {
                    "lat": -26.38434717989272,
                    "lng": 28.41290762010728
                }
            }
        },
        "icon": "https://maps.gstatic.com/mapfiles/place_api/icons/generic_business-71.png",
        "id": "202c38ed4c83df23e1484b466689b108b97dd335",
        "name": "Lucky Mkwananzi Clinic",
        "place_id": "ChIJ28DyvKHYlB4RVElEJJXJN4w",
        "rating": 2,
        "reference": "ChIJ28DyvKHYlB4RVElEJJXJN4w",
        "types": [
            "point_of_interest",
            "establishment"
        ]
    },
    "39": {
        "formatted_address": "L J Dube Street, Bluegum View, Nigel, 1499, South Africa",
        "geometry": {
            "location": {
                "lat": -26.385498,
                "lng": 28.4161092
            },
            "viewport": {
                "northeast": {
                    "lat": -26.38414817010728,
                    "lng": 28.41745902989272
                },
                "southwest": {
                    "lat": -26.38684782989272,
                    "lng": 28.41475937010728
                }
            }
        },
        "icon": "https://maps.gstatic.com/mapfiles/place_api/icons/generic_business-71.png",
        "id": "3f8db3b26e10acf84eb6b9f503c179781ef188d2",
        "name": "Clinic - Zamani",
        "place_id": "ChIJu8jPF6LYlB4R9_G1GxAaAw4",
        "plus_code": {
            "compound_code": "JC78+RC Brakpan, South Africa",
            "global_code": "5G5CJC78+RC"
        },
        "rating": 3,
        "reference": "ChIJu8jPF6LYlB4R9_G1GxAaAw4",
        "types": [
            "health",
            "point_of_interest",
            "establishment"
        ]
    },
    "40": {
        "formatted_address": "5241 Maisela St, Duduza, Brakpan, 1496, South Africa",
        "geometry": {
            "location": {
                "lat": -26.373607,
                "lng": 28.401803
            },
            "viewport": {
                "northeast": {
                    "lat": -26.37209542010728,
                    "lng": 28.40294642989272
                },
                "southwest": {
                    "lat": -26.37479507989272,
                    "lng": 28.40024677010728
                }
            }
        },
        "icon": "https://maps.gstatic.com/mapfiles/place_api/icons/generic_business-71.png",
        "id": "c1ed04abc34dfc158f426f295fb2d25a5bf78223",
        "name": "Duduza Medical Centre",
        "place_id": "ChIJ_6LnVFAnlR4RjnS680Pmtgc",
        "plus_code": {
            "compound_code": "JCG2+HP Brakpan, South Africa",
            "global_code": "5G5CJCG2+HP"
        },
        "rating": 0,
        "reference": "ChIJ_6LnVFAnlR4RjnS680Pmtgc",
        "types": [
            "hospital",
            "doctor",
            "health",
            "point_of_interest",
            "establishment"
        ]
    },
    "41": {
        "formatted_address": "Honeysuckle St, Duduza, Brakpan, 1496, South Africa",
        "geometry": {
            "location": {
                "lat": -26.383622,
                "lng": 28.395284
            },
            "viewport": {
                "northeast": {
                    "lat": -26.38247682010728,
                    "lng": 28.39668972989272
                },
                "southwest": {
                    "lat": -26.38517647989272,
                    "lng": 28.39399007010728
                }
            }
        },
        "icon": "https://maps.gstatic.com/mapfiles/place_api/icons/generic_business-71.png",
        "id": "d5c152a3bf6994ec64b6b0d71336423807a6e5ec",
        "name": "Sonto Thobela Primary Health Care Clinic",
        "place_id": "ChIJt7p7g6rYlB4Rae40Uj4xjGo",
        "plus_code": {
            "compound_code": "J98W+H4 Brakpan, South Africa",
            "global_code": "5G5CJ98W+H4"
        },
        "rating": 1,
        "reference": "ChIJt7p7g6rYlB4Rae40Uj4xjGo",
        "types": [
            "health",
            "point_of_interest",
            "establishment"
        ]
    },
    "42": {
        "formatted_address": "983 Mandela Drive, Bluegum View, Brakpan, 1469, South Africa",
        "geometry": {
            "location": {
                "lat": -26.3833309,
                "lng": 28.394218
            },
            "viewport": {
                "northeast": {
                    "lat": -26.38198107010728,
                    "lng": 28.39556782989272
                },
                "southwest": {
                    "lat": -26.38468072989272,
                    "lng": 28.39286817010728
                }
            }
        },
        "icon": "https://maps.gstatic.com/mapfiles/place_api/icons/generic_business-71.png",
        "id": "1aa930f3f210bf071229a89c7844758e3d4f6120",
        "name": "Dr S. S. Mosheledi",
        "place_id": "ChIJI_n3XlUnlR4R1BEewJhdO0o",
        "plus_code": {
            "compound_code": "J98V+MM Brakpan, South Africa",
            "global_code": "5G5CJ98V+MM"
        },
        "rating": 0,
        "reference": "ChIJI_n3XlUnlR4R1BEewJhdO0o",
        "types": [
            "health",
            "point_of_interest",
            "establishment"
        ]
    },
    "43": {
        "formatted_address": "Vlakfontein Rd, Dunnottar, Nigel, 1590, South Africa",
        "geometry": {
            "location": {
                "lat": -26.3497199,
                "lng": 28.41982
            },
            "viewport": {
                "northeast": {
                    "lat": -26.34850067010728,
                    "lng": 28.42110922989272
                },
                "southwest": {
                    "lat": -26.35120032989272,
                    "lng": 28.41840957010728
                }
            }
        },
        "icon": "https://maps.gstatic.com/mapfiles/place_api/icons/doctor-71.png",
        "id": "1e74e87d6492c48f2954918115dab01d13d60c4c",
        "name": "Nigel Community Health Centre",
        "place_id": "ChIJGfIvjRYnlR4RDBlZp2dtCQs",
        "plus_code": {
            "compound_code": "MC29+4W Nigel, South Africa",
            "global_code": "5G5CMC29+4W"
        },
        "rating": 0,
        "reference": "ChIJGfIvjRYnlR4RDBlZp2dtCQs",
        "types": [
            "hospital",
            "point_of_interest",
            "establishment"
        ]
    },
    "44": {
        "formatted_address": "Nala St & Cnr Maisela Street, Duduza, Brakpan, 1496, South Africa",
        "geometry": {
            "location": {
                "lat": -26.373607,
                "lng": 28.401803
            },
            "viewport": {
                "northeast": {
                    "lat": -26.37225717010728,
                    "lng": 28.40315282989272
                },
                "southwest": {
                    "lat": -26.37495682989272,
                    "lng": 28.40045317010728
                }
            }
        },
        "icon": "https://maps.gstatic.com/mapfiles/place_api/icons/generic_business-71.png",
        "id": "7cdf0f69e85d29e46538b7346752c92ef4e779a9",
        "name": "N.W.Z Health Centre",
        "place_id": "ChIJ_6LnVFAnlR4RczGy2NziveQ",
        "plus_code": {
            "compound_code": "JCG2+HP Brakpan, South Africa",
            "global_code": "5G5CJCG2+HP"
        },
        "rating": 0,
        "reference": "ChIJ_6LnVFAnlR4RczGy2NziveQ",
        "types": [
            "dentist",
            "health",
            "point_of_interest",
            "establishment"
        ]
    },
    "45": {
        "formatted_address": "3541 John Dube Street, Duduza, Brakpan, 1496, South Africa",
        "geometry": {
            "location": {
                "lat": -26.385185,
                "lng": 28.414867
            },
            "viewport": {
                "northeast": {
                    "lat": -26.38383517010728,
                    "lng": 28.41621682989272
                },
                "southwest": {
                    "lat": -26.38653482989272,
                    "lng": 28.41351717010728
                }
            }
        },
        "icon": "https://maps.gstatic.com/mapfiles/place_api/icons/generic_business-71.png",
        "id": "a8ef9d2668640b587c1d70363fabe2dd4498a797",
        "name": "Lucky Mkhwanazi Clinic",
        "opening_hours": {
            "open_now": false
        },
        "place_id": "ChIJLVCrxaPYlB4RepVi7YwEpjE",
        "plus_code": {
            "compound_code": "JC77+WW Brakpan, South Africa",
            "global_code": "5G5CJC77+WW"
        },
        "rating": 4,
        "reference": "ChIJLVCrxaPYlB4RepVi7YwEpjE",
        "types": [
            "health",
            "point_of_interest",
            "establishment"
        ]
    },
    "46": {
        "formatted_address": "13811 Mashele St, Tsakane, Brakpan, 1548, South Africa",
        "geometry": {
            "location": {
                "lat": -26.3841136,
                "lng": 28.3789475
            },
            "viewport": {
                "northeast": {
                    "lat": -26.38273267010728,
                    "lng": 28.38026332989272
                },
                "southwest": {
                    "lat": -26.38543232989272,
                    "lng": 28.37756367010727
                }
            }
        },
        "icon": "https://maps.gstatic.com/mapfiles/place_api/icons/generic_business-71.png",
        "id": "a8edcfcdb055b0d6dec0c8641c3f8472eab5eef0",
        "name": "Tsakane clinic Ext 10",
        "place_id": "ChIJpW_MUqYglR4RvK223GmKZcc",
        "plus_code": {
            "compound_code": "J98H+9H Brakpan, South Africa",
            "global_code": "5G5CJ98H+9H"
        },
        "rating": 0,
        "reference": "ChIJpW_MUqYglR4RvK223GmKZcc",
        "types": [
            "health",
            "point_of_interest",
            "establishment"
        ]
    },
    "47": {
        "formatted_address": "Shop no. 60 tsakane mall, Tsakane, Springs, 1550, South Africa",
        "geometry": {
            "location": {
                "lat": -26.3713839,
                "lng": 28.3754131
            },
            "viewport": {
                "northeast": {
                    "lat": -26.37003407010728,
                    "lng": 28.37676292989272
                },
                "southwest": {
                    "lat": -26.37273372989272,
                    "lng": 28.37406327010728
                }
            }
        },
        "icon": "https://maps.gstatic.com/mapfiles/place_api/icons/doctor-71.png",
        "id": "dee9f2f46cfbf297858d6ad4e3d75026a7639858",
        "name": "NWZ-ELLAN HEALTH CENTRE",
        "place_id": "ChIJjUhMqVkhlR4RlnVeLOoGc2U",
        "plus_code": {
            "compound_code": "J9HG+C5 Brakpan, South Africa",
            "global_code": "5G5CJ9HG+C5"
        },
        "rating": 0,
        "reference": "ChIJjUhMqVkhlR4RlnVeLOoGc2U",
        "types": [
            "hospital",
            "point_of_interest",
            "establishment"
        ]
    },
    "48": {
        "formatted_address": "Lekobe St, Bluegum View, Nigel, 1496, South Africa",
        "geometry": {
            "location": {
                "lat": -26.3871526,
                "lng": 28.4018392
            },
            "viewport": {
                "northeast": {
                    "lat": -26.38580567010728,
                    "lng": 28.40319377989272
                },
                "southwest": {
                    "lat": -26.38850532989272,
                    "lng": 28.40049412010728
                }
            }
        },
        "icon": "https://maps.gstatic.com/mapfiles/place_api/icons/generic_business-71.png",
        "id": "40f268d96a605d7aea4fa58b15d9bc71a612b516",
        "name": "Lucky Mkhwanazi",
        "place_id": "ChIJG7AI1ajYlB4RnCjr_8vpiNc",
        "plus_code": {
            "compound_code": "JC72+4P Brakpan, South Africa",
            "global_code": "5G5CJC72+4P"
        },
        "rating": 1,
        "reference": "ChIJG7AI1ajYlB4RnCjr_8vpiNc",
        "types": [
            "health",
            "point_of_interest",
            "establishment"
        ]
    },
    "49": {
        "formatted_address": "4395 Ngcobo St, Tsakane, Brakpan, 1548, South Africa",
        "geometry": {
            "location": {
                "lat": -26.3522167,
                "lng": 28.3799817
            },
            "viewport": {
                "northeast": {
                    "lat": -26.35081717010728,
                    "lng": 28.38140122989272
                },
                "southwest": {
                    "lat": -26.35351682989272,
                    "lng": 28.37870157010728
                }
            }
        },
        "icon": "https://maps.gstatic.com/mapfiles/place_api/icons/generic_business-71.png",
        "id": "5b6ce5923b936698450af855021bc930444db031",
        "name": "Tsakane Clinic",
        "opening_hours": {
            "open_now": false
        },
        "place_id": "ChIJX7piktoglR4RlWOXPtT9Mo4",
        "plus_code": {
            "compound_code": "J9XH+4X Brakpan, South Africa",
            "global_code": "5G5CJ9XH+4X"
        },
        "rating": 3,
        "reference": "ChIJX7piktoglR4RlWOXPtT9Mo4",
        "types": [
            "health",
            "point_of_interest",
            "establishment"
        ]
    },
    "50": {
        "formatted_address": "8683 Tswako St, Tsakane, Brakpan, 1548, South Africa",
        "geometry": {
            "location": {
                "lat": -26.358777,
                "lng": 28.370691
            },
            "viewport": {
                "northeast": {
                    "lat": -26.35744647010728,
                    "lng": 28.37213782989272
                },
                "southwest": {
                    "lat": -26.36014612989272,
                    "lng": 28.36943817010728
                }
            }
        },
        "icon": "https://maps.gstatic.com/mapfiles/place_api/icons/generic_business-71.png",
        "id": "2763e8028b0aebaf550e00318e291c2fcd98c5b7",
        "name": "Shalom Health Clinic",
        "opening_hours": {
            "open_now": false
        },
        "photos": [
            {
                "height": 640,
                "html_attributions": [
                    "<a href=\"https://maps.google.com/maps/contrib/108189894536350941317/photos\">Kamohelo Mollo</a>"
                ],
                "photo_reference": "CmRaAAAAKv2OXFS_0f8_fb75eY7fI_v4AIP5xJJ7hr0kmJnWPc3Bo3PBlgfc7m8R2jZwlaoks2wb7GakavDl2ESWdSfJvjO-WsK9kkBcUPZeeGL5DEK_BdqCS-OVSUIJgErGj9gUEhATOs1-1KYlsx8LmuDKB2zlGhQ1zBMRpxXKFOhXTej1zcNTQhW8Ow",
                "width": 640
            }
        ],
        "place_id": "ChIJxcf9r8YhlR4RBLPm6JPhcwQ",
        "plus_code": {
            "compound_code": "J9RC+F7 Brakpan, South Africa",
            "global_code": "5G5CJ9RC+F7"
        },
        "rating": 0,
        "reference": "ChIJxcf9r8YhlR4RBLPm6JPhcwQ",
        "types": [
            "health",
            "point_of_interest",
            "establishment"
        ]
    },
    "51": {
        "formatted_address": "Majola St, Kwa-Thema, Springs, 1575, South Africa",
        "geometry": {
            "location": {
                "lat": -26.310409,
                "lng": 28.391867
            },
            "viewport": {
                "northeast": {
                    "lat": -26.30893577010728,
                    "lng": 28.39305627989272
                },
                "southwest": {
                    "lat": -26.31163542989272,
                    "lng": 28.39035662010728
                }
            }
        },
        "icon": "https://maps.gstatic.com/mapfiles/place_api/icons/doctor-71.png",
        "id": "0351fabbe90ef6bfdf525e6072973530cb8b63af",
        "name": "Medical & Dental Center",
        "place_id": "ChIJ_fBZO00hlR4RYy2AjqXos_c",
        "plus_code": {
            "compound_code": "M9QR+RP Springs, South Africa",
            "global_code": "5G5CM9QR+RP"
        },
        "rating": 0,
        "reference": "ChIJ_fBZO00hlR4RYy2AjqXos_c",
        "types": [
            "dentist",
            "hospital",
            "health",
            "point_of_interest",
            "establishment"
        ]
    },
    "52": {
        "formatted_address": "29 Court St, Nigel, 1490, South Africa",
        "geometry": {
            "location": {
                "lat": -26.4191186,
                "lng": 28.4678239
            },
            "viewport": {
                "northeast": {
                    "lat": -26.41768492010728,
                    "lng": 28.46922447989272
                },
                "southwest": {
                    "lat": -26.42038457989272,
                    "lng": 28.46652482010727
                }
            }
        },
        "icon": "https://maps.gstatic.com/mapfiles/place_api/icons/generic_business-71.png",
        "id": "9e68464695c5168103da0caef3ff0238c2d060ef",
        "name": "Nigel Clinic",
        "opening_hours": {
            "open_now": false
        },
        "place_id": "ChIJA3TX2MjZlB4R5zi7tDX8CDQ",
        "plus_code": {
            "compound_code": "HFJ9+94 Nigel, South Africa",
            "global_code": "5G5CHFJ9+94"
        },
        "rating": 3,
        "reference": "ChIJA3TX2MjZlB4R5zi7tDX8CDQ",
        "types": [
            "health",
            "point_of_interest",
            "establishment"
        ]
    },
    "53": {
        "formatted_address": "147 Nigel Rd, Selcourt, Springs, 1567, South Africa",
        "geometry": {
            "location": {
                "lat": -26.2961956,
                "lng": 28.4459938
            },
            "viewport": {
                "northeast": {
                    "lat": -26.29484417010728,
                    "lng": 28.44735987989272
                },
                "southwest": {
                    "lat": -26.29754382989272,
                    "lng": 28.44466022010727
                }
            }
        },
        "icon": "https://maps.gstatic.com/mapfiles/place_api/icons/doctor-71.png",
        "id": "21578c9e722d88023f7bbc8ac3f9d64451c6c5cf",
        "name": "NWZ-ELLAN Health Centre",
        "opening_hours": {
            "open_now": false
        },
        "photos": [
            {
                "height": 1080,
                "html_attributions": [
                    "<a href=\"https://maps.google.com/maps/contrib/116375827649349907151/photos\">Dimakatso Mokoke</a>"
                ],
                "photo_reference": "CmRaAAAA5S1gB_UPzTG4cKVriuB6UJh22Le7tNndThuEJn00nS8k0o_6xJGLv3gmlXvmGj7J8aFP-yIP5HapwlfTycYG6a-OsdNG9R8wLuksYAodOvlcjY85bUYjr8oPa3QAyxsvEhCrHOTBfAiyKNTw8oFLtCbzGhQWUt6apR5ygSz2p3VEXzeMYGvO8g",
                "width": 1080
            }
        ],
        "place_id": "ChIJQ5uUUHsmlR4RMnvCVghcgkE",
        "plus_code": {
            "compound_code": "PC3W+G9 Springs, South Africa",
            "global_code": "5G5CPC3W+G9"
        },
        "rating": 5,
        "reference": "ChIJQ5uUUHsmlR4RMnvCVghcgkE",
        "types": [
            "hospital",
            "point_of_interest",
            "establishment"
        ]
    },
    "54": {
        "formatted_address": "7001 Moshoeshoe St, Kwa-Thema, Springs, 1575, South Africa",
        "geometry": {
            "location": {
                "lat": -26.294134,
                "lng": 28.391207
            },
            "viewport": {
                "northeast": {
                    "lat": -26.29284767010728,
                    "lng": 28.39269467989272
                },
                "southwest": {
                    "lat": -26.29554732989272,
                    "lng": 28.38999502010728
                }
            }
        },
        "icon": "https://maps.gstatic.com/mapfiles/place_api/icons/generic_business-71.png",
        "id": "06ac939a01d012fc04e992636c6f81f3109865da",
        "name": "Kwa-Thema Community Health Centre",
        "place_id": "ChIJb0t0DP8jlR4RV7GUs0Ik5cc",
        "plus_code": {
            "compound_code": "P94R+8F Springs, South Africa",
            "global_code": "5G5CP94R+8F"
        },
        "rating": 0,
        "reference": "ChIJb0t0DP8jlR4RV7GUs0Ik5cc",
        "types": [
            "health",
            "point_of_interest",
            "establishment"
        ]
    },
    "55": {
        "formatted_address": "Nala St, Duduza, Nigel, 1494, South Africa",
        "geometry": {
            "location": {
                "lat": -26.3755779,
                "lng": 28.4156934
            },
            "viewport": {
                "northeast": {
                    "lat": -26.37429267010728,
                    "lng": 28.41703737989272
                },
                "southwest": {
                    "lat": -26.37699232989272,
                    "lng": 28.41433772010728
                }
            }
        },
        "icon": "https://maps.gstatic.com/mapfiles/place_api/icons/generic_business-71.png",
        "id": "09603930f849fed3bf72c8fe8b79810ee2acfb98",
        "name": "Clinic - Vduduza",
        "place_id": "ChIJ7SX7JF4nlR4RClCJurpABMI",
        "plus_code": {
            "compound_code": "JCF8+Q7 Brakpan, South Africa",
            "global_code": "5G5CJCF8+Q7"
        },
        "rating": 0,
        "reference": "ChIJ7SX7JF4nlR4RClCJurpABMI",
        "types": [
            "health",
            "point_of_interest",
            "establishment"
        ]
    },
    "56": {
        "formatted_address": "7522 Kgaga St, Tsakane, Brakpan, 1548, South Africa",
        "geometry": {
            "location": {
                "lat": -26.3583828,
                "lng": 28.3749431
            },
            "viewport": {
                "northeast": {
                    "lat": -26.35704747010728,
                    "lng": 28.37629582989272
                },
                "southwest": {
                    "lat": -26.35974712989272,
                    "lng": 28.37359617010727
                }
            }
        },
        "icon": "https://maps.gstatic.com/mapfiles/place_api/icons/generic_business-71.png",
        "id": "e06d65497d0d02b577a0959c59c554e08208e40f",
        "name": "Phutanang Municipal Clinic",
        "place_id": "ChIJT4RrhMMglR4ROJTjyP1n-MY",
        "plus_code": {
            "compound_code": "J9RF+JX Brakpan, South Africa",
            "global_code": "5G5CJ9RF+JX"
        },
        "rating": 0,
        "reference": "ChIJT4RrhMMglR4ROJTjyP1n-MY",
        "types": [
            "health",
            "point_of_interest",
            "establishment"
        ]
    },
    "57": {
        "formatted_address": "10890 Zulu St, Tsakane, Brakpan, 1548, South Africa",
        "geometry": {
            "location": {
                "lat": -26.3477876,
                "lng": 28.3729059
            },
            "viewport": {
                "northeast": {
                    "lat": -26.34662852010728,
                    "lng": 28.37416727989272
                },
                "southwest": {
                    "lat": -26.34932817989272,
                    "lng": 28.37146762010728
                }
            }
        },
        "icon": "https://maps.gstatic.com/mapfiles/place_api/icons/generic_business-71.png",
        "id": "7da8ca722cc45345d69eaefbc83a2313acad1cfd",
        "name": "Tsakane New Start Clinic",
        "opening_hours": {
            "open_now": false
        },
        "place_id": "ChIJn8o4494glR4RZz4BsxwTEZo",
        "plus_code": {
            "compound_code": "M92F+V5 Brakpan, South Africa",
            "global_code": "5G5CM92F+V5"
        },
        "rating": 5,
        "reference": "ChIJn8o4494glR4RZz4BsxwTEZo",
        "types": [
            "health",
            "point_of_interest",
            "establishment"
        ]
    },
    "58": {
        "formatted_address": "Sparaxis St, Bluegum View, Nigel, 1499, South Africa",
        "geometry": {
            "location": {
                "lat": -26.3836499,
                "lng": 28.4173229
            },
            "viewport": {
                "northeast": {
                    "lat": -26.38218792010727,
                    "lng": 28.41864297989272
                },
                "southwest": {
                    "lat": -26.38488757989272,
                    "lng": 28.41594332010728
                }
            }
        },
        "icon": "https://maps.gstatic.com/mapfiles/place_api/icons/generic_business-71.png",
        "id": "a6f95408048c4106679ab9c801eedd91278f614a",
        "name": "Clinic Lucky Mkhwanazi",
        "place_id": "ChIJ1S8fTJ_YlB4RqaZAlGqGvd4",
        "plus_code": {
            "compound_code": "JC88+GW Brakpan, South Africa",
            "global_code": "5G5CJC88+GW"
        },
        "rating": 3,
        "reference": "ChIJ1S8fTJ_YlB4RqaZAlGqGvd4",
        "types": [
            "health",
            "point_of_interest",
            "establishment"
        ]
    },
    "59": {
        "formatted_address": "Izilwane Blvd, Langaville, Brakpan, 1550, South Africa",
        "geometry": {
            "location": {
                "lat": -26.3317477,
                "lng": 28.3868731
            },
            "viewport": {
                "northeast": {
                    "lat": -26.33039952010728,
                    "lng": 28.38822007989272
                },
                "southwest": {
                    "lat": -26.33309917989272,
                    "lng": 28.38552042010728
                }
            }
        },
        "icon": "https://maps.gstatic.com/mapfiles/place_api/icons/generic_business-71.png",
        "id": "817863fcd2859963b31df5f73a6438b2be3e9ae5",
        "name": "Andries Raditsela Clinic",
        "place_id": "ChIJLY0vBi4hlR4Rya7Ib5lEYio",
        "plus_code": {
            "compound_code": "M99P+8P Brakpan, South Africa",
            "global_code": "5G5CM99P+8P"
        },
        "rating": 3,
        "reference": "ChIJLY0vBi4hlR4Rya7Ib5lEYio",
        "types": [
            "health",
            "point_of_interest",
            "establishment"
        ]
    },
    "60": {
        "formatted_address": "7089 Rampela St, Rest in Peace, Springs, 1575, South Africa",
        "geometry": {
            "location": {
                "lat": -26.311672,
                "lng": 28.4028342
            },
            "viewport": {
                "northeast": {
                    "lat": -26.31032267010728,
                    "lng": 28.40421597989272
                },
                "southwest": {
                    "lat": -26.31302232989272,
                    "lng": 28.40151632010728
                }
            }
        },
        "icon": "https://maps.gstatic.com/mapfiles/place_api/icons/generic_business-71.png",
        "id": "ca16407c7299eb0ebff623c6eae19114473a00f3",
        "name": "Mbonani Centre",
        "place_id": "ChIJVaZ7NLcmlR4RXgOL8QjWxyE",
        "plus_code": {
            "compound_code": "MCQ3+84 Springs, South Africa",
            "global_code": "5G5CMCQ3+84"
        },
        "rating": 0,
        "reference": "ChIJVaZ7NLcmlR4RXgOL8QjWxyE",
        "types": [
            "health",
            "point_of_interest",
            "establishment"
        ]
    },
    "61": {
        "formatted_address": "465 Motsweni St, Duduza, Johannesburg, 1496, South Africa",
        "geometry": {
            "location": {
                "lat": -26.368014,
                "lng": 28.41031
            },
            "viewport": {
                "northeast": {
                    "lat": -26.36662422010728,
                    "lng": 28.41163557989272
                },
                "southwest": {
                    "lat": -26.36932387989272,
                    "lng": 28.40893592010728
                }
            }
        },
        "icon": "https://maps.gstatic.com/mapfiles/place_api/icons/generic_business-71.png",
        "id": "d316fdb22186884308a048cfd2f962c53ea13627",
        "name": "Dr W. Nkosi",
        "place_id": "ChIJaxId4EQnlR4RRBXVsvWxRyo",
        "plus_code": {
            "compound_code": "JCJ6+Q4 Brakpan, South Africa",
            "global_code": "5G5CJCJ6+Q4"
        },
        "rating": 0,
        "reference": "ChIJaxId4EQnlR4RRBXVsvWxRyo",
        "types": [
            "local_government_office",
            "doctor",
            "health",
            "point_of_interest",
            "establishment"
        ]
    },
    "62": {
        "formatted_address": "24500 Nkosi St, Kwa-Thema, Springs, 1575, South Africa",
        "geometry": {
            "location": {
                "lat": -26.2959299,
                "lng": 28.3919
            },
            "viewport": {
                "northeast": {
                    "lat": -26.29458007010728,
                    "lng": 28.39324982989272
                },
                "southwest": {
                    "lat": -26.29727972989272,
                    "lng": 28.39055017010728
                }
            }
        },
        "icon": "https://maps.gstatic.com/mapfiles/place_api/icons/generic_business-71.png",
        "id": "7c9e969c8be932bf9312725f23247e03f4ef3030",
        "name": "Clinic - Kwa Thema X3",
        "place_id": "ChIJ65zik_8jlR4RaeHFylVY5gE",
        "plus_code": {
            "compound_code": "P93R+JQ Springs, South Africa",
            "global_code": "5G5CP93R+JQ"
        },
        "rating": 1,
        "reference": "ChIJ65zik_8jlR4RaeHFylVY5gE",
        "types": [
            "health",
            "point_of_interest",
            "establishment"
        ]
    },
    "63": {
        "formatted_address": "556 22nd Rd, Withok Estates, Brakpan, South Africa",
        "geometry": {
            "location": {
                "lat": -26.3177111,
                "lng": 28.3727835
            },
            "viewport": {
                "northeast": {
                    "lat": -26.31624347010728,
                    "lng": 28.37380012989272
                },
                "southwest": {
                    "lat": -26.31894312989272,
                    "lng": 28.37110047010728
                }
            }
        },
        "icon": "https://maps.gstatic.com/mapfiles/place_api/icons/generic_business-71.png",
        "id": "825646641bf3998a3ac24cb5b630f4ef3ad7944c",
        "name": "Leth'ukukhanya Care Centre",
        "place_id": "ChIJ95Q51EMhlR4R08fkpMJ5yOU",
        "plus_code": {
            "compound_code": "M9JF+W4 Brakpan, South Africa",
            "global_code": "5G5CM9JF+W4"
        },
        "rating": 5,
        "reference": "ChIJ95Q51EMhlR4R08fkpMJ5yOU",
        "types": [
            "health",
            "point_of_interest",
            "establishment"
        ]
    },
    "64": {
        "formatted_address": "L J Dube Street, Bluegum View, Nigel, 1499, South Africa",
        "geometry": {
            "location": {
                "lat": -26.385498,
                "lng": 28.4161092
            },
            "viewport": {
                "northeast": {
                    "lat": -26.38414817010728,
                    "lng": 28.41745902989272
                },
                "southwest": {
                    "lat": -26.38684782989272,
                    "lng": 28.41475937010728
                }
            }
        },
        "icon": "https://maps.gstatic.com/mapfiles/place_api/icons/generic_business-71.png",
        "id": "3f8db3b26e10acf84eb6b9f503c179781ef188d2",
        "name": "Clinic - Zamani",
        "place_id": "ChIJu8jPF6LYlB4R9_G1GxAaAw4",
        "plus_code": {
            "compound_code": "JC78+RC Brakpan, South Africa",
            "global_code": "5G5CJC78+RC"
        },
        "rating": 3,
        "reference": "ChIJu8jPF6LYlB4R9_G1GxAaAw4",
        "types": [
            "health",
            "point_of_interest",
            "establishment"
        ]
    },
    "65": {
        "formatted_address": "Kwa-Thema Civic Centre, 1563 Ngungunyane St, Kwa-Thema, Springs, 1575, South Africa",
        "geometry": {
            "location": {
                "lat": -26.2961269,
                "lng": 28.391857
            },
            "viewport": {
                "northeast": {
                    "lat": -26.29483672010728,
                    "lng": 28.39333432989272
                },
                "southwest": {
                    "lat": -26.29753637989272,
                    "lng": 28.39063467010727
                }
            }
        },
        "icon": "https://maps.gstatic.com/mapfiles/place_api/icons/generic_business-71.png",
        "id": "4b2caa788e283607ae4b18e4d2260174ab6de938",
        "name": "Medicross KwaThema",
        "opening_hours": {
            "open_now": false
        },
        "place_id": "ChIJmaZ4fwAklR4RXdGlS8NbSI4",
        "plus_code": {
            "compound_code": "P93R+GP Springs, South Africa",
            "global_code": "5G5CP93R+GP"
        },
        "rating": 1,
        "reference": "ChIJmaZ4fwAklR4RXdGlS8NbSI4",
        "types": [
            "health",
            "point_of_interest",
            "establishment"
        ]
    },
    "66": {
        "formatted_address": "Vlakfontein Rd, Dunnottar, Nigel, 1590, South Africa",
        "geometry": {
            "location": {
                "lat": -26.3497199,
                "lng": 28.41982
            },
            "viewport": {
                "northeast": {
                    "lat": -26.34850067010728,
                    "lng": 28.42110922989272
                },
                "southwest": {
                    "lat": -26.35120032989272,
                    "lng": 28.41840957010728
                }
            }
        },
        "icon": "https://maps.gstatic.com/mapfiles/place_api/icons/doctor-71.png",
        "id": "1e74e87d6492c48f2954918115dab01d13d60c4c",
        "name": "Nigel Community Health Centre",
        "place_id": "ChIJGfIvjRYnlR4RDBlZp2dtCQs",
        "plus_code": {
            "compound_code": "MC29+4W Nigel, South Africa",
            "global_code": "5G5CMC29+4W"
        },
        "rating": 0,
        "reference": "ChIJGfIvjRYnlR4RDBlZp2dtCQs",
        "types": [
            "hospital",
            "point_of_interest",
            "establishment"
        ]
    },
    "67": {
        "formatted_address": "1067 Indaba St, Tsakane, Brakpan, 1550, South Africa",
        "geometry": {
            "location": {
                "lat": -26.33984,
                "lng": 28.37704
            },
            "viewport": {
                "northeast": {
                    "lat": -26.33903067010728,
                    "lng": 28.37874827989272
                },
                "southwest": {
                    "lat": -26.34173032989272,
                    "lng": 28.37604862010728
                }
            }
        },
        "icon": "https://maps.gstatic.com/mapfiles/place_api/icons/doctor-71.png",
        "id": "00004aee46798668ce899dee4b73a0060407d2c4",
        "name": "Pholosong Hospital",
        "photos": [
            {
                "height": 2048,
                "html_attributions": [
                    "<a href=\"https://maps.google.com/maps/contrib/112979029178393023688/photos\">Vusi Masuku</a>"
                ],
                "photo_reference": "CmRaAAAALYi6_EXATxc0adcBVcltlHs7HpPlBoGfx5CjvQQ5qo7_pjcZe01KeJ1F7KY2iVqbMGmYk188CVVsRggLseRuu9BfqS1eS-dKRjfsPXnaNbraEAQ5nsVNq-N9dO2UIeOLEhA_1D07DFZqs4qLNx_0vifAGhSdr5dwNrRHDzdpdIchY1mHy0kpwA",
                "width": 1536
            }
        ],
        "place_id": "ChIJ8RIDlSYhlR4RkLxFUECzK8Y",
        "plus_code": {
            "compound_code": "M96G+3R Brakpan, South Africa",
            "global_code": "5G5CM96G+3R"
        },
        "rating": 3.3,
        "reference": "ChIJ8RIDlSYhlR4RkLxFUECzK8Y",
        "types": [
            "hospital",
            "point_of_interest",
            "establishment"
        ]
    },
    "68": {
        "formatted_address": "33877 Indaba St, Tsakane, Brakpan, 1548, South Africa",
        "geometry": {
            "location": {
                "lat": -26.3416672,
                "lng": 28.3764225
            },
            "viewport": {
                "northeast": {
                    "lat": -26.34032987010728,
                    "lng": 28.37778082989272
                },
                "southwest": {
                    "lat": -26.34302952989272,
                    "lng": 28.37508117010728
                }
            }
        },
        "icon": "https://maps.gstatic.com/mapfiles/place_api/icons/doctor-71.png",
        "id": "004b0643e7c1600e84c0b8aa78c05207d4243a42",
        "name": "Pholosong Hospital 2",
        "place_id": "ChIJNUrdJichlR4RydfPF3AOuI8",
        "plus_code": {
            "compound_code": "M95G+8H Brakpan, South Africa",
            "global_code": "5G5CM95G+8H"
        },
        "rating": 0,
        "reference": "ChIJNUrdJichlR4RydfPF3AOuI8",
        "types": [
            "hospital",
            "point_of_interest",
            "establishment"
        ]
    },
    "69": {
        "formatted_address": "20069 Nhlangwini St, Tsakane, Brakpan, 1550, South Africa",
        "geometry": {
            "location": {
                "lat": -26.3677145,
                "lng": 28.3578116
            },
            "viewport": {
                "northeast": {
                    "lat": -26.36634972010728,
                    "lng": 28.35916052989272
                },
                "southwest": {
                    "lat": -26.36904937989272,
                    "lng": 28.35646087010727
                }
            }
        },
        "icon": "https://maps.gstatic.com/mapfiles/place_api/icons/doctor-71.png",
        "id": "aaf65b1d6031537246d193da824bd8586f3fefab",
        "name": "Simunye Clinic",
        "photos": [
            {
                "height": 3264,
                "html_attributions": [
                    "<a href=\"https://maps.google.com/maps/contrib/108265886800468147153/photos\">A Google User</a>"
                ],
                "photo_reference": "CmRaAAAAjOPYE6SX9eX0ol5m6xM6Jivb87u-Os-uvIFHHmwRRYeRrp_y44jcOB32Qw5lUcFh89ZyiiYnwQcsM5asAtR8iAFwGAFxBogK5F53wLgzyw7ivqAzfKaBi6VAUf9ZPRF0EhBZg3YfGs91abCt5tA-9BtgGhS_RgVGGVkXIj4DlPG_f1V3W75SOw",
                "width": 2448
            }
        ],
        "place_id": "ChIJBbC2gvIglR4RZtoql7Hr25M",
        "plus_code": {
            "compound_code": "J9J5+W4 Brakpan, South Africa",
            "global_code": "5G5CJ9J5+W4"
        },
        "rating": 2.4,
        "reference": "ChIJBbC2gvIglR4RZtoql7Hr25M",
        "types": [
            "hospital",
            "point_of_interest",
            "establishment"
        ]
    },
    "70": {
        "formatted_address": "3541 John Dube Street, Duduza, Brakpan, 1496, South Africa",
        "geometry": {
            "location": {
                "lat": -26.385185,
                "lng": 28.414867
            },
            "viewport": {
                "northeast": {
                    "lat": -26.38383517010728,
                    "lng": 28.41621682989272
                },
                "southwest": {
                    "lat": -26.38653482989272,
                    "lng": 28.41351717010728
                }
            }
        },
        "icon": "https://maps.gstatic.com/mapfiles/place_api/icons/generic_business-71.png",
        "id": "a8ef9d2668640b587c1d70363fabe2dd4498a797",
        "name": "Lucky Mkhwanazi Clinic",
        "opening_hours": {
            "open_now": false
        },
        "place_id": "ChIJLVCrxaPYlB4RepVi7YwEpjE",
        "plus_code": {
            "compound_code": "JC77+WW Brakpan, South Africa",
            "global_code": "5G5CJC77+WW"
        },
        "rating": 4,
        "reference": "ChIJLVCrxaPYlB4RepVi7YwEpjE",
        "types": [
            "health",
            "point_of_interest",
            "establishment"
        ]
    },
    "71": {
        "formatted_address": "Shop no. 60 tsakane mall, Tsakane, Springs, 1550, South Africa",
        "geometry": {
            "location": {
                "lat": -26.3713839,
                "lng": 28.3754131
            },
            "viewport": {
                "northeast": {
                    "lat": -26.37003407010728,
                    "lng": 28.37676292989272
                },
                "southwest": {
                    "lat": -26.37273372989272,
                    "lng": 28.37406327010728
                }
            }
        },
        "icon": "https://maps.gstatic.com/mapfiles/place_api/icons/doctor-71.png",
        "id": "dee9f2f46cfbf297858d6ad4e3d75026a7639858",
        "name": "NWZ-ELLAN HEALTH CENTRE",
        "place_id": "ChIJjUhMqVkhlR4RlnVeLOoGc2U",
        "plus_code": {
            "compound_code": "J9HG+C5 Brakpan, South Africa",
            "global_code": "5G5CJ9HG+C5"
        },
        "rating": 0,
        "reference": "ChIJjUhMqVkhlR4RlnVeLOoGc2U",
        "types": [
            "hospital",
            "point_of_interest",
            "establishment"
        ]
    },
    "72": {
        "formatted_address": "Pholosong Hospital 1067, Indaba St, Tsakane, Brakpan, 1550, South Africa",
        "geometry": {
            "location": {
                "lat": -26.33861,
                "lng": 28.37667
            },
            "viewport": {
                "northeast": {
                    "lat": -26.33726017010728,
                    "lng": 28.37801982989272
                },
                "southwest": {
                    "lat": -26.33995982989272,
                    "lng": 28.37532017010728
                }
            }
        },
        "icon": "https://maps.gstatic.com/mapfiles/place_api/icons/doctor-71.png",
        "id": "e6f46a175663faaf225fdfac73904e98ebed9228",
        "name": "Pholosong Hospital - Dept of Psychiatry",
        "place_id": "ChIJ1S5KHiQhlR4RB3dzRz6VqP8",
        "plus_code": {
            "compound_code": "M96G+HM Brakpan, South Africa",
            "global_code": "5G5CM96G+HM"
        },
        "rating": 0,
        "reference": "ChIJ1S5KHiQhlR4RB3dzRz6VqP8",
        "types": [
            "hospital",
            "point_of_interest",
            "establishment"
        ]
    },
    "73": {
        "formatted_address": "24659 MasibeniStreet, Kwa-Thema Phase 3, Springs, 1575, South Africa",
        "geometry": {
            "location": {
                "lat": -26.3127183,
                "lng": 28.4176773
            },
            "viewport": {
                "northeast": {
                    "lat": -26.31136847010728,
                    "lng": 28.41902712989272
                },
                "southwest": {
                    "lat": -26.31406812989272,
                    "lng": 28.41632747010728
                }
            }
        },
        "icon": "https://maps.gstatic.com/mapfiles/place_api/icons/doctor-71.png",
        "id": "9bd7617fd12433016ac7b259129bec6da108f774",
        "name": "Selope Thema clinic",
        "opening_hours": {
            "open_now": false
        },
        "place_id": "ChIJkfFHR5UmlR4RS5hHhQX-w5Y",
        "plus_code": {
            "compound_code": "MCP9+W3 Springs, South Africa",
            "global_code": "5G5CMCP9+W3"
        },
        "rating": 0,
        "reference": "ChIJkfFHR5UmlR4RS5hHhQX-w5Y",
        "types": [
            "hospital",
            "point_of_interest",
            "establishment"
        ]
    },
    "74": {
        "formatted_address": "7 Tonk Meter Road, Golden Springs, Springs, 1559, South Africa",
        "geometry": {
            "location": {
                "lat": -26.286612,
                "lng": 28.429537
            },
            "viewport": {
                "northeast": {
                    "lat": -26.28525882010728,
                    "lng": 28.43092167989272
                },
                "southwest": {
                    "lat": -26.28795847989272,
                    "lng": 28.42822202010728
                }
            }
        },
        "icon": "https://maps.gstatic.com/mapfiles/place_api/icons/doctor-71.png",
        "id": "8e9bc02d714878bf823825bfa1b4754bf0c9948b",
        "name": "Netcare",
        "place_id": "ChIJLfDC9CgklR4RaP4C47l1uao",
        "plus_code": {
            "compound_code": "PC7H+9R Springs, South Africa",
            "global_code": "5G5CPC7H+9R"
        },
        "rating": 0,
        "reference": "ChIJLfDC9CgklR4RaP4C47l1uao",
        "types": [
            "hospital",
            "point_of_interest",
            "establishment"
        ]
    },
    "75": {
        "formatted_address": "7 Tonk Meter Dr, Pollak Park, Springs, 1559, South Africa",
        "geometry": {
            "location": {
                "lat": -26.2722617,
                "lng": 28.4286039
            },
            "viewport": {
                "northeast": {
                    "lat": -26.27105032010728,
                    "lng": 28.42962967989272
                },
                "southwest": {
                    "lat": -26.27374997989272,
                    "lng": 28.42693002010728
                }
            }
        },
        "icon": "https://maps.gstatic.com/mapfiles/place_api/icons/doctor-71.png",
        "id": "e6777ce486fccdd629da4e8aab0329f6d7e4f641",
        "name": "Netcare N17 Hospital",
        "opening_hours": {
            "open_now": true
        },
        "photos": [
            {
                "height": 3264,
                "html_attributions": [
                    "<a href=\"https://maps.google.com/maps/contrib/114766053268332413088/photos\">Moses Mangwaira</a>"
                ],
                "photo_reference": "CmRaAAAAUaBeUGEHc2wR6nNH7xMN-2RvPb_lfUTvQ0BAlzQ-CdZZozmV1YxWc4FZBx2O5GG4ca0W7cce4RMKwDocgsvx3q-_ae6n3BJ_6OovLox2jOC_GNT2U629Thx2Qoxlxde4EhAkDj-QhHjrKPDcG4K8xyxiGhSy80PrLk77Q-mvAODxYl68iHn50g",
                "width": 2448
            }
        ],
        "place_id": "ChIJwfS5q5AklR4Rc_w6qBDeCPw",
        "plus_code": {
            "compound_code": "PCHH+3C Springs, South Africa",
            "global_code": "5G5CPCHH+3C"
        },
        "rating": 2.6,
        "reference": "ChIJwfS5q5AklR4Rc_w6qBDeCPw",
        "types": [
            "hospital",
            "point_of_interest",
            "establishment"
        ]
    },
    "76": {
        "formatted_address": "5241 Maisela St, Duduza, Brakpan, 1496, South Africa",
        "geometry": {
            "location": {
                "lat": -26.373607,
                "lng": 28.401803
            },
            "viewport": {
                "northeast": {
                    "lat": -26.37209542010728,
                    "lng": 28.40294642989272
                },
                "southwest": {
                    "lat": -26.37479507989272,
                    "lng": 28.40024677010728
                }
            }
        },
        "icon": "https://maps.gstatic.com/mapfiles/place_api/icons/generic_business-71.png",
        "id": "c1ed04abc34dfc158f426f295fb2d25a5bf78223",
        "name": "Duduza Medical Centre",
        "place_id": "ChIJ_6LnVFAnlR4RjnS680Pmtgc",
        "plus_code": {
            "compound_code": "JCG2+HP Brakpan, South Africa",
            "global_code": "5G5CJCG2+HP"
        },
        "rating": 0,
        "reference": "ChIJ_6LnVFAnlR4RjnS680Pmtgc",
        "types": [
            "hospital",
            "doctor",
            "health",
            "point_of_interest",
            "establishment"
        ]
    },
    "77": {
        "formatted_address": "Springs W Rd, Pollak Park, Springs, 1559, South Africa",
        "geometry": {
            "location": {
                "lat": -26.2661101,
                "lng": 28.4357286
            },
            "viewport": {
                "northeast": {
                    "lat": -26.26431652010728,
                    "lng": 28.43675897989272
                },
                "southwest": {
                    "lat": -26.26701617989272,
                    "lng": 28.43405932010728
                }
            }
        },
        "icon": "https://maps.gstatic.com/mapfiles/place_api/icons/doctor-71.png",
        "id": "3c9eb12e895c510c2c3df3e971b10bd0be02a423",
        "name": "Life Springs Parkland Hospital",
        "opening_hours": {
            "open_now": true
        },
        "photos": [
            {
                "height": 2988,
                "html_attributions": [
                    "<a href=\"https://maps.google.com/maps/contrib/117321132433099598662/photos\">Haulrich Kuschke</a>"
                ],
                "photo_reference": "CmRaAAAAjx1Whf0lH48nGJdZW8i9R7yofiBgWySjBuwriRqxkYbFvgWIFONK02uIh0IgG_CNRzIF_FgTlxFZYmt7VHU7sOjetsHbVu9a_UzVojJUC6Y5tuyIJ5m_rxz-84yoKcTyEhAK4JvUq3WkwTpiz2qpLXCEGhTHrMBg7r5DK9xYuRgKFwvVf0X_dQ",
                "width": 5312
            }
        ],
        "place_id": "ChIJ6VeUijUklR4R3KFxaR8k82I",
        "plus_code": {
            "compound_code": "PCMP+H7 Springs, South Africa",
            "global_code": "5G5CPCMP+H7"
        },
        "rating": 3.3,
        "reference": "ChIJ6VeUijUklR4R3KFxaR8k82I",
        "types": [
            "hospital",
            "point_of_interest",
            "establishment"
        ]
    },
    "78": {
        "formatted_address": "Far East Rand Hospital, Hospital Street, Springs, 1559, South Africa",
        "geometry": {
            "location": {
                "lat": -26.23564,
                "lng": 28.40486
            },
            "viewport": {
                "northeast": {
                    "lat": -26.23429017010729,
                    "lng": 28.40620982989272
                },
                "southwest": {
                    "lat": -26.23698982989273,
                    "lng": 28.40351017010728
                }
            }
        },
        "icon": "https://maps.gstatic.com/mapfiles/place_api/icons/doctor-71.png",
        "id": "3f95d5981ed1c4d734dd54d0f4ebc345a5294df2",
        "name": "Far East Rand Hospital - Maternity Ward",
        "opening_hours": {
            "open_now": true
        },
        "place_id": "ChIJwfS5q5AklR4R1F286zULGjA",
        "plus_code": {
            "compound_code": "QC73+PW Springs, South Africa",
            "global_code": "5G5CQC73+PW"
        },
        "rating": 1.8,
        "reference": "ChIJwfS5q5AklR4R1F286zULGjA",
        "types": [
            "hospital",
            "point_of_interest",
            "establishment"
        ]
    },
    "79": {
        "formatted_address": "30 Rhodes Ave, Nigel, 1490, South Africa",
        "geometry": {
            "location": {
                "lat": -26.42126,
                "lng": 28.4759624
            },
            "viewport": {
                "northeast": {
                    "lat": -26.41991017010728,
                    "lng": 28.47731222989272
                },
                "southwest": {
                    "lat": -26.42260982989272,
                    "lng": 28.47461257010728
                }
            }
        },
        "icon": "https://maps.gstatic.com/mapfiles/place_api/icons/doctor-71.png",
        "id": "b5f3a43a51ab069780236d716775a3160a7ae88e",
        "name": "Welgelegen Animal Clinic",
        "opening_hours": {
            "open_now": false
        },
        "place_id": "ChIJYVGCwNrZlB4RifMUxT9A7Mc",
        "plus_code": {
            "compound_code": "HFHG+F9 Nigel, South Africa",
            "global_code": "5G5CHFHG+F9"
        },
        "rating": 4.8,
        "reference": "ChIJYVGCwNrZlB4RifMUxT9A7Mc",
        "types": [
            "hospital",
            "point_of_interest",
            "establishment"
        ]
    },
    "80": {
        "formatted_address": "79kings way, Nigel, 1490, South Africa",
        "geometry": {
            "location": {
                "lat": -26.4322413,
                "lng": 28.4727108
            },
            "viewport": {
                "northeast": {
                    "lat": -26.43089147010728,
                    "lng": 28.47406062989272
                },
                "southwest": {
                    "lat": -26.43359112989272,
                    "lng": 28.47136097010728
                }
            }
        },
        "icon": "https://maps.gstatic.com/mapfiles/place_api/icons/doctor-71.png",
        "id": "c9533f7e219befa994bc36536f221ebb169677c0",
        "name": "ABC Motors",
        "photos": [
            {
                "height": 358,
                "html_attributions": [
                    "<a href=\"https://maps.google.com/maps/contrib/100910536185858423308/photos\">A Google User</a>"
                ],
                "photo_reference": "CmRZAAAAQmTMb1z0DOZmkD3Sg_yjzxtdPZIsumsZ4EWweQKZ4TY6nzC6WHRJO1N2uOxNoUU2S7jf5b-CsTZUKVxZcXh1V_yrWybSHag6MXY-aGMy_8m5Zg-NFBEZG64Ezz7Jb0ACEhBX9n0hnTK9oDZYp-qqfck9GhR6zuzwFjvyh_MR68xmP4kSiq3gnA",
                "width": 850
            }
        ],
        "place_id": "ChIJ8QAAO-jZlB4RNfAY15LYWbw",
        "plus_code": {
            "compound_code": "HF9F+43 Nigel, South Africa",
            "global_code": "5G5CHF9F+43"
        },
        "rating": 2.2,
        "reference": "ChIJ8QAAO-jZlB4RNfAY15LYWbw",
        "types": [
            "hospital",
            "point_of_interest",
            "establishment"
        ]
    },
    "81": {
        "formatted_address": "Majola St, Kwa-Thema, Springs, 1575, South Africa",
        "geometry": {
            "location": {
                "lat": -26.310409,
                "lng": 28.391867
            },
            "viewport": {
                "northeast": {
                    "lat": -26.30893577010728,
                    "lng": 28.39305627989272
                },
                "southwest": {
                    "lat": -26.31163542989272,
                    "lng": 28.39035662010728
                }
            }
        },
        "icon": "https://maps.gstatic.com/mapfiles/place_api/icons/doctor-71.png",
        "id": "0351fabbe90ef6bfdf525e6072973530cb8b63af",
        "name": "Medical & Dental Center",
        "place_id": "ChIJ_fBZO00hlR4RYy2AjqXos_c",
        "plus_code": {
            "compound_code": "M9QR+RP Springs, South Africa",
            "global_code": "5G5CM9QR+RP"
        },